     2.11           OBSERVATION DATA    G (GPS)             RINEX VERSION / TYPE
teqc  2013Mar15                         20150104 02:40:39UTCPGM / RUN BY / DATE
Automatic           ASI - TELESPAZIO                        OBSERVER / AGENCY
20203888            TRIMBLE 4700        Nav 1.20 Sig 0.00   REC # / TYPE / VERS
11730               TRM29659.00     NONE                    ANT # / TYPE
Linux2.4.20-8|i386|gcc|Win32-MinGW32|=                      COMMENT
teqc  2013Mar15     ASI - Telespazio    20150104 02:14:14UTCCOMMENT
     2              OBSERVATION DATA                        COMMENT
DAT2RIN 2.51 TRS    ASI - TELESPAZIO    03JAN15  0:59:44 GMTCOMMENT
----------------------------------------------------------- COMMENT
Offset from BOTTOM OF ANTENNA to PHASE CENTER is 110.0 mm   COMMENT
----------------------------------------------------------- COMMENT
GENO                                                        MARKER NAME
12712M002                                                   MARKER NUMBER
  4507892.2833   707621.2880  4441605.1468                  APPROX POSITION XYZ
        0.0000        0.0000        0.0000                  ANTENNA: DELTA H/E/N
*** Above antenna height is from mark to BOTTOM OF ANTENNA. COMMENT
     1     1                                                WAVELENGTH FACT L1/2
     5    L1    C1    L2    P2    D1                        # / TYPES OF OBSERV
    30.0000                                                 INTERVAL
  2015     1     3     0     0    0.0000000     GPS         TIME OF FIRST OBS
                                                            END OF HEADER
 15  1  3  0  0  0.0000000  0  8G02G06G12G14G24G25G29G31
 -27911742.289 7  22684667.490 7 -21735044.12448  22684659.26048      1655.820
 -20997264.715 2  24483232.106 2 -16340610.31644  24483230.04444      -534.697
 -49462130.855 6  21407934.460 6 -38519166.46649  21407928.73349      -199.771
 -30110533.578 7  22488814.054 7 -23400602.05648  22488809.51248       251.694
 -38100381.445 6  23175568.876 6 -30088063.57547  23175567.22347     -1641.851
 -46204203.867 8  20385286.569 8 -35991785.27849  20385283.52649      2020.376
 -33838598.309 7  20868254.468 7 -26349371.82849  20868249.45149      3764.653
 -14566468.988 6  23057505.747 6 -10864815.19348  23057500.24648      4677.510
 15  1  3  0  0 30.0000000  0  8G02G06G12G14G24G25G29G31
 -27961157.156 6  22675264.117 6 -21773549.22148  22675255.80648      1638.628
 -20980993.465 2  24486328.411 2 -16327931.37945  24486327.13645      -549.614
 -49456026.637 7  21409096.005 7 -38514409.95349  21409090.17149      -207.046
 -30117833.148 7  22487425.015 7 -23406290.03147  22487419.70547       235.078
 -38051015.148 6  23184963.003 6 -30049596.34247  23184961.27947     -1649.150
 -46264657.164 8  20373782.675 8 -36038891.74049  20373779.75449      2009.917
 -33951314.414 7  20846805.296 7 -26437202.55549  20846800.70249      3749.898
 -14706683.715 6  23030823.795 6 -10974073.39548  23030817.91348      4670.147
 15  1  3  0  1  0.0000000  0  8G02G06G12G14G24G25G29G31
 -28010048.172 6  22665960.519 6 -21811646.09548  22665952.73148      1620.767
 -20964276.938 1  24489509.446 1 -16314905.48043  24489508.92643      -564.712
 -49449697.953 6  21410300.349 6 -38509478.52349  21410294.80449      -214.839
 -30124629.391 7  22486131.769 7 -23411585.82447  22486126.30447       218.032
 -38001423.988 6  23194399.944 6 -30010953.89147  23194397.66147     -1656.875
 -46324790.301 8  20362339.709 8 -36085748.72949  20362336.74349      1998.926
 -34063582.578 7  20825441.361 7 -26524684.22449  20825436.54049      3734.673
 -14846670.730 6  23004185.184 6 -11083154.17348  23004179.48748      4662.276
 15  1  3  0  1 30.0000000  0  8G02G06G12G14G24G25G29G31
 -28058415.148 6  22656756.600 6 -21849334.64148  22656748.03148      1603.418
 -20947117.680 1  24492774.896 1                                      -579.341
 -49443145.023 6  21411547.356 6 -38504372.35449  21411541.82049      -222.290
 -30130924.336 6  22484933.900 6 -23416490.99947  22484928.15947       201.450
 -37951609.773 6  23203879.333 6 -29972137.64647  23203876.61047     -1664.268
 -46384603.246 8  20350957.678 8 -36132356.21649  20350955.09149      1988.389
 -34175401.766 7  20804162.871 7 -26611816.05549  20804157.63349      3719.697
 -14986427.535 6  22977590.366 6 -11192055.58748  22977585.19148      4654.648
 15  1  3  0  2  0.0000000  0  7G02G12G14G24G25G29G31
 -28106260.367 7  22647651.993 7 -21886616.63748  22647643.07448      1586.856
 -49436370.371 7  21412836.515 7 -38499093.43149  21412831.18249      -228.877
 -30136722.402 7  22483830.575 7 -23421008.99447  22483825.57447       185.698
 -37901576.777 6  23213400.302 6 -29933150.91647  23213398.42447     -1670.693
 -46444098.285 8  20339636.145 8 -36178715.99549  20339633.44849      1978.525
 -34286773.641 7  20782969.503 7 -26698599.32549  20782964.73749      3705.591
 -15125954.313 6  22951039.308 6 -11300777.74548  22951033.76448      4647.671
 15  1  3  0  2 30.0000000  0  8G02G06G12G14G24G25G29G31
 -28153591.074 7  22638645.290 7 -21923497.68748  22638636.94548      1569.414
 -20911493.949 1  24499553.595 1                                      -607.495
 -49429382.156 7  21414166.347 7 -38493648.08049  21414160.95849      -236.152
 -30142033.105 7  22482819.985 7 -23425147.20847  22482815.59447       169.243
 -37851333.762 6  23222961.221 6 -29894000.51847  23222958.98547     -1677.954
 -46503282.363 8  20328373.796 8 -36224833.46249  20328371.00649      1967.920
 -34397704.332 7  20761860.097 7 -26785038.82149  20761855.34249      3690.620
 -15265256.250 6  22924531.021 6 -11409324.68848  22924525.17348      4639.907
 15  1  3  0  3  0.0000000  0  7G02G12G14G24G25G29G31
 -28200405.313 7  22629736.839 7 -21959976.31448  22629728.62048      1551.831
 -49422179.469 7  21415537.005 7 -38488035.61049  21415531.22349      -243.706
 -30146856.727 7  22481902.081 7 -23428905.88847  22481896.99347       152.656
 -37800881.301 6  23232561.964 6 -29854686.92447  23232559.77747     -1685.269
 -46562153.492 8  20317171.016 8 -36270707.07049  20317168.22949      1957.124
 -34508191.410 7  20740835.105 7 -26871132.62849  20740829.59849      3675.459
 -15404329.266 6  22898066.290 6 -11517693.26248  22898060.57748      4631.899
 15  1  3  0  3 30.0000000  0  8G02G06G12G14G24G25G29G31
 -28246710.004 7  22620925.355 7 -21996057.87248  22620917.20648      1534.853
 -20874165.602 1  24506657.153 1                                      -636.309
 -49414770.234 7  21416946.936 7 -38482262.19549  21416941.35849      -250.732
 -30151202.313 6  22481075.135 6 -23432292.08947  22481069.81747       136.626
 -37750228.063 6  23242200.850 6 -29815216.88047  23242198.66847     -1692.002
 -46620718.535 8  20306026.491 8 -36316342.17749  20306023.41449      1946.812
 -34618241.000 7  20719893.376 7 -26956885.54649  20719888.81549      3660.820
 -15543178.027 6  22871644.243 6 -11625887.10348  22871638.80248      4624.292
 15  1  3  0  4  0.0000000  0  8G02G06G12G14G24G25G29G31
 -28292496.457 7  22612212.469 7 -22031735.63148  22612204.76948      1517.637
 -20854866.648 1  24510329.631 1                                      -650.361
 -49407145.543 7  21418397.840 7 -38476320.89649  21418392.24349      -257.666
 -30155063.570 6  22480340.363 6 -23435300.89047  22480335.02147       120.728
 -37699367.375 6  23251879.258 6 -29775585.17847  23251877.41247     -1698.799
 -46678968.672 8  20294941.864 8 -36361731.89549  20294939.05749      1936.460
 -34727843.625 7  20699036.668 7 -27042290.18549  20699031.83649      3646.064
 -15681792.090 6  22845266.856 6 -11733898.04448  22845260.80148      4616.665
 15  1  3  0  4 30.0000000  0  8G02G06G12G14G24G25G29G31
 -28337756.852 7  22603599.673 7 -22067003.46848  22603591.44348      1500.039
 -20835136.324 1  24514084.272 1                                      -664.712
 -49399298.238 7  21419891.144 7 -38470206.14949  21419885.24549      -265.117
 -30158434.648 6  22479698.855 6 -23437927.70847  22479693.28647       104.297
 -37648292.793 6  23261598.389 6 -29735786.81847  23261596.80247     -1705.942
 -46736895.621 8  20283918.735 8 -36406869.78049  20283915.57049      1925.601
 -34836990.883 7  20678266.626 7 -27127339.99249  20678261.93049      3630.757
 -15820160.855 6  22818936.119 6 -11841717.86248  22818930.18148      4608.374
 15  1  3  0  5  0.0000000  0  8G02G06G12G14G24G25G29G31
 -28382502.484 7  22595084.867 7 -22101870.18248  22595076.92148      1483.296
 -20814988.527 1  24517918.430 1                                      -678.096
 -49391240.129 7  21421424.589 7 -38463927.10549  21421418.69149      -271.797
 -30161328.707 6  22479148.123 6 -23440182.85447  22479142.66947        88.921
 -37597018.055 6  23271355.682 6 -29695832.50247  23271353.58147     -1712.148
 -46794510.566 8  20272954.994 8 -36451764.54549  20272952.01149      1915.635
 -34945692.672 7  20657581.342 7 -27212042.68349  20657576.37349      3616.274
 -15958293.344 6  22792650.354 6 -11949353.54248  22792644.42648      4600.762
 15  1  3  0  5 30.0000000  0  8G02G06G12G14G24G25G29G31
 -28426728.711 7  22586668.815 7 -22136332.17048  22586661.71748      1465.581
 -20794420.727 1  24521832.703 1                                      -692.729
 -49382967.137 7  21422998.876 7 -38457480.62249  21422993.18949      -279.189
 -30163743.629 6  22478688.620 6 -23442064.61647  22478683.05647        72.651
 -37545539.813 6  23281151.686 6 -29655719.58947  23281150.38247     -1719.189
 -46851808.609 8  20262051.550 8 -36496412.38349  20262048.45649      1904.761
 -35053943.781 7  20636981.832 7 -27296394.18549  20636976.80149      3600.957
 -16096182.289 6  22766410.910 6 -12056799.49148  22766404.60648      4592.344
 15  1  3  0  6  0.0000000  0  8G02G06G12G14G24G25G29G31
 -28470433.207 7  22578352.083 7 -22170387.61648  22578345.08548      1448.008
 -20773433.297 1  24525826.826 1                                      -706.870
 -49374477.680 7  21424614.364 7 -38450865.48749  21424608.77649      -286.665
 -30165679.254 6  22478320.338 6 -23443572.91147  22478315.58447        56.450
 -37493858.215 6  23290986.445 6 -29615448.22147  23290984.07547     -1726.133
 -46908787.375 8  20251208.853 8 -36540811.42149  20251206.05949      1893.857
 -35161741.090 7  20616468.685 7 -27380392.07949  20616463.41749      3585.625
 -16233824.066 6  22740218.510 6 -12164052.83148  22740212.09048      4583.779
 15  1  3  0  6 30.0000000  0  7G02G12G14G24G25G29G31
 -28513612.723 7  22570135.265 7 -22204033.97648  22570127.85648      1430.439
 -49365768.797 7  21426271.659 7 -38444079.34549  21426266.18449      -294.038
 -30167134.617 6  22478043.445 6 -23444706.98247  22478038.49247        40.396
 -37441971.621 6  23300860.214 6 -29575017.15947  23300858.55047     -1732.974
 -46965443.273 8  20240427.589 8 -36584958.87549  20240424.85149      1883.086
 -35269080.738 7  20596042.637 7 -27464033.36749  20596037.81049      3570.273
 -16371212.664 6  22714074.294 6 -12271108.87648  22714067.73448      4575.327
 15  1  3  0  7  0.0000000  0  7G02G12G14G24G25G29G31
 -28556271.500 7  22562017.554 7 -22237274.58748  22562009.82448      1413.574
 -49356844.613 7  21427969.901 7 -38437125.43649  21427963.90349      -300.771
 -30168115.621 6  22477856.802 6 -23445471.42347  22477851.39747        25.161
 -37389885.492 6  23310771.910 6 -29534430.56147  23310769.73347     -1739.243
 -47021779.844 8  20229707.098 8 -36628857.50149  20229704.13949      1872.861
 -35375965.527 7  20575703.130 7 -27547320.20849  20575698.31149      3555.498
 -16508349.563 6  22687977.994 6 -12377968.81248  22687971.59748      4567.329
 15  1  3  0  7 30.0000000  0  7G02G12G14G24G25G29G31
 -28598418.293 7  22553997.332 7 -22270116.23448  22553989.64148      1396.226
 -49347714.566 7  21429707.291 7 -38430011.13949  21429701.70349      -307.896
 -30168633.238 6  22477758.300 6 -23445874.80147  22477752.66447         9.434
 -37337610.332 6  23320719.568 6 -29493696.70547  23320717.67647     -1745.879
 -47077805.613 8  20219045.730 8 -36672513.95749  20219042.78449      1862.197
 -35482403.430 7  20555448.665 7 -27630258.82649  20555443.62749      3540.337
 -16645241.137 6  22661928.378 6 -12484637.56348  22661921.96248      4558.770
 15  1  3  0  8  0.0000000  0  7G02G12G14G24G25G29G31
 -28640046.281 7  22546075.768 7 -22302553.63248  22546067.52648      1379.053
 -49338373.402 7  21431484.910 7 -38422732.32249  21431479.17749      -314.775
 -30168683.031 6  22477748.803 6 -23445913.61347  22477743.64047        -6.006
 -37285142.086 6  23330703.950 6 -29452812.37547  23330702.77147     -1752.041
 -47133513.941 8  20208444.764 8 -36715923.03749  20208442.00949      1851.758
 -35588387.469 7  20535280.574 7 -27712843.78549  20535275.53049      3525.332
 -16781878.555 6  22635927.114 6 -12591108.25548  22635921.16648      4550.415
 15  1  3  0  8 30.0000000  0  7G02G12G14G24G25G29G31
 -28681152.125 7  22538253.649 7 -22334584.14348  22538245.87548      1361.582
 -49328817.340 7  21433303.444 7 -38415286.05449  21433297.66149      -322.026
 -30168263.840 6  22477828.589 6 -23445586.99747  22477823.57947       -21.606
 -37232478.801 5  23340725.448 5 -29411776.03547  23340723.66547     -1758.564
 -47188900.820 8  20197904.995 8 -36759081.64749  20197902.11249      1840.977
 -35693913.203 7  20515199.701 7 -27795071.62749  20515194.71049      3510.005
 -16918256.320 6  22609975.285 6 -12697376.62348  22609968.92748      4541.704
 15  1  3  0  9  0.0000000  0  7G02G12G14G24G25G29G31
 -28721736.371 7  22530530.685 7 -22366208.21348  22530523.00748      1344.136
 -49319046.555 7  21435162.796 7 -38407672.46249  21435156.95549      -329.170
 -30167378.320 6  22477997.120 6 -23444896.98947  22477992.02047       -37.178
 -37179622.781 6  23350783.637 6 -29370589.56047  23350782.23047     -1764.976
 -47243966.449 8  20187426.361 8 -36801989.93649  20187423.24349      1830.171
 -35798980.277 7  20495206.112 7 -27876942.07049  20495200.98649      3494.566
 -17054371.617 6  22584073.443 6 -12803440.46448  22584067.44348      4532.783
 15  1  3  0  9 30.0000000  0  7G02G12G14G24G25G29G31
 -28761800.426 7  22522906.725 7 -22397426.95548  22522899.03548      1327.197
 -49309063.309 7  21437062.535 7 -38399893.32349  21437056.31649      -335.957
 -30166029.570 6  22478253.811 6 -23443846.04447  22478249.37947       -52.314
 -37126576.664 6  23360877.947 6 -29329254.93047  23360876.90747     -1770.918
 -47298711.652 8  20177008.688 8 -36844648.53149  20177005.99649      1819.927
 -35903588.930 8  20475299.763 8 -27958455.30949  20475294.64249      3479.648
 -17190224.012 6  22558221.642 6 -12909299.46848  22558215.71848      4524.409
 15  1  3  0 10  0.0000000  0  7G02G12G14G24G25G29G31
 -28801359.008 7  22515378.970 7 -22428251.81748  22515371.20048      1310.039
 -49298882.840 7  21438999.842 7 -38391960.51549  21438993.54149      -342.788
 -30164235.102 6  22478595.286 6 -23442447.77147  22478589.97647       -67.383
 -37073357.332 6  23371005.285 6 -29287785.35547  23371003.75747     -1777.075
 -47353150.957 7  20166649.222 7 -36887068.77549  20166646.39849      1809.409
 -36007753.023 7  20455477.988 7 -28039622.12049  20455473.07149      3464.600
 -17325825.863 6  22532417.510 6 -13014963.23648  22532411.69748      4515.747
 15  1  3  0 10 30.0000000  0  7G02G12G14G24G25G29G31
 -28840399.176 6  22507949.854 6 -22458672.73648  22507942.15948      1292.622
 -49288492.398 7  21440977.088 7 -38383864.08249  21440971.57449      -349.878
 -30161983.953 6  22479023.663 6 -23440693.63647  22479018.28447       -82.705
 -37019953.566 6  23381167.684 6 -29246172.04747  23381166.83947     -1783.140
 -47407270.918 8  20156350.540 8 -36929240.18049  20156347.26149      1798.623
 -36111458.910 7  20435743.419 7 -28120431.89949  20435738.74749      3449.224
 -17461161.383 6  22506664.033 6 -13120419.47648  22506658.49148      4506.704
 15  1  3  0 10 59.9990000  0  7G02G12G14G24G25G29G31
 -28878926.383 7  22500618.379 7 -22488693.92448  22500611.19948      1275.708
 -49277899.547 7  21442992.825 7 -38375609.92849  21442987.38049      -356.514
 -30159284.660 6  22479537.284 6 -23438590.31147  22479531.67747       -97.441
 -36966374.777 6  23391363.385 6 -29204422.35047  23391362.38847     -1788.950
 -47461075.957 8  20146111.785 8 -36971166.18049  20146108.68049      1788.272
 -36214708.621 7  20416095.632 7 -28200886.21449  20416090.98549      3434.185
 -17596230.020 6  22480961.312 6 -13225667.77348  22480955.45748      4498.003
 15  1  3  0 11 29.9990000  0  7G02G12G14G24G25G29G31
 -28916945.430 7  22493383.534 7 -22518319.15648  22493375.69848      1258.872
 -49267105.125 7  21445046.949 7 -38367198.72549  21445041.16849      -363.135
 -30156141.234 6  22480135.445 6 -23436140.92747  22480130.62447      -112.144
 -36912621.977 6  23401592.272 6 -29162537.07347  23401590.69847     -1794.546
 -47514571.238 8  20135931.966 8 -37012850.81849  20135929.04649      1778.032
 -36317510.609 7  20396533.045 7 -28280991.65549  20396527.99749      3419.234
 -17731040.469 6  22455307.709 6 -13330714.86248  22455302.06748      4489.316
 15  1  3  0 11 59.9990000  0  7G02G12G14G24G25G29G31
 -28954442.391 7  22486248.150 7 -22547537.55848  22486240.88048      1240.811
 -49256097.746 7  21447141.614 7 -38358621.56249  21447136.05249      -370.889
 -30152543.715 6  22480820.066 6 -23433337.67847  22480815.52047      -127.813
 -36858686.184 6  23411855.996 6 -29120509.19447  23411854.35947     -1801.235
 -47567742.145 8  20125813.876 8 -37054282.70149  20125810.85149      1766.558
 -36419848.051 7  20377058.868 7 -28360735.11249  20377053.61849      3403.154
 -17865573.465 7  22429706.919 7 -13435545.77448  22429700.54248      4479.409
 15  1  3  0 12 29.9990000  0  7G02G12G14G24G25G29G31
 -28991416.855 6  22479212.135 6 -22576348.82548  22479205.11348      1224.185
 -49244877.484 7  21449276.757 7 -38349878.50649  21449271.42249      -377.163
 -30148493.863 6  22481590.766 6 -23430181.98447  22481586.56647      -142.129
 -36804568.082 6  23422154.406 6 -29078339.27847  23422151.68347     -1806.519
 -47620587.563 8  20115757.723 8 -37095460.94949  20115755.23249      1756.519
 -36521719.590 8  20357673.373 8 -28440115.51849  20357668.22849      3388.379
 -17999825.484 6  22404159.583 6 -13540157.73048  22404153.62048      4470.801
 15  1  3  0 12 59.9990000  0  7G02G12G14G24G25G29G31
 -29027883.809 7  22472272.713 7 -22604764.62448  22472264.02948      1207.085
 -49233459.082 7  21451449.607 7 -38340981.07049  21451444.41849      -383.921
 -30144008.734 6  22482444.275 6 -23426687.08247  22482439.44947      -156.777
 -36750284.676 6  23432484.296 6 -29036040.53647  23432481.68547     -1812.148
 -47673122.156 8  20105760.737 8 -37136396.99949  20105758.07549      1745.967
 -36623139.484 8  20338373.818 8 -28519143.99649  20338368.99449      3373.135
 -18133809.410 6  22378663.274 6 -13644560.78648  22378657.35148      4461.626
 15  1  3  0 13 29.9990000  0  7G02G12G14G24G25G29G31
 -29063838.320 7  22465430.785 7 -22632781.10548  22465423.08748      1189.810
 -49221838.473 7  21453660.976 7 -38331926.08348  21453655.80748      -390.854
 -30139085.281 6  22483381.185 6 -23422850.65147  22483375.70847      -171.450
 -36695832.488 5  23442846.195 5 -28993610.25747  23442843.73447     -1817.998
 -47725340.258 8  20095823.972 8 -37177086.44449  20095820.93249      1735.190
 -36724101.836 7  20319161.339 7 -28597815.95049  20319156.37249      3357.666
 -18267517.754 6  22353219.414 6 -13748749.10348  22353213.45848      4452.143
 15  1  3  0 13 59.9990000  0  7G02G12G14G24G25G29G31
 -29099267.820 6  22458688.685 6 -22660388.49448  22458681.35348      1172.339
 -49210002.535 7  21455913.283 7 -38322703.27648  21455908.05448      -398.096
 -30133713.039 6  22484403.509 6 -23418664.51047  22484398.30047      -186.431
 -36641200.199 6  23453242.337 6 -28951039.65747  23453240.68247     -1823.975
 -47777228.895 7  20085949.905 7 -37217519.14849  20085947.10149      1724.170
 -36824593.070 8  20300038.492 8 -28676120.79649  20300033.07649      3341.909
 -18400935.148 7  22327830.936 7 -13852710.67548  22327825.00948      4442.476
 15  1  3  0 14 29.9990000  0  7G02G12G14G24G25G29G31
 -29134189.051 7  22452043.377 7 -22687599.83748  22452034.84248      1155.542
 -49197967.434 7  21458203.452 7 -38313325.29648  21458197.42148      -404.561
 -30127910.691 6  22485507.702 6 -23414143.23647  22485502.44947      -200.527
 -36586406.105 6  23463669.254 6 -28908342.97247  23463667.16547     -1829.136
 -47828803.875 8  20076135.538 8 -37257707.44349  20076132.55449      1713.892
 -36924628.563 8  20281002.350 8 -28754070.52649  20280997.15149      3326.934
 -18534075.070 7  22302495.263 7 -13956456.05348  22302489.94448      4433.369
 15  1  3  0 14 59.9990000  0  7G02G12G14G24G25G29G31
 -29168596.133 7  22445495.900 7 -22714410.54348  22445488.47448      1138.286
 -49185728.047 7  21460532.568 7 -38303788.13348  21460527.00648      -411.455
 -30121674.863 6  22486694.383 6 -23409284.17447  22486688.83547      -215.186
 -36531446.395 6  23474127.705 6 -28865517.24147  23474125.31147     -1834.907
 -47880058.941 8  20066382.031 8 -37297646.46149  20066379.24849      1703.091
 -37024201.684 8  20262054.214 8 -28831659.96649  20262048.57949      3311.314
 -18666928.941 7  22277214.020 7 -14059978.54248  22277208.30748      4423.643
 15  1  3  0 15 29.9990000  0  7G02G12G14G24G25G29G31
 -29202487.941 7  22439046.491 7 -22740819.74148  22439039.16248      1121.147
 -49173284.328 7  21462900.555 7 -38294091.74448  21462895.20148      -418.184
 -30115006.262 6  22487963.423 6 -23404087.88947  22487957.66647      -229.438
 -36476321.164 6  23484617.714 6 -28822562.53647  23484615.57547     -1840.205
 -47930992.359 8  20056689.727 8 -37337334.84249  20056687.03549      1692.480
 -37123310.883 8  20243194.376 8 -28908887.90149  20243189.49249      3295.967
 -18799493.336 7  22251987.865 7 -14163275.44348  22251981.88248      4414.009
 15  1  3  0 15 59.9990000  0  7G02G12G14G24G25G29G31
 -29235862.750 7  22432695.484 7 -22766826.05648  22432687.54548      1104.238
 -49160633.504 7  21465307.869 7 -38284233.98148  21465302.74148      -424.819
 -30107905.125 6  22489314.744 6 -23398554.56247  22489310.64247      -243.525
 -36421030.477 6  23495139.284 6 -28779478.91547  23495137.72947     -1845.405
 -47981601.871 8  20047059.057 8 -37376770.82749  20047056.17049      1681.924
 -37221953.391 8  20224423.340 8 -28985752.18449  20224417.72549      3280.654
 -18931763.977 7  22226817.597 7 -14266343.46948  22226811.73548      4404.522
 15  1  3  0 16 29.9990000  0  7G02G12G14G24G25G29G31
 -29268729.168 7  22426441.172 7 -22792436.26048  22426433.66648      1086.895
 -49147784.055 7  21467753.037 7 -38274221.45348  21467747.34448      -431.753
 -30100382.305 6  22490746.292 6 -23392692.65447  22490741.41547      -257.959
 -36365584.285 6  23505690.397 6 -28736274.12747  23505688.45347     -1850.889
 -48031895.254 8  20037488.532 8 -37415960.47749  20037485.81749      1671.006
 -37320136.672 8  20205739.656 8 -29062258.62449  20205734.74049      3264.971
 -19063746.598 7  22201702.094 7 -14369187.06348  22201695.65348      4394.375
 15  1  3  0 16 59.9990000  0  7G02G12G14G24G25G29G31
 -29301083.883 7  22420284.259 7 -22817647.72048  22420276.53148      1069.829
 -49134733.051 7  21470236.645 7 -38264051.84548  21470231.01848      -438.525
 -30092436.488 5  22492258.331 5 -23386501.12047  22492253.33947      -271.992
 -36309980.613 6  23516271.484 6 -28692946.58447  23516269.48447     -1856.147
 -48081868.406 8  20027978.947 8 -37454900.59949  20027976.27149      1660.288
 -37417856.375 8  20187144.177 8 -29138403.84449  20187138.98449      3249.473
 -19195434.723 7  22176642.622 7 -14471801.18548  22176636.32448      4384.541
 15  1  3  0 17 29.9990000  0  7G02G12G14G24G25G29G31
 -29332933.555 7  22414223.450 7 -22842465.62348  22414214.90948      1053.389
 -49121487.102 7  21472757.287 7 -38253730.32948  21472751.90148      -444.639
 -30084076.461 6  22493849.172 6 -23379986.84047  22493843.89547      -285.449
 -36254227.281 6  23526880.981 6 -28649502.45747  23526879.46747     -1860.786
 -48131527.395 8  20018529.157 8 -37493595.91649  20018526.26549      1650.142
 -37515118.227 8  20168635.848 8 -29214192.28249  20168630.89749      3234.526
 -19326832.387 7  22151638.424 7 -14574188.95548  22151631.95348      4375.137
 15  1  3  0 17 59.9990000  0  7G02G12G14G24G25G29G31
 -29364274.973 7  22408259.381 7 -22866887.51648  22408251.66948      1035.615
 -49108043.164 7  21475315.530 7 -38243254.57448  21475310.32448      -452.114
 -30075301.133 6  22495519.059 6 -23373148.94947  22495512.98047      -300.093
 -36198322.898 6  23537519.219 6 -28605940.59747  23537516.97547     -1866.645
 -48180868.281 8  20009139.903 8 -37532043.37149  20009136.59449      1638.721
 -37611918.277 8  20150215.409 8 -29289620.88849  20150209.98749      3218.267
 -19457933.648 7  22126690.641 7 -14676345.77048  22126684.78548      4364.316
 15  1  3  0 18 29.9990000  0  7G02G12G14G24G25G29G31
 -29395100.938 7  22402393.428 7 -22890907.72848  22402386.10648      1019.404
 -49094394.102 7  21477912.831 7 -38232618.97548  21477907.08348      -457.900
 -30066105.207 6  22497269.028 6 -23365983.33147  22497263.38147      -313.125
 -36142261.703 6  23548187.259 6 -28562256.57947  23548185.63947     -1870.850
 -48229883.141 8  19999812.685 8 -37570236.76349  19999809.62549      1628.784
 -37708248.262 8  20131884.422 8 -29364683.19749  20131879.20749      3203.638
 -19588728.457 7  22101801.210 7 -14778263.78348  22101794.87048      4355.122
 15  1  3  0 18 59.9990000  0  7G02G12G14G24G25G29G31
 -29425417.738 7  22396624.312 7 -22914531.22048  22396616.58448      1001.680
 -49080545.656 7  21480548.147 7 -38221827.97748  21480541.78048      -465.454
 -30056496.668 5  22499097.489 5 -23358496.17947  22499092.71947      -327.539
 -36086051.105 5  23558883.746 5 -28518456.12647  23558882.19547     -1876.611
 -48278577.254 8  19990546.495 8 -37608180.23349  19990543.64149      1617.349
 -37804113.230 8  20113641.921 8 -29439383.16449  20113636.79449      3187.310
 -19719219.965 7  22076969.517 7 -14879945.46048  22076963.67948      4344.155
 15  1  3  0 19 29.9990000  0  7G02G12G14G24G25G29G31
 -29455223.547 7  22390952.491 7 -22937756.51048  22390944.72648       984.966
 -49066495.246 7  21483221.911 7 -38210879.60948  21483216.24348      -471.699
 -30046475.988 6  22501004.386 6 -23350687.85847  22500999.85647      -340.889
 -36029690.836 5  23569608.716 5 -28474539.05147  23569606.74547     -1881.025
 -48326948.043 8  19981341.830 8 -37645871.75549  19981339.08949      1606.973
 -37899510.441 8  20095488.423 8 -29513718.65349  20095483.39049      3172.046
 -19849403.301 7  22052196.474 7 -14981387.01948  22052190.79548      4334.199
 15  1  3  0 19 59.9990000  0  7G02G12G14G24G25G29G31
 -29484517.133 7  22385378.104 7 -22960582.67848  22385371.00248       968.281
 -49052242.852 7  21485934.071 7 -38199773.88348  21485928.78148      -478.022
 -30036044.398 5  22502989.471 5 -23342559.36547  22502984.76047      -354.175
 -35973181.391 5  23580362.093 5 -28430505.73547  23580360.29147     -1885.767
 -48374994.051 8  19972198.972 8 -37683310.20549  19972196.31249      1596.533
 -37994438.477 8  20077424.214 8 -29587688.53449  20077418.94349      3156.836
 -19979274.984 7  22027482.696 7 -15082585.73048  22027477.06648      4324.238
 15  1  3  0 20 29.9990000  0  7G02G12G14G24G25G29G31
 -29513301.422 7  22379900.637 7 -22983012.00548  22379893.20248       950.474
 -49037790.871 7  21488684.201 7 -38188512.61848  21488679.28948      -485.630
 -30025206.379 6  22505051.912 6 -23334114.17447  22505048.02547      -368.423
 -35916527.105 5  23591143.088 5 -28386359.58147  23591141.23447     -1891.450
 -48422717.051 8  19963117.585 8 -37720496.96549  19963114.43149      1584.819
 -38088898.910 8  20059448.999 8 -29661294.05849  20059443.91249      3140.361
 -20108834.773 7  22002828.239 7 -15183541.41148  22002822.64648      4312.944
 15  1  3  0 20 59.9990000  0  7G02G12G14G24G25G29G31
 -29541578.793 7  22374519.667 7 -23005046.31248  22374511.88548       934.395
 -49023141.258 7  21491471.991 7 -38177097.36349  21491466.11149      -491.338
 -30013966.102 6  22507190.874 6 -23325355.53447  22507185.65247      -381.104
 -35859730.945 5  23601951.051 5 -28342102.82647  23601949.59247     -1895.293
 -48470118.324 8  19954097.427 8 -37757433.01749  19954094.73849      1575.029
 -38182892.590 8  20041562.616 8 -29734535.87349  20041556.99449      3125.625
 -20238081.871 7  21978233.266 7 -15284253.42448  21978228.01148      4303.306
 15  1  3  0 21 29.9990000  0  7G02G12G14G24G25G29G31
 -29569352.055 7  22369234.534 7 -23026687.81848  22369227.65848       917.305
 -49008296.602 7  21494296.915 7 -38165530.11148  21494290.61748      -498.081
 -30002328.824 5  22509405.375 5 -23316287.54047  22509400.47647      -394.473
 -35802797.512 5  23612785.111 5 -28297739.14847  23612783.64147     -1900.200
 -48517200.078 7  19945138.059 7 -37794120.10249  19945135.15049      1563.994
 -38276421.723 8  20023764.589 8 -29807415.70849  20023759.66649      3109.834
 -20367016.289 7  21953697.813 7 -15384721.77648  21953692.39348      4292.519
 15  1  3  0 21 59.9990000  0  7G02G12G14G24G25G29G31
 -29596614.293 7  22364046.744 7 -23047931.13548  22364038.92648       900.117
 -48993250.063 6  21497160.217 6 -38153805.56149  21497154.47849      -504.976
 -29990289.359 5  22511696.392 5 -23306906.16047  22511692.09247      -408.062
 -35745721.520 5  23623646.367 5 -28253264.34347  23623645.07847     -1904.976
 -48563954.379 8  19936241.007 8 -37830552.02649  19936238.56849      1552.920
 -38369478.355 8  20006056.458 8 -29879927.36149  20006051.34749      3093.838
 -20495627.996 7  21929223.802 7 -15484938.70348  21929217.80148      4281.607
 15  1  3  0 22 29.9990000  0  7G02G12G14G24G25G29G31
 -29623372.813 7  22358954.796 7 -23068781.91348  22358946.94248       883.843
 -48978008.570 7  21500060.579 7 -38141929.08048  21500055.88448      -511.050
 -29977857.125 5  22514062.202 5 -23297218.71647  22514057.22147      -420.596
 -35688511.098 5  23634533.178 5 -28208684.82547  23634531.56647     -1908.975
 -48610387.703 7  19927405.028 7 -37866733.84549  19927402.34649      1542.637
 -38462068.816 8  19988437.065 8 -29952075.76449  19988432.04749      3078.818
 -20623921.367 7  21904810.406 7 -15584907.55148  21904804.41948      4271.338
 15  1  3  0 22 59.9990000  0  7G02G12G14G24G25G29G31
 -29649624.316 7  22353959.324 7 -23089237.64248  22353952.17948       866.724
 -48962569.059 7  21502998.616 7 -38129898.32348  21502993.66548      -517.905
 -29965030.559 6  22516503.003 6 -23287223.99947  22516497.76247      -434.053
 -35631164.156 5  23645446.007 5 -28163998.89447  23645443.81047     -1913.735
 -48656495.895 8  19918630.920 8 -37902662.30949  19918628.10049      1531.538
 -38554188.938 8  19970907.209 8 -30023857.66749  19970901.89049      3062.895
 -20751890.082 7  21880458.818 7 -15684623.43248  21880452.74948      4260.283
 15  1  3  0 23 29.9990000  0  7G02G12G14G24G25G29G31
 -29675375.523 7  22349059.056 7 -23109303.52648  22349051.15048       849.863
 -48946937.273 7  21505973.249 7 -38117717.73748  21505967.58448      -524.385
 -29951818.867 6  22519017.169 6 -23276929.19947  22519011.71547      -447.012
 -35573689.203 5  23656383.208 5 -28119213.25247  23656382.10747     -1917.915
 -48702284.793 8  19909917.571 8 -37938341.97249  19909914.76949      1520.830
 -38645844.387 8  19953465.776 8 -30095277.48649  19953460.77749      3047.310
 -20879537.906 7  21856168.298 7 -15784089.27648  21856162.20948      4249.400
 15  1  3  0 23 59.9990000  0  7G02G12G14G24G25G29G31
 -29700614.453 7  22344256.259 7 -23128970.19948  22344247.93548       832.573
 -48931100.906 7  21508986.826 7 -38105377.70348  21508981.30648      -531.411
 -29938211.977 5  22521606.529 5 -23266326.43947  22521600.47947      -460.430
 -35516075.184 4  23667346.850 4 -28074319.23147  23667345.89447     -1922.910
 -48747741.492 8  19901267.456 8 -37973762.77949  19901264.73149      1509.443
 -38737022.387 8  19936115.183 8 -30166325.26749  19936109.74249      3031.108
 -21006849.836 7  21831941.677 7 -15883293.37648  21831935.56448      4237.979
 15  1  3  0 24 29.9990000  0  7G02G12G14G24G25G29G31
 -29725348.262 7  22339549.598 7 -23148243.29548  22339541.18448       816.123
 -48915067.355 6  21512037.913 6 -38092884.04548  21512032.75748      -537.583
 -29924218.652 5  22524269.421 5 -23255422.58947  22524264.21747      -472.749
 -35458330.098 4  23678335.382 4 -28029323.06746  23678334.23546     -1926.924
 -48792872.082 7  19892679.402 7 -38008929.47749  19892676.24049      1499.014
 -38827728.738 8  19918854.329 8 -30237005.53749  19918848.95949      3015.786
 -21133829.813 7  21807778.208 7 -15982238.81248  21807771.93948      4227.246
 15  1  3  0 24 59.9990000  0  7G02G12G14G24G25G29G31
 -29749585.371 7  22334937.460 7 -23167129.32848  22334930.00548       799.448
 -48898844.777 6  21515124.911 6 -38080243.10648  21515119.69248      -544.097
 -29909849.313 5  22527003.841 5 -23244225.69947  22526999.22547      -485.361
 -35400464.148 4  23689346.918 4 -27984232.74346  23689345.97146     -1931.128
 -48837684.086 8  19884151.974 8 -38043847.92249  19884149.09649      1488.188
 -38917970.875 8  19901681.808 8 -30307324.08349  19901676.71049      3000.117
 -21260483.348 7  21783676.825 7 -16080929.87848  21783670.69348      4216.148
 15  1  3  0 25 29.9990000  0  7G02G12G14G24G25G29G31
 -29773325.227 6  22330419.868 6 -23185627.93248  22330412.82548       783.174
 -48882432.168 6  21518248.099 6 -38067454.07048  21518242.82448      -550.093
 -29895105.238 6  22529809.548 6 -23232736.83447  22529805.11347      -497.515
 -35342477.648 5  23700381.364 5 -27939048.45846  23700379.87646     -1934.697
 -48882175.688 8  19875685.506 8 -38078516.71149  19875683.30949      1477.910
 -39007747.270 8  19884597.933 8 -30377279.70049  19884592.63349      2984.951
 -21386806.629 7  21759638.259 7 -16179363.59748  21759632.15348      4205.401
 15  1  3  0 25 59.9980000  0  7G02G12G14G24G25G29G31
 -29796561.004 7  22325998.249 7 -23203733.73948  22325990.69948       766.250
 -48865822.863 7  21521408.784 7 -38054511.76348  21521402.62348      -556.948
 -29879983.012 5  22532687.194 5 -23220953.30247  22532682.66747      -510.220
 -35284367.262 5  23711439.384 5 -27893767.64047  23711437.99347     -1939.097
 -48926338.289 8  19867281.637 8 -38112929.12649  19867278.95649      1466.753
 -39097047.613 8  19867604.638 8 -30446864.37349  19867599.62249      2968.975
 -21512785.898 7  21735665.164 7 -16277529.25948  21735659.56848      4193.848
 15  1  3  0 26 29.9980000  0  7G02G12G14G24G25G29G31
 -29819305.191 7  22321670.139 7 -23221456.48248  22321662.98448       749.854
 -48849027.086 7  21524604.970 7 -38041424.17648  21524599.51548      -563.008
 -29864494.609 5  22535634.587 5 -23208884.41347  22535629.49847      -522.446
 -35226142.172 5  23722519.239 5 -27848397.44046  23722516.59446     -1942.744
 -48970185.164 7  19858937.848 7 -38147095.53249  19858934.61949      1456.191
 -39185888.141 8  19850698.807 8 -30516090.74849  19850693.92049      2953.579
 -21638437.633 7  21711754.420 7 -16375439.69248  21711748.38648      4182.739
 15  1  3  0 26 59.9980000  0  7G02G12G14G24G25G29G31
 -29841548.879 6  22317437.302 6 -23238789.23248  22317429.24848       733.047
 -48832036.934 6  21527838.091 6 -38028185.11448  21527832.47948      -569.546
 -29848633.898 5  22538652.832 5 -23196525.47147  22538647.72747      -534.844
 -35167797.168 5  23733621.949 5 -27802933.85046  23733619.60346     -1946.899
 -49013705.563 8  19850656.195 8 -38181007.53549  19850653.60649      1445.283
 -39274256.625 8  19833882.821 8 -30584949.30549  19833878.18449      2937.768
 -21763746.828 7  21687908.896 7 -16473083.21948  21687903.00148      4171.225
 15  1  3  0 27 29.9980000  0  7G02G12G14G24G25G29G31
 -29863299.875 7  22313298.259 7 -23255738.01748  22313290.69248       716.421
 -48814859.441 6  21531106.866 6 -38014800.06848  21531101.78248      -575.996
 -29832410.941 5  22541739.988 5 -23183884.21647  22541734.16547      -547.109
 -35109340.742 5  23744745.869 5 -27757383.41946  23744743.90646     -1950.732
 -49056906.152 7  19842435.409 7 -38214670.33349  19842433.15549      1434.341
 -39362160.270 8  19817155.305 8 -30653445.64249  19817150.15249      2922.002
 -21888717.777 7  21664127.763 7 -16570463.17148  21664121.69548      4159.683
 15  1  3  0 27 59.9980000  0  7G02G12G14G24G25G29G31
 -29884549.605 7  22309254.543 7 -23272296.26648  22309246.91848       699.810
 -48797485.813 7  21534412.985 7 -38001262.20648  21534407.69248      -582.539
 -29815819.309 5  22544897.287 5 -23170955.71847  22544893.19347      -559.336
 -35050765.699 5  23755892.381 5 -27711740.50046  23755889.70446     -1954.673
 -49099777.344 8  19834277.308 8 -38248076.45949  19834275.14449      1423.394
 -39449588.941 8  19800518.178 8 -30721571.86449  19800513.13749      2906.269
 -22013338.809 7  21640413.199 7 -16667570.46748  21640407.48948      4148.047
 15  1  3  0 28 29.9980000  0  7G02G12G14G24G25G29G31
 -29905292.262 7  22305307.376 7 -23288459.34348  22305299.68948       683.311
 -48779909.566 7  21537757.674 7 -37987566.45548  21537752.48948      -588.784
 -29798854.535 4  22548125.561 4 -23157736.41047  22548122.06347      -571.226
 -34992067.125 5  23767062.400 5 -27666001.43346  23767059.84746     -1958.296
 -49142312.031 8  19826183.246 8 -38281220.37649  19826180.43649      1412.515
 -39536535.883 8  19783972.727 8 -30789322.72649  19783967.18149      2890.542
 -22137600.680 7  21616766.953 7 -16764397.90648  21616760.65748      4136.392
 15  1  3  0 28 59.9980000  0  7G02G12G14G24G25G29G31
 -29925540.703 6  22301454.138 6 -23304237.35848  22301447.43448       666.440
 -48762143.523 7  21541138.447 7 -37973722.81948  21541132.66848      -595.449
 -29781531.535 4  22551422.015 4 -23144237.99247  22551417.48847      -583.550
 -34933259.223 4  23778253.220 4 -27620177.11846  23778251.49146     -1962.285
 -49184522.141 8  19818150.941 8 -38314111.35949  19818148.25249      1401.377
 -39623012.984 8  19767516.695 8 -30856707.47449  19767511.58649      2874.507
 -22261513.262 7  21593187.166 7 -16860953.15648  21593181.16448      4124.370
 15  1  3  0 29 29.9980000  0  7G02G12G14G24G25G29G31
 -29945290.199 7  22297695.901 7 -23319626.58348  22297688.19548       650.244
 -48744182.051 7  21544556.415 7 -37959726.88948  21544550.98848      -601.772
 -29763847.637 4  22554787.135 4 -23130458.36247  22554782.75247      -595.156
 -34874338.055 4  23789465.580 4 -27574264.47646  23789463.59946     -1965.679
 -49226401.695 8  19810181.528 8 -38346744.78849  19810178.53849      1390.742
 -39709014.504 8  19751151.166 8 -30923721.64449  19751146.16149      2859.014
 -22385068.426 7  21569675.422 7 -16957229.90148  21569669.37248      4112.734
 15  1  3  0 29 59.9980000  0  7G02G12G14G24G25G29G31
 -29964540.414 7  22294032.754 7 -23334626.73948  22294025.72648       633.286
 -48726024.457 7  21548011.721 7 -37945578.14148  21548006.35448      -608.618
 -29745804.324 4  22558220.644 4 -23116398.67247  22558215.71947      -607.568
 -34815304.219 4  23800699.325 4 -27528264.10846  23800697.98646     -1969.639
 -49267949.293 8  19802275.281 8 -38379119.54149  19802271.98649      1379.170
 -39794539.160 8  19734876.386 8 -30990364.21649  19734871.20249      2842.729
 -22508262.457 7  21546232.408 7 -17053225.24648  21546226.03648      4100.273
 15  1  3  0 30 29.9980000  0  7G02G12G14G24G25G29G31
 -29983295.133 6  22290463.795 6 -23349240.80648  22290456.51348       617.012
 -48707673.797 7  21551503.796 7 -37931278.93748  21551498.48048      -614.761
 -29727407.203 5  22561721.501 5 -23102063.27347  22561716.48047      -619.038
 -34756163.016 3  23811953.465 3 -27482180.03946  23811951.56546     -1972.944
 -49309167.441 8  19794431.727 8 -38411237.56949  19794428.88649      1368.560
 -39879589.449 8  19718691.852 8 -31056637.16649  19718687.14349      2827.188
 -22631096.090 7  21522857.955 7 -17148939.76848  21522851.86948      4088.545
 15  1  3  0 30 59.9980000  0  7G02G12G14G24G25G29G31
 -30001552.098 7  22286989.641 7 -23363467.02948  22286981.40248       600.322
 -48689127.484 6  21555033.082 6 -37916827.29548  21555027.90448      -621.406
 -29708655.918 4  22565289.803 4 -23087451.90146  22565284.46346      -630.845
 -34696912.730 3  23823228.378 3 -27436011.00746  23823226.83546     -1976.904
 -49350052.840 8  19786651.489 8 -38443096.33649  19786648.59049      1357.295
 -39964162.180 8  19702598.175 8 -31122537.99849  19702593.34549      2811.182
 -22753563.828 7  21499553.103 7 -17244369.19148  21499547.18248      4076.196
 15  1  3  0 31 29.9980000  0  7G02G12G14G24G25G29G31
 -30019315.156 6  22283609.499 6 -23377308.36048  22283601.75748       583.477
 -48670388.949 6  21558598.885 6 -37902225.87148  21558594.08448      -628.101
 -29689556.027 4  22568924.383 4 -23072568.88247  22568918.97647      -642.783
 -34637558.832 3  23834523.061 3 -27389761.26645  23834520.66145     -1980.479
 -49390608.238 8  19778934.034 8 -38474697.94449  19778931.69549      1346.011
 -40048260.215 8  19686594.822 8 -31188068.93349  19686589.29949      2795.005
 -22875666.355 7  21476317.733 7 -17339514.01748  21476311.83148      4063.638
 15  1  3  0 31 59.9980000  0  7G02G12G14G24G25G29G31
 -30036576.285 6  22280324.745 6 -23390758.57348  22280317.21648       567.173
 -48651449.566 7  21562202.882 7 -37887467.94048  21562197.74448      -634.541
 -29670101.391 4  22572626.509 4 -23057409.46446  22572621.51146      -654.307
 -34578093.750 3  23845838.898 3 -27343424.84445  23845836.96245     -1983.823
 -49430824.078 8  19771281.202 8 -38506034.98149  19771278.50649      1334.961
 -40131874.527 8  19670683.536 8 -31253222.93049  19670678.43849      2779.194
 -22997392.023 7  21453154.080 7 -17434365.17748  21453147.71248      4051.338
 15  1  3  0 32 29.9980000  0  7G02G12G14G24G25G29G31
 -30053336.758 6  22277135.317 6 -23403818.67248  22277127.54348       550.483
 -48632309.500 6  21565845.065 6 -37872553.63648  21565840.62348      -641.245
 -29650295.289 5  22576395.454 5 -23041976.15547  22576390.62147      -665.918
 -34518519.629 2  23857175.486 2 -27297003.48445  23857172.73545     -1987.627
 -49470700.695 8  19763692.928 8 -38537107.65649  19763690.49349      1323.662
 -40215005.363 8  19654864.250 8 -31318000.19449  19654859.18849      2763.052
 -23118739.199 7  21430062.465 7 -17528921.41748  21430056.53948      4038.677
 15  1  3  0 32 59.9980000  0  7G02G12G14G24G25G29G31
 -30069597.738 6  22274040.929 6 -23416489.57948  22274033.96248       534.126
 -48612969.754 7  21569525.320 7 -37857483.71848  21569520.09548      -647.661
 -29630140.758 4  22580230.752 4 -23026271.35047  22580225.85447      -677.163
 -34458839.270 2  23868532.295 2 -27250499.26245  23868530.33945     -1990.684
 -49510238.008 8  19756169.227 8 -38567915.96449  19756166.68349      1312.612
 -40297652.617 8  19639136.983 8 -31382400.65349  19639131.92949      2747.222
 -23239705.473 7  21407043.345 7 -17623180.84448  21407037.13348      4026.196
 15  1  3  0 33 29.9980000  0  7G02G12G14G24G25G29G31
 -30085375.016 6  22271038.590 6 -23428783.57248  22271031.20848       517.676
 -48593445.176 6  21573240.762 6 -37842269.77948  21573235.60548      -654.063
 -29609654.961 5  22584129.128 5 -23010308.42647  22584124.52247      -688.467
 -34399068.863 3  23879906.250 3 -27203924.95745  23879903.32045     -1993.892
 -49549450.375 8  19748707.384 8 -38598471.06149  19748704.19449      1301.519
 -40379831.328 8  19623498.898 8 -31446436.00049  19623493.77149      2731.318
 -23360302.992 7  21384094.419 7 -17717152.92548  21384088.09148      4013.623
 15  1  3  0 33 59.9980000  0  7G02G12G14G24G25G29G31
 -30100660.973 6  22268129.797 6 -23440694.68648  22268121.66148       501.494
 -48573727.980 6  21576992.837 6 -37826905.76648  21576987.52448      -660.366
 -29588832.281 4  22588091.591 4 -22994082.96246  22588087.19046      -699.663
 -34339201.672 3  23891298.679 3 -27157275.21945  23891296.57145     -1997.129
 -49588328.922 8  19741309.063 8 -38628766.03449  19741306.02549      1290.483
 -40461532.469 8  19607951.718 8 -31510099.23049  19607946.37849      2715.498
 -23480521.082 7  21361217.701 7 -17810829.35748  21361211.02048      4000.991
 15  1  3  0 34 29.9980000  0  7G02G12G14G24G25G29G31
 -30115461.453 7  22265313.354 7 -23452227.54848  22265305.76948       484.619
 -48553823.242 6  21580780.599 6 -37811395.62648  21580775.18948      -667.178
 -29567680.477 4  22592116.622 4 -22977601.06646  22592111.66346      -711.226
 -34279244.578 2  23902708.169 2 -27110555.41445  23902707.19245     -2000.894
 -49626878.199 8  19733973.408 8 -38658804.44349  19733970.56349      1278.872
 -40542760.719 8  19592494.508 8 -31573393.96149  19592489.21649      2699.082
 -23600361.957 7  21338412.756 7 -17904211.85848  21338406.30448      3987.764
 15  1  3  0 34 59.9980000  0  7G02G12G14G24G25G29G31
 -30129771.434 7  22262590.358 7 -23463378.16748  22262582.06448       469.014
 -48533725.012 6  21584605.185 6 -37795734.68248  21584599.99848      -672.925
 -29546196.422 5  22596204.885 5 -22960860.26446  22596199.73246      -721.372
 -34219193.727 2  23914135.519 2 -27063762.55945  23914132.55245     -2002.969
 -49665092.109 8  19726701.574 8 -38688581.52649  19726699.07449      1268.442
 -40623510.664 8  19577128.302 8 -31636315.99249  19577122.66549      2683.936
 -23719817.852 7  21315681.046 7 -17997294.37848  21315675.07648      3975.606
 15  1  3  0 35 29.9980000  0  7G02G12G14G24G25G29G31
 -30143593.867 7  22259959.974 7 -23474148.88548  22259951.93948       452.446
 -48513435.355 6  21588466.213 6 -37779924.59248  21588461.19548      -679.648
 -29524384.504 4  22600355.546 4 -22943863.97647  22600349.60547      -732.705
 -34159052.770 2  23925580.062 2 -27016899.50444  23925576.45444     -2006.118
 -49702972.043 8  19719493.273 8 -38718098.36049  19719490.61349      1256.963
 -40703784.023 8  19561852.781 8 -31698866.65449  19561847.58549      2667.607
 -23838888.090 7  21293022.696 7 -18090076.37148  21293016.69348      3962.314
 15  1  3  0 35 59.9980000  0  7G02G12G14G24G25G29G31
 -30156922.590 7  22257423.593 7 -23484534.92848  22257416.07648       436.123
 -48492947.547 6  21592364.937 6 -37763960.07648  21592359.27148      -686.113
 -29502240.441 4  22604569.455 4 -22926608.89346  22604564.20846      -743.608
 -34098816.320 2  23937042.686 2 -26969962.01243  23937040.49243     -2009.214
 -49740510.492 8  19712349.951 8 -38747349.10749  19712347.19249      1245.625
 -40783572.859 8  19546669.456 8 -31761039.76249  19546664.40149      2651.611
 -23957562.809 7  21270439.613 7 -18182550.17648  21270433.37848      3949.282
 15  1  3  0 36 29.9980000  0  8G02G12G14G21G24G25G29G31
 -30169766.035 7  22254979.604 7 -23494542.81148  22254972.68348       419.902
 -48472268.902 6  21596299.963 6 -37747846.85848  21596294.55448      -692.549
 -29479774.582 5  22608844.618 5 -22909103.04546  22608839.26646      -754.326
   -107699.605 3  24526950.324 3                                      5049.604
 -34038493.484 2  23948521.715 2 -26922957.28144  23948519.06844     -2012.222
 -49777714.613 8  19705270.227 8 -38776339.33649  19705267.53749      1234.463
 -40862884.879 8  19531576.864 8 -31822841.32949  19531571.72449      2635.664
 -24075846.777 7  21247930.916 7 -18274719.49048  21247925.08248      3936.152
 15  1  3  0 36 59.9980000  0  8G02G12G14G21G24G25G29G31
 -30182111.559 6  22252630.266 6 -23504162.70048  22252621.62148       403.862
 -48451386.836 6  21600273.688 6 -37731575.12848  21600268.35048      -698.887
 -29456975.961 4  22613183.088 4 -22891337.95046  22613178.36746      -764.854
   -259193.445 3  24498122.004 3   -181508.32044  24498116.48944      5050.503
 -33978072.789 2  23960019.418 2 -26875876.24644  23960017.43544     -2015.059
 -49814570.566 8  19698256.755 8 -38805058.26849  19698254.20049      1223.335
 -40941707.086 8  19516577.472 8 -31884261.22249  19516572.10649      2619.849
 -24193724.707 7  21225499.506 7 -18366572.41748  21225493.83948      3922.979
 15  1  3  0 37 29.9980000  0  8G02G12G14G21G24G25G29G31
 -30193978.262 7  22250372.080 7 -23513409.46748  22250364.15348       387.656
 -48430319.203 7  21604282.733 7 -37715158.80948  21604277.79748      -705.288
 -29433865.191 5  22617580.960 5 -22873329.57746  22617576.69546      -775.420
   -410714.207 3  24469288.593 3   -299576.22344  24469284.17744      5051.152
 -33917573.926 2  23971531.921 2 -26828734.25843  23971529.13443     -2017.964
 -49851095.813 8  19691306.230 8 -38833519.50749  19691303.26049      1212.017
 -41020056.414 8  19501668.060 8 -31945312.64549  19501662.78849      2603.774
 -24311211.766 7  21203142.477 7 -18458120.75648  21203136.36848      3909.790
 15  1  3  0 37 59.9980000  0  8G02G12G14G21G24G25G29G31
 -30205364.016 6  22248205.438 6 -23522281.48148  22248198.67548       371.543
 -48409063.359 7  21608327.618 7 -37698595.84448  21608322.40348      -711.685
 -29410442.184 4  22622038.221 4 -22855077.89946  22622032.56646      -785.840
   -562256.492 3  24440450.941 3   -417660.87145  24440446.11345      5051.836
 -33856996.086 2  23983059.526 2 -26781530.78143  23983056.93643     -2020.357
 -49887286.988 8  19684419.284 8 -38861720.43549  19684416.64649      1200.830
 -41097930.121 8  19486849.162 8 -32005993.44949  19486843.92649      2587.837
 -24428302.414 7  21180860.880 7 -18549360.22348  21180854.67048      3896.392
 15  1  3  0 38 29.9980000  0  8G02G12G14G21G24G25G29G31
 -30216270.637 6  22246129.982 6 -23530780.17448  22246122.43148       355.698
 -48387620.227 7  21612408.152 7 -37681886.94848  21612402.64348      -717.764
 -29386710.414 5  22626554.262 5 -22836585.65246  22626549.68946      -795.972
   -713818.609 3  24411609.302 3   -535760.98043  24411604.20543      5052.437
 -33796341.434 2  23994601.796 2                                     -2022.847
 -49923144.570 8  19677595.807 8 -38889661.41049  19677593.34849      1189.795
 -41175329.227 8  19472120.601 8 -32066304.44249  19472115.45149      2572.207
 -24544995.262 7  21158654.987 7 -18640289.71548  21158648.99048      3883.277
 15  1  3  0 38 59.9980000  0  8G02G12G14G21G24G25G29G31
 -30226693.832 6  22244146.586 6 -23538902.11848  22244138.14448       339.438
 -48365984.688 6  21616525.286 6 -37665028.11248  21616519.71448      -724.429
 -29362667.457 4  22631129.522 4 -22817850.87146  22631124.67646      -806.631
   -865392.973 1  24382765.374 1   -653870.69944  24382759.34844      5052.803
 -33735606.410 1  24006159.307 1                                     -2025.640
 -49958662.793 8  19670836.934 8 -38917337.95749  19670834.33549      1178.306
 -41252248.371 8  19457483.399 8 -32126241.44149  19457477.62949      2556.021
 -24661282.477 7  21136526.279 7 -18730903.12548  21136520.16848      3869.473
 15  1  3  0 39 29.9980000  0  7G02G12G14G21G25G29G31
 -30236649.492 6  22242252.138 6 -23546659.77448  22242245.10948       323.857
 -48344171.703 7  21620676.193 7 -37648030.99948  21620671.24848      -730.278
 -29338330.637 4  22635760.673 4 -22798887.13446  22635755.66046      -816.314
  -1016991.621 2  24353917.041 2   -771999.32444  24353910.20444      5053.432
 -49993855.926 8  19664139.942 8 -38944761.18149  19664136.96249      1167.500
 -41328701.992 8  19442934.784 8 -32185815.67749  19442929.42849      2540.532
 -24777176.207 7  21114472.413 7 -18821209.91648  21114465.86648      3856.406
 15  1  3  0 39 59.9980000  0  8G02G12G14G21G24G25G29G31
 -30246136.348 6  22240446.882 6 -23554052.15048  22240439.15548       308.125
 -48322179.207 6  21624861.268 6 -37630894.02048  21624855.91948      -736.323
 -29313700.383 4  22640447.669 4 -22779694.73946  22640442.54846      -826.118
  -1168610.305 3  24325064.890 3   -890143.49645  24325058.06045      5053.984
 -33613944.543 1  24029309.410 1                                     -2030.083
 -50028721.461 8  19657505.251 8 -38971929.12949  19657503.00149      1156.450
 -41404687.656 8  19428475.188 8 -32245025.28449  19428469.70749      2524.741
 -24892672.004 7  21092494.269 7 -18911206.63348  21092488.06648      3842.939
 15  1  3  0 40 29.9980000  0  8G02G12G14G21G24G25G29G31
 -30255145.094 6  22238732.633 6 -23561071.92848  22238724.01248       292.979
 -48299997.363 7  21629082.379 7 -37613609.50048  21629076.05348      -741.973
 -29288769.477 5  22645191.914 5 -22760268.10046  22645186.68146      -835.322
  -1320236.051 3  24296211.333 3  -1008293.29745  24296204.04945      5054.888
 -33553008.930 1  24040905.155 1                                     -2031.919
 -50063248.879 8  19650934.883 8 -38998833.61749  19650932.75849      1145.864
 -41480195.816 8  19414106.453 8 -32303862.80549  19414101.22449      2509.556
 -25007757.102 7  21070594.272 7 -19000883.32748  21070587.55648      3829.971
 15  1  3  0 40 59.9980000  0  8G02G12G14G21G24G25G29G31
 -30263693.730 6  22237105.877 6 -23567733.19948  22237097.73448       277.290
 -48277642.918 7  21633336.329 7 -37596190.49048  21633330.74248      -748.081
 -29263556.918 5  22649989.743 5 -22740621.92946  22649984.94446      -845.088
  -1471883.211 3  24267353.696 3  -1126459.72345  24267346.19745      5055.200
 -33492019.500 1  24052511.199 1                                     -2033.926
 -50097454.219 8  19644425.804 8 -39025487.13149  19644422.86449      1134.849
 -41555242.281 8  19399825.596 8 -32362340.56849  19399820.12149      2493.813
 -25122445.461 7  21048769.809 7 -19090250.88948  21048763.25348      3816.265
 15  1  3  0 41 29.9970000  0  8G02G12G14G21G24G25G29G31
 -30271782.723 6  22235566.556 6 -23574036.32748  22235559.23748       261.943
 -48255116.039 7  21637623.071 7 -37578637.09148  21637618.18748      -753.789
 -29238066.371 5  22654840.462 5 -22720759.24146  22654834.62846      -854.346
  -1623543.352 3  24238493.747 3  -1244636.32845  24238485.82345      5055.835
 -33430979.113 1  24064126.926 1                                     -2035.552
 -50131335.703 8  19637978.352 8 -39051888.29749  19637975.84549      1124.072
 -41629824.664 8  19385633.057 8 -32420456.70349  19385627.80349      2478.472
 -25236730.902 7  21027022.024 7 -19179304.47948  21027015.72948      3802.915
 15  1  3  0 41 59.9970000  0  8G02G12G14G21G24G25G29G31
 -30279400.199 6  22234116.996 6 -23579972.02548  22234109.55348       246.196
 -48232402.543 7  21641945.312 7 -37560938.29048  21641939.86648      -759.858
 -29212285.430 5  22659746.415 5 -22700670.21646  22659741.59246      -863.916
  -1775210.918 2  24209632.413 2  -1362818.66445  24209624.84445      5055.815
 -33369872.281 1  24075755.954 1                                     -2037.700
 -50164881.887 8  19631594.727 8 -39078028.19049  19631591.79249      1112.876
 -41703934.688 8  19371530.388 8 -32478204.75949  19371525.32649      2462.690
 -25350605.227 7  21005352.454 7 -19268037.71648  21005346.09648      3789.087
 15  1  3  0 42 29.9970000  0  8G02G12G14G21G24G25G29G31
 -30286559.313 6  22232754.605 6 -23585550.55647  22232747.39047       230.684
 -48209515.563 7  21646300.548 7 -37543104.29848  21646295.36448      -766.099
 -29186229.758 5  22664704.646 5 -22680367.08646  22664700.15246      -873.413
  -1926890.625 2  24180768.717 2  -1481010.46545  24180762.82545      5055.689
 -33308715.129 1  24087394.230 1                                     -2039.546
 -50198103.281 8  19625272.932 8 -39103915.00349  19625269.92949      1101.641
 -41777581.996 8  19357515.757 8 -32535592.26749  19357510.59749      2446.851
 -25464074.305 7  20983760.002 7 -19356455.17148  20983754.38748      3775.200
 15  1  3  0 42 59.9970000  0  7G02G12G14G21G25G29G31
 -30293257.074 6  22231480.102 6 -23590769.59048  22231472.41448       215.181
 -48186450.793 7  21650689.660 7 -37525131.78548  21650684.08348      -772.188
 -29159898.105 4  22669715.380 4 -22659848.93846  22669710.92946      -882.744
  -2078575.773 1  24151903.886 1  -1599206.57445  24151897.03545      5055.894
 -50230995.582 8  19619013.763 8 -39129545.36349  19619010.89149      1090.576
 -41850762.531 8  19343589.952 8 -32592616.06249  19343584.70649      2431.123
 -25577131.441 7  20962245.967 7 -19444551.64048  20962240.26148      3761.250
 15  1  3  0 43 29.9970000  0  8G02G12G14G21G24G25G29G31
 -30299499.004 6  22230292.292 6 -23595633.43948  22230285.15448       200.200
 -48163213.309 7  21655111.691 7 -37507024.69448  21655106.46448      -777.739
 -29133297.895 5  22674777.195 5 -22639121.53846  22674773.05146      -891.318
  -2230268.426 3  24123037.774 3  -1717408.56046  24123030.64246      5056.489
 -33186249.633 1  24110698.043 1                                     -2043.213
 -50263562.906 8  19612816.432 8 -39154922.50349  19612813.54649      1079.902
 -41923481.109 8  19329752.087 8 -32649279.88549  19329746.86549      2416.035
 -25689779.238 7  20940809.829 7 -19532329.13748  20940803.86148      3747.783
 15  1  3  0 43 59.9970000  0  8G02G12G14G21G24G25G29G31
 -30305282.523 6  22229191.749 6 -23600140.07648  22229183.25348       185.063
 -48139799.469 7  21659567.284 7 -37488780.14048  21659561.53848      -783.584
 -29106428.207 5  22679890.353 5 -22618184.14546  22679885.69546      -900.439
  -2381962.531 4  24094171.513 4  -1835611.63645  24094164.77045      5056.353
 -33124945.355 1  24122364.266 1                                     -2044.375
 -50295800.945 8  19606681.746 8 -39180043.06449  19606678.87249      1068.960
 -41995733.531 8  19316002.929 8 -32705580.46449  19315997.69849      2400.459
 -25802011.258 7  20919452.788 7 -19619782.67348  20919446.57748      3733.906
 15  1  3  0 44 29.9970000  0  8G02G12G14G21G24G25G29G31
 -30310603.566 6  22228179.218 6 -23604286.32848  22228171.29748       170.005
 -48116204.195 7  21664057.380 7 -37470394.22648  21664050.92048      -789.272
 -29079286.180 4  22685055.295 4 -22597034.53446  22685049.95846      -909.053
  -2533649.781 4  24065306.445 4  -1953809.32746  24065301.12746      5056.138
 -33063589.398 1  24134040.400 1                                     -2045.986
 -50327704.035 8  19600610.795 8 -39204902.61949  19600608.03049      1058.076
 -42067514.680 8  19302343.425 8 -32761513.82349  19302338.06749      2385.049
 -25913819.602 7  20898176.355 7 -19706906.04748  20898170.19448      3720.068
 15  1  3  0 44 59.9970000  0  8G02G12G14G21G24G25G29G31
 -30315480.500 6  22227251.116 6 -23608086.54347  22227243.76147       154.546
 -48092444.473 6  21668578.718 6 -37451880.17948  21668573.26648      -795.366
 -29051891.496 5  22690268.352 5 -22575688.07246  22690263.74946      -917.935
  -2685345.004 4  24036439.841 4  -2072013.31646  24036433.94946      5056.074
 -33002200.355 1  24145722.309 1                                     -2047.559
 -50359289.016 8  19594600.371 8 -39229514.28849  19594597.32049      1046.851
 -42138841.598 8  19288770.340 8 -32817093.22949  19288765.40849      2369.336
 -26025218.980 7  20876977.720 7 -19793710.75049  20876972.07049      3705.801
 15  1  3  0 45 29.9970000  0  8G02G12G14G21G24G25G29G31
 -30319896.965 6  22226410.659 6 -23611527.96147  22226403.06347       139.976
 -48068503.504 7  21673134.518 7 -37433224.89748  21673129.11548      -800.674
 -29024229.793 3  22695532.206 3 -22554133.52246  22695527.35946      -925.981
  -2837028.324 4  24007575.564 4  -2190207.98646  24007569.07846      5056.094
 -32940762.855 1  24157413.305 1                                     -2048.325
 -50390537.988 8  19588653.875 8 -39253864.14549  19588650.90449      1036.431
 -42209697.363 8  19275286.911 8 -32872305.50949  19275281.71349      2354.399
 -26136189.746 7  20855860.682 7 -19880181.47049  20855855.24249      3692.290
 15  1  3  0 45 59.9970000  0  8G02G12G14G21G24G25G29G31
 -30323865.848 6  22225655.382 6 -23614620.58747  22225647.26147       124.380
 -48044392.719 7  21677722.645 7 -37414437.29848  21677718.03448      -806.982
 -28996315.652 5  22700844.120 5 -22532382.27946  22700838.86546      -935.181
  -2988708.867 3  23978711.819 3  -2308400.46546  23978705.83146      5055.430
 -32879289.777 1  24169111.633 1                                     -2050.103
 -50421462.160 8  19582769.179 8 -39277960.91349  19582766.74249      1024.941
 -42280093.535 8  19261890.955 8 -32927159.66749  19261885.74249      2338.398
 -26246741.270 7  20834823.446 7 -19966325.51249  20834817.11749      3677.520
 15  1  3  0 46 29.9970000  0  8G02G12G14G21G24G25G29G31
 -30327381.191 6  22224986.347 6 -23617359.81747  22224979.56447       109.629
 -48020105.219 7  21682344.422 7 -37395512.00848  21682339.43648      -812.471
 -28968144.836 5  22706204.895 5 -22510431.01646  22706201.00546      -943.252
  -3140376.762 3  23949850.272 3  -2426583.16646  23949845.87446      5055.420
 -32817776.316 1  24180817.986 1                                     -2051.162
 -50452054.113 8  19576947.713 8 -39301798.79949  19576945.37649      1014.258
 -42350023.320 8  19248583.762 8 -32981650.40749  19248578.20349      2323.286
 -26356864.109 7  20813867.777 7 -20052135.50649  20813861.90049      3663.652
 15  1  3  0 46 59.9970000  0  8G02G12G14G21G24G25G29G31
 -30330448.730 6  22224402.621 6 -23619750.10947  22224394.78847        94.727
 -47995646.223 7  21686998.850 7 -37376453.07648  21686993.28748      -818.232
 -28939724.336 5  22711613.195 5 -22488285.20046  22711608.15146      -951.582
  -3292033.883 3  23920990.784 3  -2544757.47446  23920985.80146      5054.775
 -32756228.805 1  24192530.264 1                                     -2051.914
 -50482317.926 8  19571188.708 8 -39325381.00649  19571186.24949      1003.247
 -42419491.484 8  19235364.385 8 -33035781.43249  19235359.25849      2307.842
 -26466560.188 7  20792993.309 7 -20137612.97948  20792986.86648      3649.350
 15  1  3  0 47 29.9970000  0  7G02G12G14G21G25G29G31
 -30333068.875 6  22223904.022 6 -23621791.77747  22223896.29147        80.068
 -47971014.121 7  21691686.212 7 -37357259.23848  21691680.95648      -823.765
 -28911056.059 4  22717068.605 4 -22465946.30046  22717064.45746      -959.517
  -3443676.906 4  23892134.133 4  -2662920.78246  23892128.32446      5054.673
 -50512252.184 8  19565492.420 8 -39348706.40449  19565490.26649       992.432
 -42488496.598 8  19222233.125 8 -33089551.65049  19222227.44849      2292.637
 -26575826.406 7  20772200.616 7 -20222755.47049  20772194.32049      3635.205
 15  1  3  0 47 59.9970000  0  7G02G12G14G21G25G29G31
 -30335239.672 6  22223490.905 6 -23623483.32048  22223483.07148        64.707
 -47946206.297 7  21696407.012 7 -37337928.49848  21696401.64048      -830.024
 -28882139.816 4  22722571.207 4 -22443414.17546  22722566.67046      -968.228
  -3595300.410 3  23863281.106 3  -2781068.93146  23863276.06546      5053.677
 -50541853.520 8  19559859.463 8 -39371772.37149  19559857.24049       980.942
 -42557035.961 8  19209190.513 8 -33142958.93749  19209185.59649      2276.660
 -26684657.199 7  20751490.804 7 -20307558.68449  20751484.75849      3620.215
 15  1  3  0 48 29.9970000  0  7G02G12G14G21G25G29G31
 -30336964.527 6  22223162.720 6 -23624827.38248  22223155.08148        49.946
 -47921225.063 7  21701160.818 7 -37318462.62448  21701156.09948      -835.654
 -28852980.355 5  22728120.119 5 -22420692.55746  22728114.49746      -976.118
  -3746903.727 4  23834431.869 4  -2899201.29146  23834427.84846      5052.979
 -50571123.535 8  19554289.566 8 -39394580.19249  19554286.82949       970.107
 -42625112.168 8  19196236.039 8 -33196005.31949  19196230.86249      2261.445
 -26793052.184 7  20730863.924 7 -20392022.30549  20730857.82249      3605.840
 15  1  3  0 48 59.9970000  0  7G02G12G14G21G25G29G31
 -30338240.035 6  22222919.993 6 -23625821.29847  22222912.61047        35.322
 -47896066.152 7  21705948.444 7 -37298858.31448  21705943.49148      -841.348
 -28823575.750 4  22733715.662 4 -22397779.94146  22733710.79146      -984.043
  -3898479.465 5  23805588.002 5  -3017312.19446  23805582.08746      5052.295
 -50600057.180 8  19548783.693 8 -39417125.89649  19548781.00049       959.092
 -42692720.645 8  19183370.557 8 -33248687.24949  19183365.53449      2245.991
 -26901004.484 7  20710321.266 7 -20476140.99149  20710315.63549      3591.216
 15  1  3  0 49 29.9970000  0  7G02G12G14G21G25G29G31
 -30339075.570 6  22222761.033 6 -23626472.37447  22222753.14647        20.825
 -47870737.715 7  21710768.327 7 -37279121.87848  21710762.98348      -846.787
 -28793936.977 5  22739355.718 5 -22374684.78846  22739350.94346      -991.440
  -4050033.746 5  23776748.381 5  -3135406.36446  23776741.97446      5051.724
 -50628662.363 8  19543340.338 8 -39439415.64649  19543337.52249       948.350
 -42759869.582 8  19170592.514 8 -33301011.08849  19170587.40549      2230.991
 -27008519.922 7  20689861.749 7 -20559919.23949  20689855.98249      3576.851
 15  1  3  0 49 59.9970000  0  7G02G12G14G21G25G29G31
 -30339482.332 6  22222683.673 6 -23626789.31547  22222675.64547         6.270
 -47845249.840 6  21715618.512 6 -37259261.22148  21715613.29748      -852.480
 -28764076.660 4  22745037.990 4 -22351417.05846  22745033.80846      -999.292
  -4201573.248 4  23747911.341 4  -3253489.03646  23747906.17846      5050.874
 -50656948.355 8  19537957.714 8 -39461456.68249  19537955.50449       937.353
 -42826568.879 8  19157900.049 8 -33352984.56249  19157895.16649      2215.645
 -27115605.789 7  20669483.976 7 -20643362.76449  20669478.20349      3562.090
 15  1  3  0 50 29.9970000  0  7G02G12G14G21G25G29G31
 -30339450.426 6  22222689.668 6 -23626764.45647  22222682.50347        -8.247
 -47819591.406 6  21720501.142 6 -37239267.67148  21720495.82148      -858.066
 -28733986.871 4  22750763.782 4 -22327970.47446  22750759.77446     -1006.704
  -4353084.547 4  23719079.433 4  -3371549.70046  23719074.07146      5050.015
 -50684903.922 8  19532637.962 8 -39483240.24049  19532634.87549       926.387
 -42892808.102 8  19145295.145 8 -33404599.53649  19145289.96849      2200.337
 -27222249.223 7  20649190.409 7 -20726461.53249  20649184.74549      3547.393
 15  1  3  0 50 59.9970000  0  7G02G12G14G21G25G29G31
 -30338979.641 6  22222779.213 6 -23626397.62547  22222771.15247       -22.871
 -47793760.719 6  21725416.536 6 -37219139.89548  21725411.07048      -863.706
 -28703668.172 5  22756533.255 5 -22304345.56646  22756528.87846     -1014.258
  -4504563.027 4  23690253.987 4  -3489584.86846  23690247.43246      5048.838
 -50712526.676 8  19527381.547 8 -39504764.48149  19527378.60749       915.317
 -42958585.309 8  19132778.173 8 -33455854.50549  19132772.86149      2185.044
 -27328445.980 7  20628981.834 7 -20809212.25749  20628975.66849      3532.529
 15  1  3  0 51 29.9970000  0  7G02G12G14G21G25G29G31
 -30338065.941 6  22222953.132 6 -23625685.63647  22222945.01147       -37.661
 -47767753.227 7  21730365.623 7 -37198874.34648  21730359.99748      -869.722
 -28673118.738 4  22762346.675 4 -22280540.85746  22762341.78146     -1022.031
  -4656001.422 4  23661436.306 4  -3607588.70146  23661429.38546      5047.246
 -50739811.258 8  19522189.483 8 -39526025.20249  19522186.88149       903.955
 -43023895.898 8  19120349.992 8 -33506745.85949  19120344.74449      2169.351
 -27434188.605 7  20608859.712 7 -20891609.09849  20608853.29549      3517.285
 15  1  3  0 51 59.9970000  0  7G02G12G14G21G25G29G31
 -30336720.879 6  22223209.086 6 -23624637.55547  22223201.76947       -52.017
 -47741578.789 6  21735346.475 6 -37178478.70348  21735341.05348      -875.298
 -28642351.000 5  22768201.696 5 -22256566.01346  22768196.85146     -1029.170
  -4807407.023 4  23632624.704 4  -3725567.05546  23632619.26446      5046.289
 -50766767.348 8  19517059.918 8 -39547029.95049  19517056.89549       892.979
 -43088749.844 8  19108008.702 8 -33557281.39349  19108003.65349      2154.150
 -27539484.539 7  20588822.590 7 -20973657.87649  20588815.50649      3502.349
 15  1  3  0 52 29.9970000  0  7G02G12G14G21G25G29G31
 -30334937.906 5  22223548.327 5 -23623248.22747  22223541.37547       -66.821
 -47715229.941 6  21740360.522 6 -37157947.17348  21740354.67648      -881.255
 -28611359.906 5  22774099.272 5 -22232417.17946  22774094.23046     -1036.699
  -4958769.605 4  23603821.086 4  -3843511.91446  23603815.64546      5044.653
 -50793386.883 8  19511994.366 8 -39567772.45449  19511991.39549       881.655
 -43153139.797 8  19095755.706 8 -33607455.38049  19095750.41549      2138.594
 -27644323.813 7  20568872.327 7 -21055350.82049  20568865.88549      3486.968
 15  1  3  0 52 59.9970000  0  7G02G12G14G21G25G29G31
 -30332732.496 5  22223968.054 5 -23621529.72947  22223960.59147       -80.688
 -47688720.828 6  21745405.013 6 -37137290.75448  21745399.26048      -886.372
 -28580162.414 4  22780036.018 4 -22208107.45846  22780030.79546     -1043.457
  -5110100.223 4  23575023.701 4  -3961431.77646  23575017.19346      5043.662
 -50819683.148 8  19506990.321 8 -39588263.05749  19506987.68749       870.908
 -43217079.797 8  19083588.350 8 -33657278.74949  19083583.11049      2123.628
 -27748718.074 7  20549006.744 7 -21136696.98949  20549000.57449      3472.217
 15  1  3  0 53 29.9970000  0  7G02G12G14G21G25G29G31
 -30330096.805 6  22224469.592 6 -23619475.95747  22224462.62547       -94.922
 -47662042.766 6  21750481.642 6 -37116502.69648  21750476.68548      -892.007
 -28548752.117 5  22786013.260 5 -22183631.96146  22786008.19846     -1050.566
  -5261387.563 3  23546234.616 3  -4079318.01846  23546228.25946      5042.217
 -50845646.879 8  19502049.574 8 -39608494.53549  19502046.86449       859.936
 -43280561.863 8  19071508.126 8 -33706745.28549  19071502.97049      2108.423
 -27852656.426 7  20529227.918 7 -21217687.90949  20529222.41349      3457.031
 15  1  3  0 53 59.9970000  0  7G02G12G14G21G25G29G31
 -30327033.957 6  22225052.414 6 -23617089.34947  22225044.31947      -109.185
 -47635197.094 6  21755590.158 6 -37095584.00748  21755585.01548      -897.593
 -28517133.738 5  22792030.012 5 -22158994.27746  22792025.81446     -1057.373
  -5412630.977 3  23517453.816 3  -4197169.96146  23517448.68446      5040.703
 -50871279.383 8  19497171.890 8 -39628467.92149  19497168.99449       848.877
 -43343586.984 8  19059514.836 8 -33755855.76849  19059509.24049      2093.242
 -27956138.148 7  20509535.991 7 -21298323.02049  20509529.81649      3441.763
 15  1  3  0 54 29.9970000  0  7G02G12G14G21G25G29G31
 -30323542.164 6  22225716.986 6 -23614368.46247  22225708.28647      -123.784
 -47608180.871 5  21760731.128 5 -37074532.44248  21760725.27948      -903.545
 -28485306.820 5  22798086.486 5 -22134194.12846  22798082.43646     -1064.443
  -5563824.094 3  23488682.662 3  -4314982.71546  23488676.11546      5038.701
 -50896576.973 8  19492357.925 8 -39648180.32849  19492354.82549       837.534
 -43406152.539 8  19047609.004 8 -33804608.14949  19047603.62649      2077.700
 -28059157.160 7  20489932.109 7 -21378597.56949  20489926.20049      3426.108
 15  1  3  0 54 59.9970000  0  7G02G12G14G21G25G29G31
 -30319631.250 6  22226461.169 6 -23611320.97947  22226453.49047      -137.520
 -47581003.035 6  21765902.851 6 -37053354.91448  21765897.67048      -908.872
 -28453282.832 5  22804180.430 5 -22109240.39746  22804175.90146     -1070.864
  -5714973.098 4  23459919.925 4  -4432761.08146  23459913.53846      5037.432
 -50921548.145 8  19487606.081 8 -39667638.38449  19487602.96849       826.758
 -43468267.645 8  19035788.884 8 -33853009.51849  19035783.78249      2062.847
 -28161720.711 7  20470414.897 7 -21458517.20649  20470409.05449      3411.074
 15  1  3  0 55 29.9970000  0  7G02G12G14G21G25G29G31
 -30315288.461 6  22227287.589 6 -23607936.99647  22227279.47847      -151.768
 -47553649.215 6  21771108.085 6 -37032040.28748  21771103.82248      -914.517
 -28421049.836 5  22810314.177 5 -22084123.81446  22810309.48346     -1077.808
  -5866060.969 4  23431168.935 4  -4550491.89046  23431162.29746      5035.391
 -50946177.777 8  19482919.235 8 -39686830.30449  19482916.10149       815.410
 -43529917.914 8  19024057.199 8 -33901048.68049  19024052.09749      2047.407
 -28263811.816 7  20450987.606 7 -21538068.70749  20450981.60949      3395.244
 15  1  3  0 55 59.9970000  0  7G02G12G14G21G25G29G31
 -30310522.789 6  22228194.530 6 -23604223.49747  22228188.29947      -165.957
 -47526127.094 6  21776345.351 6 -37010594.53448  21776341.42948      -920.264
 -28388618.086 5  22816485.728 5 -22058852.36946  22816481.61746     -1084.370
  -6017092.605 4  23402428.562 4  -4668178.77546  23402422.46946      5033.354
 -50970473.133 8  19478295.996 8 -39705761.77349  19478292.96849       804.214
 -43591111.309 8  19012412.455 8 -33948731.84549  19012406.85249      2032.168
 -28365435.563 7  20431649.251 7 -21617256.03449  20431642.99549      3379.561
 15  1  3  0 56 29.9960000  0  7G02G12G14G21G25G29G31
 -30305334.383 6  22229181.819 6 -23600180.59547  22229174.15847      -179.648
 -47498436.574 6  21781614.686 6 -36989017.53348  21781610.54848      -925.459
 -28355990.605 5  22822694.564 5 -22033428.33646  22822690.66746     -1090.415
  -6168059.398 3  23373700.394 3  -4785815.19146  23373695.31746      5031.475
 -50994431.773 8  19473736.828 8 -39724430.84749  19473734.31049       793.447
 -43651844.801 8  19000855.235 8 -33996056.64049  19000849.79149      2017.280
 -28466585.129 7  20412401.152 7 -21696073.87949  20412394.36549      3364.253
 15  1  3  0 56 59.9960000  0  7G02G12G14G21G25G29G31
 -30299729.711 5  22230248.407 5 -23595813.29847  22230239.54147      -193.892
 -47470581.563 6  21786915.387 6 -36967312.34648  21786910.42948      -931.397
 -28323173.348 5  22828939.480 5 -22007856.47746  22828936.38946     -1097.212
  -6318973.766 3  23344982.223 3  -4903410.77446  23344976.99446      5029.204
 -51018060.406 7  19469240.429 7 -39742842.76249  19469237.45149       781.934
 -43712129.141 8  18989383.507 8 -34043031.43649  18989378.21549      2001.743
 -28567270.871 7  20393241.284 7 -21774530.29149  20393234.98849      3348.115
 15  1  3  0 57 29.9960000  0  7G02G12G14G21G25G29G31
 -30293704.184 5  22231395.050 5 -23591118.10247  22231387.84947      -207.979
 -47442556.582 6  21792248.485 6 -36945474.74248  21792244.17448      -937.075
 -28290164.168 5  22835220.943 5 -21982135.09946  22835216.42846     -1103.520
  -6469822.188 3  23316276.762 3  -5020954.98246  23316270.97446      5027.110
 -51041351.652 8  19464808.242 8 -39760991.79349  19464805.56049       770.698
 -43771955.273 8  18977998.968 8 -34089649.19349  18977993.31549      1986.504
 -28667480.836 7  20374171.943 7 -21852615.98149  20374166.17149      3332.344
 15  1  3  0 57 59.9960000  0  7G02G12G14G21G25G29G31
 -30287247.293 5  22232623.629 5 -23586086.78747  22232616.24647      -222.227
 -47414349.625 6  21797616.163 6 -36923495.32848  21797611.23448      -943.076
 -28256953.559 5  22841540.716 5 -21956256.71046  22841536.53546     -1110.142
  -6620590.531 3  23287586.418 3  -5138436.74346  23287581.81346      5024.688
 -51064293.285 8  19460442.595 8 -39778868.38749  19460440.37949       759.063
 -43831311.727 8  18966703.826 8 -34135900.97349  18966698.19649      1970.879
 -28767200.555 7  20355195.890 7 -21930319.64449  20355190.14449      3316.001
 15  1  3  0 58 29.9960000  0  7G02G12G14G21G25G29G31
 -30280379.871 5  22233930.500 5 -23580735.56447  22233922.24247      -235.815
 -47385980.328 6  21803014.744 6 -36901389.38748  21803009.75448      -948.413
 -28223563.516 5  22847894.700 5 -21930238.50246  22847888.94646     -1116.079
  -6771294.621 3  23258908.129 3  -5255868.45446  23258904.02346      5022.163
 -51086904.023 7  19456139.898 7 -39796487.15549  19456137.59449       748.081
 -43890218.441 8  18955494.262 8 -34181802.30949  18955488.74349      1955.957
 -28866447.484 7  20336309.814 7 -22007654.91049  20336304.39449      3300.215
 15  1  3  0 58 59.9960000  0  7G02G12G14G21G25G29G31
 -30273091.586 6  22235317.519 6 -23575056.37047  22235309.27447      -249.868
 -47357436.965 6  21808446.425 6 -36879147.83948  21808441.49748      -954.287
 -28189985.047 5  22854284.548 5 -21904073.53346  22854279.56346     -1122.329
  -6921920.074 3  23230244.971 3  -5373238.93646  23230238.85246      5019.673
 -51109171.523 7  19451902.531 7 -39813838.45349  19451899.72849       736.509
 -43948663.707 8  18944372.505 8 -34227344.06849  18944366.80449      1940.493
 -28965207.195 7  20317516.458 7 -22084610.52649  20317510.30649      3283.867
 15  1  3  0 59 29.9960000  0  7G02G12G14G21G25G29G31
 -30265384.441 6  22236784.117 6 -23569050.79947  22236777.24647      -263.687
 -47328720.789 6  21813910.974 6 -36856771.62348  21813905.92948      -959.893
 -28156222.152 4  22860709.452 4 -21877764.79746  22860703.31746     -1128.306
  -7072465.473 4  23201597.193 4  -5490546.94946  23201591.77946      5017.012
 -51131096.602 8  19447730.339 8 -39830922.93349  19447727.94649       725.298
 -44006649.008 8  18933338.260 8 -34272527.40549  18933333.19449      1925.327
 -29063478.828 8  20298815.997 8 -22161185.83049  20298810.18149      3267.734
 15  1  3  1  0  0.0000000  0  7G02G12G14G21G25G29G31
 -30257263.637 6  23437499.266 6 -23562722.93247  23437491.23447      -277.295
 -47299835.387 6  23018577.545 6 -36834263.52548  23018572.66848      -965.298
 -28122280.465 4  24066338.226 4 -21851316.81846  24066333.10446     -1134.014
  -7222931.363 4  24372134.266 4  -5607793.04946  24372128.61746      5014.595
 -51152681.953 7  20642792.608 7 -39847742.69149  20642789.65049       714.233
 -44064178.258 8  20121560.653 8 -34317355.39149  20121555.20849      1910.371
 -29161263.523 7  21479378.022 7 -22237381.69249  21479371.68149      3251.670
 15  1  3  1  0 30.0000000  0  7G02G12G14G21G25G29G31
 -30248735.848 6  23439122.127 6 -23556077.90647  23439114.04847      -291.421
 -47270785.637 6  23024105.555 6 -36811627.38848  23024100.71648      -971.484
 -28088168.219 4  24072829.572 4 -21824735.81546  24072824.03446     -1140.273
  -7373320.590 4  24343516.023 4  -5724979.38846  24343510.35846      5011.269
 -51173932.609 8  20638748.757 8 -39864301.66349  20638745.98349       702.354
 -44121256.668 8  20110699.000 8 -34361832.07149  20110693.69749      1894.756
 -29258564.211 7  21460862.295 7 -22313200.40449  21460856.12149      3234.902
 15  1  3  1  1  0.0000000  0  7G02G12G14G21G25G29G31
 -30239794.289 5  23440823.701 5 -23549110.46047  23440815.83447      -304.995
 -47241563.449 6  23029666.341 6 -36788856.86748  23029661.83448      -976.963
 -28053879.879 4  24079354.434 4 -21798017.69246  24079348.67646     -1145.972
  -7523622.375 4  24314914.565 4  -5842097.71746  24314909.04746      5008.462
 -51194839.914 8  20634770.248 8 -39880593.07449  20634767.36949       691.191
 -44177876.504 8  20099924.596 8 -34405951.41149  20099919.23049      1879.648
 -29355370.617 7  21442440.621 7 -22388633.95849  21442434.80949      3218.574
 15  1  3  1  1 30.0000000  0  7G02G12G14G21G25G29G31
 -30230444.539 5  23442603.004 5 -23541824.94147  23442595.34247      -318.599
 -47212173.281 6  23035259.105 6 -36765955.47248  23035253.94148      -982.500
 -28019422.441 4  24085911.507 4 -21771167.79946  24085905.57546     -1151.489
  -7673837.539 4  24286329.592 4  -5959148.42046  24286323.76946      5005.645
 -51215407.594 7  20630856.379 7 -39896619.84449  20630853.38149       679.995
 -44234042.691 8  20089236.504 8 -34449717.26449  20089231.37049      1864.629
 -29451684.578 7  21424112.672 7 -22463683.80449  21424106.88749      3202.207
 15  1  3  1  2  0.0000000  0  7G02G12G14G21G25G29G31
 -30220690.500 6  23444459.174 6 -23534224.38947  23444451.12847      -331.792
 -47182617.578 6  23040883.348 6 -36742925.07648  23040879.17648      -987.964
 -27984801.051 4  24092499.764 4 -21744190.06746  24092494.91746     -1156.714
  -7823966.488 5  24257761.016 5  -6076131.93546  24257754.53946      5002.935
 -51235637.816 8  20627006.738 8 -39912383.65649  20627003.76849       668.765
 -44289757.879 8  20078634.242 8 -34493131.69449  20078628.91749      1849.658
 -29547506.742 7  21405878.300 7 -22538350.42149  21405872.77849      3185.933
 15  1  3  1  2 30.0000000  0  7G02G12G14G21G25G29G31
 -30210538.066 5  23446391.059 5 -23526313.43147  23446384.09047      -345.273
 -47152900.949 6  23046538.201 6 -36719769.30448  23046534.46448      -993.516
 -27950022.977 4  24099117.890 4 -21717090.24746  24099112.76546     -1162.139
  -7974011.160 4  24229208.487 4  -6193049.81746  24229202.03246      4999.780
 -51255534.547 8  20623220.556 8 -39927887.61349  20623217.80849       657.319
 -44345026.750 8  20068116.910 8 -34536198.34049  20068111.66749      1834.624
 -29642839.031 7  21387737.133 7 -22612635.33449  21387731.21949      3169.248
 15  1  3  1  3  0.0000000  0  7G02G12G14G21G25G29G31
 -30199977.094 5  23448400.783 5 -23518084.10247  23448392.96547      -358.540
 -47123011.789 6  23052225.892 6 -36696479.06347  23052221.90947      -998.936
 -27915079.234 4  24105767.488 4 -21689861.39546  24105762.97346     -1167.178
  -8123956.809 4  24200674.677 4  -6309890.56046  24200669.50146      4996.729
 -51275085.773 8  20619500.080 8 -39943122.33149  20619497.49149       646.196
 -44399838.383 8  20057686.582 8 -34578908.68949  20057681.43249      1819.697
 -29737667.863 7  21369691.782 7 -22686527.91949  21369685.91649      3152.837
 15  1  3  1  3 30.0000000  0  7G02G12G14G21G25G29G31
 -30189016.438 5  23450486.542 5 -23509543.33247  23450478.60547      -372.388
 -47092957.477 6  23057945.028 6 -36673060.15747  23057940.06047     -1004.902
 -27879979.758 4  24112446.687 4 -21662511.20746  24112442.38446     -1172.915
  -8273808.160 5  24172158.809 5  -6426657.80746  24172151.46946      4993.071
 -51294298.352 8  20615844.034 8 -39958093.18849  20615841.01749       634.385
 -44454200.320 8  20047341.825 8 -34621268.63949  20047336.39749      1804.243
 -29831998.445 7  21351741.283 7 -22760032.26949  21351735.23349      3135.664
 15  1  3  1  4  0.0000000  0  7G02G12G14G21G25G29G31
 -30177653.457 5  23452648.775 5 -23500689.05847  23452641.40747      -385.332
 -47062734.105 6  23063696.310 6 -36649509.47647  23063690.76847     -1010.054
 -27844723.113 4  24119155.798 4 -21635038.58646  24119152.06046     -1177.627
  -8423558.441 5  24143662.235 5  -6543346.31346  24143655.61246      4990.191
 -51313167.723 7  20612253.291 7 -39972796.58849  20612250.42049       623.477
 -44508108.785 8  20037083.367 8 -34663275.23149  20037078.10349      1789.643
 -29925824.273 7  21333886.854 7 -22833143.30249  21333880.87849      3119.297
 15  1  3  1  4 30.0000000  0  7G02G12G14G21G25G29G31
 -30165897.590 6  23454885.856 6 -23491528.66647  23454878.48147      -398.096
 -47032349.871 6  23069478.231 6 -36625833.49547  23069473.11047     -1015.229
 -27809320.016 4  24125892.786 4 -21607451.69846  24125889.67746     -1182.383
  -8573212.852 5  24115183.832 5  -6659960.11146  24115176.89546      4987.031
 -51331701.508 7  20608726.404 7 -39987238.50649  20608724.06749       612.422
 -44561571.824 8  20026909.664 8 -34704934.73949  20026904.25449      1774.937
 -30019151.652 8  21316127.289 8 -22905865.93949  21316121.54049      3102.817
 15  1  3  1  5  0.0000000  0  7G02G12G14G21G25G29G31
 -30153747.934 6  23457197.898 6 -23482061.40547  23457190.57547      -411.680
 -47001802.141 6  23075291.284 6 -36602030.07447  23075286.17547     -1021.040
 -27773770.793 2  24132657.585 2 -21579751.03546  24132654.22046     -1187.432
  -8722766.098 5  24086724.664 5  -6776495.07646  24086717.22346      4983.247
 -51349896.750 8  20605263.948 8 -40001416.62049  20605261.13449       600.806
 -44614588.004 8  20016821.014 8 -34746246.04249  20016815.56249      1759.585
 -30111975.605 7  21298463.489 7 -22978196.28249  21298457.96649      3085.615
 15  1  3  1  5 30.0000000  0  7G02G12G14G21G25G29G31
 -30141203.918 6  23459584.927 6 -23472286.85747  23459576.95047      -424.844
 -46971088.844 6  23081135.840 6 -36578097.66447  23081130.67047     -1026.606
 -27738076.102 3  24139449.981 3 -21551936.99345  24139446.35845     -1192.417
  -8872213.770 5  24058285.644 5  -6892947.76246  24058278.02846      4979.648
 -51367751.215 8  20601866.344 8 -40015329.20249  20601863.80349       589.341
 -44667155.426 8  20006817.787 8 -34787207.67149  20006812.16549      1744.595
 -30204292.508 7  21280896.141 7 -23050131.53049  21280889.80349      3068.535
 15  1  3  1  6  0.0000000  0  7G02G12G14G21G25G29G31
 -30128269.852 5  23462046.217 5 -23462208.36447  23462037.90747      -437.319
 -46940213.031 6  23087011.309 6 -36554038.61147  23087006.40147     -1031.616
 -27702241.320 4  24146269.143 4 -21524013.87946  24146265.13746     -1196.382
  -9021555.828 5  24029866.689 5  -7009318.14346  24029859.82546      4976.675
 -51385267.066 7  20598533.180 7 -40028977.91949  20598530.27949       578.477
 -44719277.664 8  19996899.280 8 -34827822.39449  19996893.89049      1730.376
 -30296102.625 7  21263425.219 7 -23121671.87849  21263418.79849      3052.183
 15  1  3  1  6 30.0000000  0  7G02G12G14G21G25G29G31
 -30114950.301 5  23464580.868 5 -23451829.50547  23464573.42147      -450.483
 -46909177.539 6  23092917.185 6 -36529855.14847  23092911.78647     -1037.339
 -27666272.141 3  24153113.823 3 -21495985.94446  24153109.61446     -1201.353
  -9170792.691 5  24001467.780 5  -7125606.57546  24001460.91146      4972.603
 -51402446.969 8  20595263.950 8 -40042364.85749  20595261.29749       566.851
 -44770957.801 8  19987064.876 8 -34868092.62349  19987059.34749      1715.166
 -30387407.105 7  21246050.543 7 -23192818.22449  21246044.37049      3034.868
 15  1  3  1  7  0.0000000  0  7G02G12G14G21G25G29G31
 -30101245.648 5  23467188.773 5 -23441150.55147  23467180.98847      -463.135
 -46877981.340 6  23098853.684 6 -36505546.42447  23098848.17347     -1042.417
 -27630170.266 4  24159983.880 4 -21467854.65645  24159978.77845     -1205.298
  -9319920.602 5  23973089.619 5  -7241810.10446  23973083.21846      4969.151
 -51419289.469 8  20592058.945 8 -40055488.89449  20592056.27349       555.874
 -44822195.156 8  19977314.731 8 -34908017.84049  19977309.32349      1700.693
 -30478202.695 7  21228772.726 7 -23263568.03049  21228766.43949      3018.120
 15  1  3  1  7 30.0000000  0  7G02G12G14G21G25G29G31
 -30087152.121 5  23469870.701 5 -23430168.60847  23469863.06647      -476.226
 -46846619.082 6  23104821.817 6 -36481108.33747  23104816.26647     -1048.159
 -27593932.910 5  24166879.737 5 -21439617.80445  24166874.20245     -1210.073
  -9468930.996 5  23944733.774 5  -7357922.10246  23944727.65446      4965.127
 -51435788.707 7  20588919.267 7 -40068345.45549  20588916.58349       544.253
 -44872985.055 8  19967649.754 8 -34947594.38149  19967644.24749      1685.542
 -30568481.992 7  21211593.154 7 -23333915.53549  21211586.93149      3000.708
 15  1  3  1  8  0.0000000  0  7G02G12G14G21G25G29G31
 -30072670.906 5  23472626.352 5 -23418884.55147  23472618.68847      -489.097
 -46815090.863 6  23110821.550 6 -36456540.92647  23110816.32047     -1053.657
 -27557562.547 4  24173800.821 4 -21411277.28145  24173795.84945     -1214.414
  -9617821.426 5  23916400.780 5  -7473940.56446  23916395.38446      4961.089
 -51451943.996 7  20585845.015 7 -40080933.98449  20585842.33949       532.817
 -44923327.480 8  19958069.905 8 -34986822.23649  19958064.85349      1670.698
 -30658243.031 7  21194512.230 7 -23403859.19949  21194506.46049      2983.491
 15  1  3  1  8 30.0000000  0  7G02G12G14G21G25G29G31
 -30057803.965 5  23475455.398 5 -23407299.93247  23475448.05747      -502.471
 -46783396.930 6  23116852.750 6 -36431844.36947  23116848.00647     -1059.756
 -27521062.258 4  24180746.653 4 -21382835.57446  24180741.60646     -1219.146
  -9766589.570 4  23888091.054 4  -7589863.72946  23888085.01946      4956.323
 -51467755.480 8  20582836.181 8 -40093254.63649  20582833.54349       520.825
 -44973223.563 8  19948574.975 8 -35025702.29849  19948569.93049      1655.225
 -30747483.770 7  21177530.317 7 -23473397.44849  21177524.42349      2965.459
 15  1  3  1  9  0.0000000  0  7G02G12G14G21G25G29G31
 -30042557.297 6  23478356.741 6 -23395419.42447  23478349.32647      -514.219
 -46751541.930 6  23122914.583 6 -36407022.31648  23122909.32748     -1064.316
 -27484439.031 3  24187715.924 3 -21354298.01245  24187710.82445     -1222.451
  -9915236.922 4  23859804.298 4  -7705692.82046  23859799.09546      4953.130
 -51483227.070 8  20579892.040 8 -40105310.42849  20579889.05749       510.322
 -45022677.930 8  19939164.096 8 -35064238.16049  19939159.06649      1641.348
 -30836206.289 7  21160647.003 7 -23542531.86849  21160640.35949      2948.950
 15  1  3  1  9 30.0000000  0  7G02G12G14G21G25G29G31
 -30026939.914 5  23481328.659 5 -23383250.04447  23481320.40947      -527.100
 -46719533.113 6  23129005.709 6 -36382080.40648  23129000.58848     -1069.829
 -27447702.809 3  24194706.569 3 -21325672.38345  24194703.03545     -1226.670
 -10063768.324 5  23831539.709 5  -7821431.57446  23831534.15846      4948.814
 -51498365.566 8  20577011.301 8 -40117106.65749  20577008.54249       498.716
 -45071698.418 8  19929835.805 8 -35102435.94149  19929830.51349      1626.450
 -30924416.609 7  21143861.125 7 -23611267.18549  21143855.01449      2931.401
 15  1  3  1 10  0.0000000  0  7G02G12G14G21G25G29G31
 -30010947.152 5  23484371.901 5 -23370788.16247  23484363.92647      -539.175
 -46687364.730 6  23135127.211 6 -36357014.15947  23135121.92247     -1074.736
 -27410850.598 3  24201719.265 3 -21296956.37545  24201714.46845     -1230.024
 -10212175.422 5  23803298.753 5  -7937073.45146  23803292.85546      4944.971
 -51513164.941 7  20574195.084 7 -40128638.65249  20574192.40149       487.822
 -45120280.109 8  19920591.014 8 -35140291.79849  19920585.98049      1612.246
 -31012107.109 7  21127174.136 7 -23679597.42949  21127168.47549      2914.438
 15  1  3  1 10 30.0000000  0  7G02G12G14G21G25G29G31
 -29994578.809 5  23487486.617 5 -23358033.59547  23487479.29547      -551.611
 -46655035.340 6  23141279.354 6 -36331822.45848  23141274.02948     -1080.137
 -27373882.879 3  24208753.901 3 -21268150.44145  24208750.74245     -1233.765
 -10360452.797 5  23775082.439 5  -8052614.27546  23775077.39346      4940.542
 -51527622.703 7  20571443.860 7 -40139904.45049  20571441.67549       476.401
 -45168421.367 8  19911430.033 8 -35177804.45549  19911424.88849      1597.588
 -31099273.332 7  21110586.913 7 -23747519.15749  21110580.95049      2897.002
 15  1  3  1 11  0.0000000  0  7G02G12G14G21G25G29G31
 -29977839.516 5  23490672.032 5 -23344990.01647  23490664.22847      -564.077
 -46622547.859 6  23147461.558 6 -36306507.56747  23147456.61147     -1085.425
 -27336805.824 2  24215809.299 2 -21239259.23045  24215806.21945     -1237.632
 -10508601.516 5  23746890.605 5  -8168054.80046  23746885.17446      4936.094
 -51541741.848 7  20568757.074 7 -40150906.39349  20568754.11549       464.995
 -45216125.500 8  19902352.217 8 -35214976.51149  19902347.03549      1582.876
 -31185916.793 7  21094099.207 7 -23815033.54349  21094093.41849      2879.468
 15  1  3  1 11 29.9990000  0  7G02G12G14G21G25G29G31
 -29960732.027 5  23493927.564 5 -23331659.47147  23493919.94747      -576.572
 -46589903.188 6  23153673.665 6 -36281070.19447  23153669.00347     -1090.898
 -27299623.344 4  24222884.816 4 -21210285.86745  24222881.78545     -1241.362
 -10656614.164 5  23718724.652 5  -8283389.32546  23718718.73946      4931.533
 -51555521.801 7  20566134.831 7 -40161644.02649  20566132.44349       453.623
 -45263392.098 8  19893357.681 8 -35251807.62149  19893352.35449      1568.242
 -31272032.953 7  21077711.856 7 -23882137.04549  21077706.30549      2861.807
 15  1  3  1 11 59.9990000  0  8G02G05G12G14G21G25G29G31
 -29943258.750 6  23497252.647 6 -23318043.93847  23497245.24047      -588.784
   -162793.359 1  25028528.120 1                                      3879.458
 -46557101.617 6  23159915.624 6 -36255510.57348  23159910.16548     -1096.177
 -27262337.438 4  24229980.139 4 -21181231.96545  24229976.02645     -1244.775
 -10804499.902 5  23690582.847 5  -8398624.93046  23690576.96646      4927.075
 -51568964.996 8  20563576.683 8 -40172119.24749  20563574.07249       442.222
 -45310227.273 8  19884445.268 8 -35288302.55849  19884440.01349      1553.672
 -31357627.402 7  21061423.760 7 -23948834.02549  21061417.68449      2844.150
 15  1  3  1 12 29.9990000  0  8G02G05G12G14G21G25G29G31
 -29925422.723 6  23500646.704 6 -23304145.71347  23500638.68247      -600.439
   -279047.352 1  25006405.189 1   -209560.85244  25006401.02944      3870.771
 -46524145.320 6  23166186.995 6 -36229830.35547  23166182.43447     -1100.874
 -27224953.230 3  24237094.121 3 -21152101.49046  24237091.10246     -1247.612
 -10952252.035 5  23662466.479 5  -8513756.42346  23662460.25046      4923.096
 -51582071.602 7  20561082.602 7 -40182332.19949  20561079.96849       431.392
 -45356630.199 8  19875615.105 8 -35324460.67849  19875609.60049      1539.800
 -31442696.570 8  21045235.629 8 -24015121.68649  21045229.53749      2827.119
 15  1  3  1 12 59.9990000  0  8G02G05G12G14G21G25G29G31
 -29907240.453 5  23504106.629 5 -23289977.70547  23504099.08347      -611.709
   -395042.539 1  24984331.882 1   -299946.74244  24984326.06544      3862.378
 -46491049.711 6  23172484.859 6 -36204041.58348  23172480.63748     -1105.420
 -27187488.297 4  24244223.543 4 -21122908.02246  24244219.96646     -1249.883
 -11099883.121 6  23634373.161 6  -8628793.64546  23634366.65346      4919.077
 -51594856.180 7  20558649.805 7 -40192294.22049  20558647.09749       420.981
 -45402616.633 8  19866864.183 8 -35360294.25949  19866858.73449      1526.079
 -31527253.754 7  21029144.925 7 -24081010.40049  21029138.59649      2810.147
 15  1  3  1 13 29.9990000  0  8G02G05G12G14G21G25G29G31
 -29888705.582 5  23507633.691 5 -23275534.94647  23507626.12247      -623.955
   -510767.328 1  24962309.994 1   -390121.87945  24962305.22545      3852.705
 -46457806.148 6  23178810.891 6 -36178137.52248  23178806.55948     -1110.703
 -27149937.320 3  24251369.529 3 -21093647.53446  24251366.63546     -1253.267
 -11247381.852 5  23606305.004 5  -8743727.70046  23606298.91346      4914.258
 -51607310.422 8  20556279.866 8 -40201998.82649  20556276.90449       409.551
 -45448179.191 8  19858193.905 8 -35395797.54949  19858188.76449      1511.533
 -31611288.922 7  21013153.561 7 -24146492.34349  21013147.68849      2792.319
 15  1  3  1 13 59.9990000  0  8G02G05G12G14G21G25G29G31
 -29869812.652 5  23511228.899 5 -23260813.19147  23511221.93447      -635.435
   -626211.375 2  24940341.595 2   -480078.29345  24940336.18745      3843.745
 -46424408.309 6  23185166.306 6 -36152113.27047  23185162.07147     -1115.674
 -27112295.781 2  24258532.488 2 -21064316.48845  24258530.34345     -1256.167
 -11394738.688 5  23578263.843 5  -8858551.18046  23578257.52446      4909.775
 -51619426.727 7  20553974.216 7 -40211440.11449  20553971.45249       398.477
 -45493311.484 8  19849605.510 8 -35430965.56149  19849600.61649      1497.524
 -31694792.742 7  20997263.305 7 -24211560.25349  20997257.28149      2774.824
 15  1  3  1 14 29.9990000  0  8G02G05G12G14G21G25G29G31
 -29850567.051 5  23514891.206 5 -23245816.61047  23514884.38847      -647.490
   -741375.434 1  24918426.213 1   -569816.47546  24918422.77246      3833.906
 -46390859.648 6  23191550.395 6 -36125971.47647  23191545.21447     -1120.898
 -27074570.133 2  24265711.414 2 -21034919.91045  24265708.76045     -1258.999
 -11541955.383 6  23550249.428 6  -8973265.47046  23550242.92746      4904.795
 -51631208.680 7  20551732.171 7 -40220620.86349  20551729.53249       387.134
 -45538017.773 8  19841098.173 8 -35465801.62749  19841092.78149      1483.071
 -31777767.555 7  20981473.738 7 -24276215.94949  20981467.76449      2756.856
 15  1  3  1 14 59.9990000  0  8G02G05G12G14G21G25G29G31
 -29830971.648 5  23518620.080 5 -23230547.48447  23518612.23647      -658.691
   -856257.102 3  24896564.673 3   -659334.64846  24896560.72146      3824.932
 -46357161.160 6  23197962.997 6 -36099712.91947  23197958.09347     -1125.522
 -27036764.258 2  24272905.630 2 -21005460.81645  24272902.50645     -1261.343
 -11689029.504 5  23522262.166 5  -9087868.62246  23522255.88246      4900.322
 -51642657.059 7  20549553.613 7 -40229541.67449  20549550.98349       376.328
 -45582300.098 8  19832671.522 8 -35500307.32949  19832666.19949      1469.341
 -31860212.805 7  20965784.954 7 -24340458.99649  20965779.29349      2739.619
 15  1  3  1 15 29.9990000  0  8G02G05G12G14G21G25G29G31
 -29811042.426 4  23522412.495 4 -23215018.19247  23522404.58447      -669.888
   -970867.773 3  24874754.751 3   -748641.66846  24874750.36646      3815.806
 -46323327.688 6  23204401.325 6 -36073349.23447  23204396.15947     -1130.034
 -26998895.176 2  24280111.935 2 -20975952.48845  24280107.25345     -1263.198
 -11835973.266 5  23494299.638 5  -9202370.22146  23494293.78146      4895.835
 -51653786.035 7  20547435.844 7 -40238213.62249  20547433.04749       365.640
 -45626173.043 8  19824322.760 8 -35534494.03849  19824317.46149      1455.601
 -31942140.848 7  20950194.605 7 -24404299.03249  20950188.54749      2722.266
 15  1  3  1 15 59.9990000  0  8G02G05G12G14G21G25G29G31
 -29790780.078 5  23526268.278 5 -23199229.36047  23526260.09647      -681.006
  -1085202.969 4  24852997.325 4   -837734.04046  24852994.13846      3806.528
 -46289358.238 6  23210865.545 6 -36046879.55847  23210860.75647     -1134.551
 -26960964.301 1  24287329.940 1 -20946396.00845  24287325.60845     -1265.420
 -11982783.078 5  23466362.613 5  -9316767.47646  23466356.73846      4891.401
 -51664594.164 7  20545379.106 7 -40246635.55749  20545376.60349       354.873
 -45669636.219 8  19816051.978 8 -35568361.44549  19816046.40949      1441.934
 -32023549.133 7  20934703.147 7 -24467734.05849  20934696.84049      2704.888
 15  1  3  1 16 29.9990000  0  8G02G05G12G14G21G25G29G31
 -29770173.121 5  23530189.632 5 -23183172.01247  23530182.72947      -692.500
  -1199246.281 4  24831295.505 4   -926598.94246  24831292.91146      3796.665
 -46255239.770 6  23217358.108 6 -36020293.76847  23217353.89247     -1139.712
 -26922961.148 2  24294561.677 2 -20916783.16845  24294557.25245     -1267.925
 -12129442.895 5  23438454.081 5  -9431047.82746  23438447.90446      4886.191
 -51675067.855 7  20543386.019 7 -40254796.86749  20543383.58749       343.687
 -45712676.945 8  19807861.594 8 -35601899.66549  19807856.49849      1427.744
 -32104422.582 7  20919313.422 7 -24530752.33249  20919307.59449      2686.909
 15  1  3  1 16 59.9990000  0  8G02G05G12G14G21G25G29G31
 -29749228.438 5  23534175.252 5 -23166851.51547  23534167.76047      -704.224
  -1312999.563 4  24809649.004 4  -1015237.80546  24809645.21846      3786.602
 -46220977.867 6  23223877.924 6 -35993596.19647  23223873.53047     -1144.717
 -26884893.707 2  24301805.662 2 -20887120.27045  24301801.34245     -1270.420
 -12275955.434 5  23410573.602 5  -9545213.40046  23410567.19646      4880.928
 -51685212.262 7  20541455.597 7 -40262701.61149  20541453.23149       332.432
 -45755301.816 8  19799750.355 8 -35635113.84249  19799745.24249      1413.628
 -32184764.863 7  20904024.762 7 -24593356.69949  20904018.66649      2668.945
 15  1  3  1 17 29.9990000  0  8G02G05G12G14G21G25G29G31
 -29727938.207 5  23538226.647 5 -23150261.73347  23538219.59547      -715.166
  -1426450.430 3  24788060.009 3  -1103641.03646  24788056.39246      3776.709
 -46186562.902 6  23230426.887 6 -35966779.37347  23230422.14347     -1149.473
 -26846755.316 2  24309063.111 2 -20857402.05945  24309058.29445     -1272.134
 -12422308.598 5  23382723.415 5  -9659254.77846  23382717.94046      4876.025
 -51695017.500 7  20539589.745 7 -40270342.06949  20539587.04549       321.387
 -45797501.711 8  19791719.974 8 -35667996.87649  19791714.61249      1399.844
 -32264564.941 7  20888839.272 7 -24655538.58549  20888833.06649      2651.182
 15  1  3  1 17 59.9990000  0  8G02G05G12G14G21G25G29G31
 -29706322.148 4  23542340.046 4 -23133418.06547  23542332.33747      -726.377
  -1539613.527 3  24766525.826 3  -1191820.01846  24766522.15846      3766.875
 -46152013.227 6  23237001.489 6 -35939857.57847  23236996.53047     -1154.253
 -26808566.320 2  24316330.196 2 -20827644.43045  24316326.45245     -1274.141
 -12568517.832 5  23354900.628 5  -9773184.02146  23354894.62646      4870.893
 -51704501.285 7  20537785.088 7 -40277732.04949  20537782.27749       310.522
 -45839295.129 8  19783766.939 8 -35700563.17049  19783761.69149      1386.050
 -32343838.941 7  20873753.895 7 -24717310.53949  20873747.73049      2633.315
 15  1  3  1 18 29.9990000  0  8G02G05G12G14G21G25G29G31
 -29684374.320 5  23546516.595 5 -23116315.83747  23546509.28847      -736.846
  -1652477.719 3  24745048.374 3  -1279766.14846  24745045.14246      3757.378
 -46117320.848 6  23243603.278 6 -35912824.60247  23243598.36447     -1158.574
 -26770321.543 2  24323607.916 2 -20797843.35245  24323604.56345     -1275.566
 -12714572.438 5  23327107.295 5  -9886992.79646  23327101.15246      4866.138
 -51713655.523 7  20536043.128 7 -40284865.22249  20536040.61649       299.878
 -45880674.746 8  19775892.657 8 -35732807.02949  19775887.38049      1372.695
 -32422577.355 7  20858770.484 7 -24778665.14649  20858764.22049      2615.884
 15  1  3  1 18 59.9990000  0  8G02G05G12G14G21G25G29G31
 -29662106.605 5  23550754.038 5 -23098964.37847  23550745.96747      -747.622
  -1765050.125 3  24723626.493 3  -1367484.89146  24723624.33746      3747.588
 -46082496.609 6  23250230.104 6 -35885688.83947  23250224.69347     -1163.135
 -26732034.293 2  24330893.677 2 -20768009.12145  24330889.05845     -1276.821
 -12860480.277 5  23299341.973 5 -10000687.17846  23299336.44346      4861.133
 -51722490.359 7  20534361.943 7 -40291749.52949  20534359.49949       289.131
 -45921651.824 8  19768094.975 8 -35764737.21149  19768089.96249      1359.111
 -32500788.977 8  20843887.324 8 -24839609.26949  20843880.74249      2598.218
 15  1  3  1 19 29.9990000  0  8G02G05G12G14G21G25G29G31
 -29639504.324 5  23555055.165 5 -23081352.17847  23555047.26647      -758.813
  -1877311.289 3  24702263.913 3  -1454961.06446  24702259.87346      3736.831
 -46047523.793 6  23256885.242 6 -35858437.34647  23256879.71647     -1168.052
 -26693690.371 4  24338190.434 4 -20738130.74246  24338185.15546     -1278.804
 -13006222.230 5  23271608.178 5 -10114252.30546  23271603.27746      4855.386
 -51730988.918 7  20532744.754 7 -40298371.78049  20532741.55349       277.871
 -45962210.516 7  19760376.905 7 -35796341.38149  19760371.45749      1345.239
 -32578455.906 7  20829107.829 7 -24900128.94649  20829101.61949      2579.966
 15  1  3  1 19 59.9990000  0  8G02G05G12G14G21G25G29G31
 -29616577.547 5  23559418.027 5 -23063487.14247  23559410.91747      -769.302
  -1989266.316 2  24680959.632 2  -1542198.70345  24680955.76445      3726.997
 -46012411.270 6  23263566.965 6 -35831076.94347  23263561.43447     -1172.510
 -26655301.117 4  24345495.894 4 -20708217.11345  24345489.71245     -1280.137
 -13151804.395 5  23243904.850 5 -10227692.95747  23243898.97047      4850.356
 -51739159.582 7  20531189.959 7 -40304738.54449  20531186.71449       267.231
 -46002360.500 7  19752736.602 7 -35827627.08449  19752731.25549      1331.836
 -32655584.871 7  20814430.698 7 -24960229.44449  20814424.34449      2562.222
 15  1  3  1 20 29.9990000  0  8G02G05G12G14G21G25G29G31
 -29593333.039 4  23563841.292 4 -23045374.55947  23563834.33247      -780.249
  -2100916.883 3  24659713.481 3  -1629199.05546  24659708.46546      3716.318
 -45977163.965 6  23270274.301 6 -35803611.54647  23270268.76347     -1177.397
 -26616874.191 4  24352808.415 4 -20678274.06445  24352803.59445     -1281.743
 -13297228.840 5  23216231.556 5 -10341010.67447  23216225.56047      4844.580
 -51747006.918 7  20529696.669 7 -40310853.36849  20529693.76749       255.967
 -46042107.051 8  19745173.069 8 -35858598.41749  19745167.80949      1317.998
 -32732179.340 7  20799855.254 7 -25019913.44349  20799848.88449      2544.028
 15  1  3  1 20 59.9990000  0  8G02G05G12G14G21G25G29G31
 -29569764.445 4  23568326.171 4 -23027009.42047  23568318.11447      -790.977
  -2212251.996 4  24638527.481 4  -1715953.62146  24638522.73946      3705.942
 -45941774.094 6  23277008.769 6 -35776035.03047  23277003.37747     -1181.890
 -26578404.008 4  24360129.104 4 -20648297.37246  24360124.02746     -1282.690
 -13442484.910 5  23188590.263 5 -10454197.18847  23188584.80747      4839.214
 -51754522.648 7  20528266.469 7 -40316709.80049  20528263.58849       245.137
 -46081443.336 8  19737687.621 8 -35889250.07049  19737682.15249      1304.570
 -32808229.684 7  20785383.337 7 -25079173.45049  20785377.29149      2526.099
 15  1  3  1 21 29.9990000  0  8G02G05G12G14G21G25G29G31
 -29545884.309 4  23572870.370 4 -23008401.49447  23572862.50147      -801.108
  -2323278.672 4  24617399.990 4  -1802467.86146  24617395.87746      3695.874
 -45906252.090 6  23283768.414 6 -35748355.55847  23283763.57447     -1186.172
 -26539903.484 4  24367455.591 4 -20618297.01046  24367449.47546     -1283.838
 -13587580.598 5  23160979.553 5 -10567258.75847  23160974.18847      4833.872
 -51761716.941 7  20526897.417 7 -40322315.74949  20526894.81849       234.458
 -46120379.652 8  19730278.293 8 -35919590.05149  19730272.88549      1291.274
 -32883744.645 7  20771013.304 7 -25138016.27249  20771006.89649      2508.272
 15  1  3  1 21 59.9990000  0  8G02G05G12G14G21G25G29G31
 -29521693.563 5  23577473.749 5 -22989551.58547  23577465.55347      -811.484
  -2433993.672 2  24596331.643 2  -1888739.29646  24596326.96446      3685.395
 -45870597.715 6  23290553.292 6 -35720572.96047  23290548.73547     -1190.542
 -26501375.090 5  24374787.573 5 -20588274.87746  24374781.64246     -1284.604
 -13732512.910 5  23133399.876 5 -10680192.98347  23133394.18447      4828.579
 -51768589.168 7  20525589.657 7 -40327670.73649  20525586.87449       223.862
 -46158916.473 8  19722944.962 8 -35949618.74149  19722939.88349      1278.061
 -32958722.313 8  20756745.535 8 -25196440.42849  20756739.13249      2490.444
 15  1  3  1 22 29.9990000  0  8G02G05G12G14G21G25G29G31
 -29497188.566 5  23582136.928 5 -22970456.76647  23582129.34847      -821.885
  -2544388.082 2  24575324.259 2  -1974760.94145  24575319.15145      3674.541
 -45834806.363 6  23297364.159 6 -35692683.57747  23297359.14147     -1195.283
 -26462815.762 4  24382125.200 4 -20558228.73146  24382119.68846     -1285.732
 -13877273.852 5  23105852.833 5 -10792993.70847  23105845.99047      4822.705
 -51775133.574 7  20524344.284 7 -40332770.28149  20524341.86449       212.891
 -46197049.480 7  19715688.455 7 -35979332.76649  19715682.93149      1264.443
 -33033156.141 7  20742581.253 7 -25254440.81149  20742575.00549      2472.197
 15  1  3  1 22 59.9990000  0  8G02G05G12G14G21G25G29G31
 -29472372.738 4  23586859.179 4 -22951119.73046  23586851.37046      -832.896
  -2654460.555 4  24554378.344 4  -2060531.73845  24554373.50545      3663.105
 -45798878.969 5  23304200.920 5 -35664688.27146  23304195.48346     -1200.308
 -26424230.227 4  24389467.722 4 -20528162.03145  24389463.00245     -1287.095
 -14021862.055 6  23078338.680 6 -10905659.81346  23078332.28246      4816.226
 -51781351.746 7  20523160.999 7 -40337615.61849  20523158.38149       201.294
 -46234781.285 8  19708508.303 8 -36008734.16549  19708503.21049      1250.478
 -33107045.984 8  20728520.488 8 -25312017.31149  20728514.35649      2453.433
 15  1  3  1 23 29.9990000  0  8G02G05G12G14G21G25G29G31
 -29447242.051 5  23591641.319 5 -22931537.34946  23591633.53246      -842.749
  -2764202.277 3  24533495.195 3  -2146044.76245  24533490.44345      3652.832
 -45762810.227 5  23311064.522 5 -35636582.75647  23311059.60447     -1204.360
 -26385614.777 4  24396816.053 4 -20498072.16546  24396809.12146     -1287.363
 -14166269.473 6  23050858.930 6 -11018185.06647  23050852.50647      4810.718
 -51787237.539 7  20522040.975 7 -40342201.95949  20522038.82249       190.933
 -46272106.086 8  19701405.625 8 -36037818.42549  19701400.56449      1237.627
 -33180384.500 8  20714564.629 8 -25369164.20849  20714558.55549      2435.684
 15  1  3  1 23 59.9990000  0  8G02G05G12G14G21G25G29G31
 -29421810.465 4  23596480.741 4 -22911720.54047  23596473.60047      -853.027
  -2873622.254 4  24512673.526 4  -2231307.05145  24512667.58545      3641.690
 -45726612.012 5  23317952.723 5 -35608376.37947  23317948.00047     -1209.014
 -26346984.207 5  24404167.341 5 -20467970.29746  24404161.54946     -1288.213
 -14310505.629 6  23023411.765 6 -11130576.84147  23023405.62647      4804.712
 -51792802.875 7  20520981.910 7 -40346538.60249  20520979.37049       179.932
 -46309037.105 8  19694377.886 8 -36066595.83649  19694372.37949      1224.199
 -33253182.273 8  20700711.666 8 -25425889.75049  20700705.65249      2417.295
 15  1  3  1 24 29.9990000  0  8G02G05G12G14G21G25G29G31
 -29396069.328 5  23601379.120 5 -22891662.47047  23601370.84947      -863.037
  -2982707.020 4  24491915.364 4  -2316308.11745  24491909.84345      3630.503
 -45690274.563 6  23324867.462 6 -35580061.49547  23324862.68647     -1213.496
 -26308330.910 3  24411522.782 3 -20437850.96545  24411519.29645     -1288.662
 -14454557.504 6  22995999.620 6 -11242825.03447  22995993.66347      4798.774
 -51798037.176 7  20519985.848 7 -40350617.28649  20519983.90149       168.945
 -46345564.980 8  19687426.877 8 -36095059.11449  19687421.58949      1210.967
 -33325427.723 8  20686963.833 8 -25482184.90849  20686957.43749      2399.043
 15  1  3  1 24 59.9990000  0  8G02G05G12G14G21G25G29G31
 -29370028.859 4  23606334.465 4 -22871371.22247  23606326.79047      -873.369
  -3091461.641 4  24471219.925 4  -2401051.96945  24471215.06245      3619.360
 -45653806.496 5  23331807.096 5 -35551644.82847  23331802.83547     -1218.047
 -26269665.758 2  24418880.257 2 -20407722.31146  24418876.25146     -1289.292
 -14598431.352 6  22968621.367 6 -11354934.48947  22968615.12647      4792.681
 -51802948.656 7  20519051.246 7 -40354444.42249  20519048.66649       158.110
 -46381699.035 7  19680550.806 7 -36123215.51049  19680546.03949      1197.637
 -33397128.105 7  20673319.716 7 -25538055.33849  20673313.47149      2380.693
 15  1  3  1 25 29.9990000  0  8G02G05G12G14G21G25G29G31
 -29343693.789 4  23611345.865 4 -22850850.37247  23611338.00447      -882.524
  -3199886.125 2  24450587.092 2  -2485538.64845  24450582.30745      3608.867
 -45617210.574 5  23338771.063 5 -35523128.55147  23338766.75747     -1221.870
 -26230994.336 4  24426239.108 4 -20377588.71145  24426234.65345     -1288.989
 -14742127.238 5  22941276.922 5 -11466905.28447  22941270.72147      4786.968
 -51807540.000 7  20518177.572 7 -40358022.11749  20518175.01449       147.856
 -46417442.297 8  19673749.081 8 -36151067.40349  19673743.86449      1185.127
 -33468284.773 7  20659779.050 7 -25593502.08949  20659772.89249      2362.974
 15  1  3  1 25 59.9990000  0  8G02G05G12G14G21G25G29G31
 -29317056.172 4  23616414.812 4 -22830093.81047  23616407.18947      -893.125
  -3307967.406 3  24430019.816 3  -2569757.85944  24430013.78144      3596.611
 -45580477.625 5  23345761.081 5 -35494505.49547  23345756.28947     -1226.919
 -26192309.551 4  24433600.571 4 -20347444.69645  24433595.10345     -1289.834
 -14885632.758 5  22913968.696 5 -11578727.78147  22913963.86547      4780.015
 -51811801.383 7  20517366.673 7 -40361342.69349  20517363.69049       136.309
 -46452786.250 7  19667023.351 7 -36178608.13849  19667018.30549      1171.343
 -33538886.316 7  20646344.012 7 -25648516.28349  20646338.32649      2343.950
 15  1  3  1 26 29.9990000  0  8G02G05G12G14G21G25G29G31
 -29290124.813 4  23621539.667 4 -22809108.35847  23621531.71947      -902.593
  -3415709.418 4  24409517.116 4  -2653712.68044  24409511.21844      3585.693
 -45543614.598 5  23352775.864 5 -35465781.08647  23352771.88347     -1230.908
 -26153620.848 3  24440962.825 3 -20317297.74446  24440958.61246     -1289.790
 -15028952.102 5  22886695.894 5 -11690405.17347  22886690.47447      4774.102
 -51815739.332 7  20516617.310 7 -40364411.23549  20516614.62849       125.845
 -46487738.953 7  19660372.081 7 -36205844.00549  19660366.32549      1158.555
 -33608939.039 7  20633013.438 7 -25703102.82349  20633007.46749      2325.903
 15  1  3  1 26 59.9980000  0  8G02G05G12G14G21G25G29G31
 -29262899.605 4  23626720.462 4 -22787893.90947  23626713.21247      -912.466
  -3523103.172 4  24389080.679 4  -2737396.14545  24389075.31945      3574.087
 -45506620.168 6  23359815.724 6 -35436954.26847  23359810.71447     -1235.483
 -26114929.402 3  24448325.534 3 -20287148.55545  24448321.79845     -1289.800
 -15172075.613 6  22859460.406 6 -11801929.97547  22859455.40947      4767.671
 -51819351.070 7  20515930.039 7 -40367225.59449  20515927.11149       114.956
 -46522296.797 7  19653795.942 7 -36232772.20049  19653791.13449      1145.381
 -33678436.277 8  20619788.593 8 -25757256.52049  20619782.44149      2307.461
 15  1  3  1 27 29.9980000  0  8G02G05G12G14G21G25G29G31
 -29235380.551 4  23631957.176 4 -22766450.46047  23631949.59047      -922.261
  -3630152.648 4  24368709.688 4  -2820811.27344  24368704.38844      3562.563
 -45469492.352 6  23366880.969 6 -35408023.55247  23366877.17647     -1239.849
 -26076235.426 4  24455688.729 4 -20256997.48745  24455684.46845     -1289.897
 -15315010.223 6  22832260.847 6 -11913307.56047  22832255.64647      4761.143
 -51822636.637 7  20515304.854 7 -40369785.79349  20515301.84649       104.082
 -46556463.207 7  19647294.277 7 -36259395.37349  19647289.25349      1132.310
 -33747381.434 7  20606668.784 7 -25810980.01349  20606662.43749      2288.897
 15  1  3  1 27 59.9980000  0  8G02G05G12G14G21G25G29G31
 -29207579.000 4  23637247.627 4 -22744786.94147  23637240.13247      -931.587
  -3736859.758 4  24348403.874 4  -2903959.63345  24348398.83145      3550.898
 -45432241.316 6  23373969.641 6 -35378996.78447  23373965.19247     -1243.984
 -26037551.156 3  24463050.128 3 -20226853.87945  24463044.85645     -1289.575
 -15457757.340 6  22805097.010 6 -12024539.07047  22805091.38047      4754.829
 -51825604.527 7  20514740.136 7 -40372098.44449  20514737.22149        93.379
 -46590247.035 7  19640865.439 7 -36285720.42449  19640860.22449      1119.565
 -33815779.758 8  20593653.042 8 -25864277.40849  20593646.88449      2270.576
 15  1  3  1 28 29.9980000  0  8G02G05G12G14G21G25G29G31
 -29179484.285 3  23642593.765 3 -22722894.92847  23642586.94647      -941.040
  -3843209.113 1  24328166.057 1  -2986829.28143  24328164.90243      3539.419
 -45394853.988 5  23381084.252 5 -35349863.78247  23381079.30247     -1248.091
 -25998866.805 4  24470411.546 4 -20196710.22746  24470407.04946     -1289.077
 -15600302.012 6  22777971.689 6 -12135612.80847  22777966.03947      4748.374
 -51828241.871 7  20514238.312 7 -40374153.52449  20514235.58349        82.759
 -46623635.609 8  19634511.818 8 -36311737.47949  19634506.17749      1106.719
 -33883617.125 8  20580744.016 8 -25917137.69849  20580738.49949      2252.231
 15  1  3  1 28 59.9980000  0  8G02G05G12G14G21G25G29G31
 -29151105.391 4  23647994.029 4 -22700781.49947  23647987.29647      -950.850
  -3949204.699 2  24307995.005 2  -3069423.27343  24307990.48543      3526.924
 -45357338.355 5  23388223.297 5 -35320630.86147  23388218.62947     -1252.856
 -25960191.949 4  24477771.233 4 -20166573.96746  24477766.53046     -1289.023
 -15742648.957 6  22750883.966 6 -12246532.49647  22750877.91347      4741.480
 -51830555.844 7  20513797.991 7 -40375956.64849  20513795.50449        71.553
 -46656637.590 8  19628231.759 8 -36337453.31549  19628226.38649      1093.467
 -33950899.699 7  20567940.535 7 -25969565.68549  20567934.06049      2233.364
 15  1  3  1 29 29.9980000  0  8G02G05G12G14G21G25G29G31
 -29122442.816 4  23653448.337 4 -22678447.03347  23653440.44747      -959.927
  -4054842.465 1  24287892.958 1  -3151738.35945  24287889.26345      3515.435
 -45319692.969 6  23395387.004 6 -35291296.81647  23395382.60947     -1256.792
 -25921527.910 4  24485128.766 4 -20136446.17546  24485124.44346     -1288.394
 -15884794.012 6  22723834.721 6 -12357294.85047  22723827.90647      4734.966
 -51832544.809 7  20513419.502 7 -40377506.49049  20513416.75249        61.099
 -46689252.391 8  19622025.358 8 -36362867.44649  19622020.06049      1080.913
 -34017624.777 7  20555243.140 7 -26021559.26649  20555237.20349      2215.054
 15  1  3  1 29 59.9980000  0  8G02G05G12G14G21G25G29G31
 -29093494.023 4  23658957.168 4 -22655889.56347  23658949.01147      -969.521
  -4160114.441 4  24267860.673 4  -3233768.48044  24267855.19644      3503.228
 -45281913.918 5  23402576.179 5 -35261858.64747  23402571.53747     -1261.226
 -25882872.727 4  24492484.636 4 -20106325.23146  24492481.48646     -1288.232
 -16026730.148 6  22696825.190 6 -12467894.41947  22696818.70647      4727.974
 -51834204.121 7  20513103.744 7 -40378799.47549  20513100.88449        50.068
 -46721475.953 8  19615893.403 8 -36387976.71249  19615888.07249      1067.900
 -34083786.617 7  20542652.969 7 -26073113.94749  20542647.02649      2196.201
 15  1  3  1 30 29.9980000  0  8G02G05G12G14G21G25G29G31
 -29064269.715 4  23664518.441 4 -22633117.37147  23664510.68047      -978.926
  -4265027.246 5  24247896.711 5  -3315518.46944  24247889.58544      3491.006
 -45244010.355 6  23409789.129 6 -35232323.43647  23409784.39247     -1265.625
 -25844238.012 4  24499836.620 4 -20076220.30246  24499833.21346     -1287.593
 -16168464.500 6  22669854.038 6 -12578336.77047  22669847.99047      4720.918
 -51835542.918 7  20512848.974 7 -40379842.71749  20512846.04549        39.111
 -46753318.605 8  19609833.932 8 -36412789.17149  19609828.81749      1054.946
 -34149393.652 8  20530168.415 8 -26124236.31149  20530162.07649      2177.510
 15  1  3  1 30 59.9980000  0  8G02G05G12G14G21G25G29G31
 -29034774.754 4  23670131.194 4 -22610134.28446  23670122.55746      -987.617
  -4369580.477 4  24228000.805 4  -3396988.45745  24227996.44345      3479.043
 -45205985.316 5  23417025.125 5 -35202693.57747  23417022.09247     -1269.614
 -25805629.230 4  24507183.626 4 -20046135.51346  24507179.76546     -1286.514
 -16309996.879 6  22642921.297 6 -12688621.73747  22642915.21847      4714.243
 -51836563.852 7  20512654.691 7 -40380638.25749  20512651.93549        28.745
 -46784784.289 8  19603846.208 8 -36437307.87949  19603840.67849      1042.480
 -34214447.156 8  20517789.161 8 -26174927.35349  20517783.00949      2159.160
 15  1  3  1 31 29.9980000  0  7G02G05G12G21G25G29G31
 -29005008.844 3  23675795.450 3 -22586940.06046  23675787.11546      -996.577
  -4473769.297 4  24208174.309 4  -3478174.47345  24208171.27945      3466.861
 -45167836.820 5  23424284.601 5 -35172967.48147  23424281.00547     -1273.677
 -16451323.168 6  22616027.751 6 -12798746.09547  22616021.61147      4707.368
 -51837264.699 7  20512521.318 7 -40381184.38449  20512519.08349        17.959
 -46815871.520 8  19597930.508 8 -36461531.69249  19597925.26549      1029.854
 -34278944.305 8  20505515.733 8 -26225184.87249  20505510.17049      2140.640
 15  1  3  1 31 59.9980000  0  7G02G05G12G21G25G29G31
 -28974972.406 3  23681511.150 3 -22563535.04746  23681502.25746     -1005.508
  -4577589.293 3  24188417.834 3  -3559073.16844  24188416.06044      3454.566
 -45129563.785 5  23431567.786 5 -35143144.38347  23431562.65947     -1277.607
 -16592438.973 6  22589174.271 6 -12908706.46947  22589168.47347      4700.478
 -51837643.914 7  20512449.157 7 -40381479.88749  20512446.34049         7.471
 -46846579.375 8  19592086.992 8 -36485459.88849  19592081.78049      1017.554
 -34342882.422 8  20493348.696 8 -26275006.78449  20493342.99449      2122.134
 15  1  3  1 32 29.9980000  0  7G02G05G12G21G25G29G31
 -28944662.289 3  23687278.895 3 -22539916.73446  23687271.22446     -1015.005
  -4681032.641 4  24168733.204 4  -3639678.34044  24168731.69744      3441.812
 -45091161.523 5  23438875.556 5 -35113220.55947  23438871.47347     -1282.358
 -16733337.109 6  22562362.197 6 -13018497.19347  22562356.42147      4692.768
 -51837696.539 7  20512439.163 7 -40381520.91249  20512436.15349        -3.828
 -46876904.281 8  19586316.340 8 -36509089.68949  19586311.59249      1004.336
 -34406255.539 8  20481289.201 8 -26324388.44149  20481283.13749      2102.886
 15  1  3  1 32 59.9980000  0  7G02G05G12G21G25G29G31
 -28914075.098 3  23693099.386 3 -22516082.57646  23693092.26146     -1023.911
  -4784090.883 2  24149121.887 2  -3719983.39145  24149116.23045      3429.082
 -45052624.758 5  23446208.895 5 -35083191.93047  23446203.75147     -1286.646
 -16874009.586 6  22535593.089 6 -13128112.10447  22535586.91347      4685.337
 -51837416.988 7  20512492.360 7 -40381303.09749  20512489.81349       -14.800
 -46906841.770 8  19580619.411 8 -36532417.59349  19580614.26649       991.460
 -34469057.223 8  20469338.452 8 -26373324.82749  20469332.50849      2083.931
 15  1  3  1 33 29.9980000  0  7G02G05G12G21G25G29G31
 -28883219.289 3  23698970.997 3 -22492039.14146  23698963.79346     -1033.276
  -4886767.918 4  24129583.361 4  -3799991.42244  24129576.20844      3415.859
 -45013960.633 5  23453566.474 5 -35053064.08247  23453561.30047     -1291.260
 -17014460.945 6  22508866.057 6 -13237554.71447  22508860.18447      4677.627
 -51836811.863 7  20512607.511 7 -40380831.58549  20512605.29149       -25.962
 -46936399.258 8  19574994.821 8 -36555449.40549  19574989.52049       978.623
 -34531292.992 8  20457495.391 8 -26421820.23149  20457489.37849      2064.683
 15  1  3  1 33 59.9980000  0  7G02G05G12G21G25G29G31
 -28852091.816 3  23704894.411 3 -22467783.96946  23704886.34346     -1042.207
  -4989056.055 2  24110118.551 2  -3879696.41843  24110112.98943      3403.115
 -44975164.379 5  23460949.200 5 -35022833.27547  23460944.08947     -1295.430
 -17154683.617 6  22482182.528 6 -13346819.11847  22482176.67547      4670.264
 -51835876.227 7  20512785.574 7 -40380102.53649  20512782.85649       -36.748
 -46965572.777 8  19569443.311 8 -36578182.01949  19569437.97949       966.074
 -34592956.977 7  20445761.125 7 -26469870.08549  20445754.76649      2045.903
 15  1  3  1 34 29.9980000  0  7G02G05G12G21G25G29G31
 -28820698.992 3  23710868.283 3 -22443322.06946  23710860.80546     -1051.035
  -5090956.707 3  24090727.059 3  -3959099.55543  24090720.41943      3390.176
 -44936240.797 4  23468356.114 4 -34992503.22447  23468351.67447     -1299.678
 -17294679.406 6  22455542.202 6 -13455906.75147  22455536.47347      4662.676
 -51834614.586 7  20513025.651 7 -40379119.45849  20513023.26849       -47.456
 -46994368.223 8  19563963.730 8 -36600620.01649  19563958.32449       953.496
 -34654052.957 7  20434134.927 7 -26517477.34749  20434129.12649      2027.022
 15  1  3  1 34 59.9980000  0  7G02G05G12G21G25G29G31
 -28789040.805 3  23716892.695 3 -22418653.32046  23716885.31846     -1059.605
  -5192465.582 3  24071410.571 3  -4038197.30145  24071403.63545      3377.075
 -44897188.566 4  23475787.479 4 -34962072.93547  23475783.42347     -1303.872
 -17434444.500 6  22428945.774 6 -13564814.60647  22428940.38847      4655.073
 -51833025.035 7  20513328.129 7 -40377880.85949  20513325.25249       -58.369
 -47022784.352 8  19558556.292 8 -36622762.45649  19558551.41049       940.894
 -34714578.016 7  20422617.372 7 -26564639.73749  20422611.21649      2008.032
 15  1  3  1 35 29.9980000  0  6G05G12G21G25G29G31
  -5293578.391 4  24052169.633 4  -4116986.46945  24052164.91345      3364.048
 -44858006.262 5  23483243.613 5 -34931541.31847  23483239.23947     -1308.027
 -17573975.164 6  22402393.982 6 -13673539.77947  22402388.30447      4647.412
 -51831106.191 7  20513693.285 7 -40376385.67649  20513691.21249       -69.058
 -47050820.406 8  19553221.183 8 -36644608.73549  19553215.97549       928.511
 -34774530.195 7  20411208.837 7 -26611355.72849  20411202.75549      1989.155
 15  1  3  1 35 59.9980000  0  7G02G05G12G21G25G29G31
 -28724923.695 2  23729093.810 2 -22368691.91746  23729085.81446     -1077.056
  -5394283.578 4  24033006.041 4  -4195458.00445  24033003.54645      3350.567
 -44818685.629 4  23490726.017 4 -34900901.89747  23490721.34547     -1312.217
 -17713260.418 6  22375888.913 6 -13782073.72647  22375883.58247      4639.346
 -51828849.289 7  20514122.780 7 -40374627.06249  20514120.09849       -80.254
 -47078468.789 7  19547959.862 7 -36666152.92749  19547955.50949       915.791
 -34833899.699 7  20399911.167 7 -26657617.68549  20399905.67149      1969.814
 15  1  3  1 36 29.9980000  0  7G02G05G12G21G25G29G31
 -28692463.477 2  23735270.778 2 -22343398.19946  23735262.52246     -1086.411
  -5494581.734 4  24013919.958 4  -4273612.33244  24013916.64444      3336.665
 -44779230.574 5  23498234.032 5 -34870157.72947  23498229.93747     -1317.251
 -17852300.879 6  22349430.377 6 -13890416.90647  22349424.89147      4630.605
 -51826257.852 7  20514615.945 7 -40372607.77549  20514613.44149       -91.880
 -47105734.172 7  19542771.434 7 -36687398.67749  19542765.98749       902.534
 -34892689.211 7  20388723.897 7 -26703427.69849  20388718.11849      1950.088
 15  1  3  1 36 59.9980000  0  7G02G05G12G21G25G29G31
 -28659743.246 2  23741497.263 2 -22317901.87346  23741489.69846     -1094.946
  -5594474.273 2  23994910.947 2  -4351450.66044  23994905.12444      3323.062
 -44739645.379 5  23505766.936 5 -34839312.15947  23505761.85247     -1321.563
 -17991098.957 6  22323017.924 6 -13998571.27847  22323011.72747      4622.593
 -51823336.160 7  20515171.953 7 -40370331.14949  20515169.30949      -102.837
 -47132621.746 7  19537654.906 7 -36708350.03849  19537649.22649       890.059
 -34950902.117 7  20377646.371 7 -26748788.40949  20377640.28049      1930.928
 15  1  3  1 37 29.9980000  0  7G02G05G12G21G25G29G31
 -28626772.324 2  23747771.535 2 -22292210.30446  23747762.44746     -1103.501
  -5693966.551 4  23975978.290 4  -4428977.04745  23975972.69945      3309.258
 -44699938.203 5  23513323.005 5 -34808371.49347  23513318.38647     -1326.045
 -18129660.059 6  22296650.574 6 -14106540.95947  22296644.82947      4614.360
 -51820091.914 7  20515789.330 7 -40367803.18349  20515786.80749      -113.867
 -47159140.180 7  19532608.631 7 -36729013.74349  19532603.51149       877.412
 -35008545.160 7  20366677.299 7 -26793705.08549  20366671.18549      1911.484
 15  1  3  1 37 59.9980000  0  7G02G05G12G21G25G29G31
 -28593544.125 2  23754094.791 2 -22266318.19145  23754084.99345     -1111.831
  -5793046.090 5  23957124.244 5  -4506181.78945  23957117.68745      3295.889
 -44660099.867 5  23520903.952 5 -34777328.68347  23520899.55747     -1330.034
 -18267971.305 6  22270330.766 6 -14214315.93347  22270324.60047      4606.304
 -51816515.508 7  20516469.921 7 -40365016.39449  20516467.14549      -124.575
 -47185280.727 7  19527634.261 7 -36749382.99649  19527628.99049       865.181
 -35065608.172 7  20355818.588 7 -26838169.76949  20355812.60149      1892.622
 15  1  3  1 38 29.9980000  0  7G02G05G12G21G25G29G31
 -28560070.539 1  23760464.753 1 -22240234.88345  23760455.57145     -1120.073
  -5891721.195 4  23938346.915 4  -4583071.31746  23938345.05846      3282.100
 -44620141.406 6  23528507.876 6 -34746192.25947  23528503.25847     -1334.229
 -18406041.730 6  22244056.786 6 -14321903.27947  22244050.58747      4598.057
 -51812617.824 7  20517211.661 7 -40361979.25949  20517209.20249      -135.591
 -47211055.680 8  19522729.454 8 -36769467.37849  19522724.22549       852.803
 -35122101.359 7  20345068.292 7 -26882190.43349  20345062.21949      1873.330
 15  1  3  1 38 59.9980000  0  6G05G12G21G25G29G31
  -5989979.141 4  23919648.924 4  -4659636.00045  23919645.67045      3268.203
 -44580053.281 5  23536136.546 5 -34714954.80047  23536130.92047     -1338.628
 -18543859.281 6  22217830.974 6 -14429293.54947  22217825.05347      4589.507
 -51808389.129 7  20518016.387 7 -40358684.19149  20518013.46849      -146.592
 -47236456.324 8  19517895.881 8 -36789260.08449  19517890.95649       840.293
 -35178014.125 7  20334428.439 7 -26925758.82949  20334422.41949      1853.906
 15  1  3  1 39 29.9980000  0  6G05G12G21G25G29G31
  -6087819.879 1  23901030.072 1  -4735875.44545  23901030.87445      3254.238
 -44539838.750 5  23543789.067 5 -34683618.82047  23543783.88547     -1342.451
 -18681424.715 6  22191653.116 6 -14536487.37547  22191647.27747      4581.460
 -51803831.984 7  20518883.595 7 -40355133.17649  20518881.58549      -157.241
 -47261485.762 7  19513132.941 7 -36808763.54249  19513127.13049       828.306
 -35233348.359 7  20323898.677 7 -26968876.42449  20323892.80149      1834.932
 15  1  3  1 39 59.9980000  0  7G02G05G12G21G25G29G31
 -28458151.398 1  23779858.773 1 -22160817.05945  23779852.79545     -1144.136
  -6185251.563 6  23882490.015 6  -4811796.27246  23882481.58246      3240.762
 -44499508.793 5  23551463.528 5 -34652192.87547  23551458.96347     -1346.411
 -18818746.207 6  22165521.664 6 -14643491.12447  22165515.57547      4573.149
 -51798957.473 7  20519811.188 7 -40351334.87449  20519808.74149      -167.886
 -47286155.699 8  19508438.402 8 -36827986.87149  19508432.85149       816.221
 -35288114.488 7  20313477.016 7 -27011551.32249  20313471.16749      1815.908
 15  1  3  1 40 29.9980000  0  7G02G05G12G21G25G29G31
 -28423696.801 1  23786415.098 1 -22133969.33244  23786407.88944     -1152.549
  -6282262.117 5  23864029.887 5  -4887388.69046  23864025.43546      3226.782
 -44459053.961 5  23559161.849 5 -34620669.65147  23559156.69847     -1350.435
 -18955811.754 6  22139438.948 6 -14750295.46347  22139432.27047      4564.629
 -51793755.789 6  20520801.019 6 -40347281.62749  20520798.10249      -178.740
 -47310457.742 7  19503813.880 7 -36846923.52349  19503808.46949       804.038
 -35342301.773 7  20303165.510 7 -27053775.19049  20303159.34449      1796.650
 15  1  3  1 40 59.9980000  0  6G05G12G21G25G29G31
  -6378843.305 5  23845650.977 5  -4962646.89146  23845645.65546      3212.441
 -44418469.699 5  23566884.754 5 -34589045.54947  23566879.90447     -1354.673
 -19092613.328 6  22113406.496 6 -14856894.06847  22113400.64147      4555.942
 -51788221.867 6  20521854.056 6 -40342969.48249  20521851.48849      -189.717
 -47334387.898 7  19499260.131 7 -36865570.39949  19499255.19449       791.768
 -35395904.820 7  20292965.206 7 -27095543.80449  20292959.07349      1777.339
 15  1  3  1 41 29.9980000  0  6G05G12G21G25G29G31
  -6475004.949 5  23827351.948 5  -5037577.83846  23827349.57746      3198.022
 -44377768.203 6  23574630.022 6 -34557330.10147  23574625.09447     -1358.960
 -19229160.887 6  22087422.404 6 -14963294.76447  22087416.50147      4546.958
 -51782367.801 6  20522968.041 6 -40338407.88849  20522965.07249      -200.771
 -47357958.668 7  19494774.772 7 -36883937.24849  19494769.46049       779.395
 -35448934.801 7  20282873.963 7 -27136865.86349  20282868.24749      1757.842
 15  1  3  1 41 59.9970000  0  6G05G12G21G25G29G31
  -6570724.105 5  23809137.254 5  -5112164.32346  23809130.85346      3183.618
 -44336934.754 6  23582400.480 6 -34525511.84347  23582395.04847     -1363.208
 -19365431.324 6  22061491.025 6 -15069479.50147  22061485.38147      4538.145
 -51776177.336 7  20524146.065 7 -40333584.16349  20524143.09349      -211.846
 -47381154.246 7  19490360.809 7 -36902011.71649  19490355.64049       767.246
 -35501372.855 7  20272895.337 7 -27177726.68649  20272889.19549      1738.301
 15  1  3  1 42 29.9970000  0  6G05G12G21G25G29G31
  -6666011.289 6  23791005.288 6  -5186413.82046  23790998.14746      3169.668
 -44295972.855 6  23590195.369 6 -34493593.54846  23590190.37046     -1366.802
 -19501437.297 6  22035609.977 6 -15175458.17147  22035604.00047      4529.683
 -51769656.137 6  20525387.024 6 -40328502.72849  20525384.66849      -222.178
 -47403983.785 7  19486016.495 7 -36919800.96649  19486010.99449       755.581
 -35553228.172 7  20263027.602 7 -27218133.42849  20263021.72849      1719.439
 15  1  3  1 42 59.9970000  0  6G05G12G21G25G29G31
  -6760871.125 3  23772953.609 3  -5260330.56346  23772949.28646      3154.673
 -44254895.055 6  23598012.372 6 -34461584.89446  23598006.97546     -1371.304
 -19637183.469 6  22009778.342 6 -15281234.38647  22009772.03947      4520.298
 -51762815.348 7  20526688.801 7 -40323172.26449  20526686.36549      -233.569
 -47426457.012 7  19481739.985 7 -36937312.56649  19481734.57849       743.013
 -35604508.926 7  20253269.189 7 -27258092.46349  20253262.71349      1699.595
 15  1  3  1 43 29.9970000  0  7G02G05G12G21G25G29G31
 -28211963.871 1  23826714.282 1                                     -1200.146
  -6855289.988 5  23754986.221 5  -5333903.68646  23754982.04546      3140.044
 -44213691.152 5  23605853.309 5 -34429477.94946  23605848.66946     -1375.293
 -19772655.445 6  21983998.880 6 -15386796.96747  21983992.41647      4511.226
 -51755643.898 7  20528053.484 7 -40317584.14249  20528050.35949      -244.443
 -47448564.477 8  19477533.097 8 -36954539.17649  19477527.92349       730.977
 -35655203.555 7  20243622.319 7 -27297594.79649  20243616.41949      1680.176
 15  1  3  1 43 59.9970000  0  7G02G05G12G21G25G29G31
 -28175852.926 1  23833585.811 1                                     -1206.992
  -6949272.293 2  23737101.595 2  -5407136.68546  23737095.73646      3125.918
 -44172367.164 4  23613716.886 4 -34397277.49346  23613713.16146     -1379.277
 -19907858.133 6  21958270.640 6 -15492149.70447  21958264.76147      4502.661
 -51748148.664 7  20529479.787 7 -40311743.73349  20529477.19849      -254.907
 -47470313.992 7  19473394.307 7 -36971486.85449  19473388.94549       719.385
 -35705318.426 7  20234085.767 7 -27336645.34649  20234079.81349      1661.162
 15  1  3  1 44 29.9970000  0  7G02G05G12G21G25G29G31
 -28139518.652 1  23840499.743 1                                     -1215.112
  -7042817.246 6  23719300.886 6  -5480028.79846  23719291.99446      3110.571
 -44130925.902 3  23621602.869 3 -34364985.54346  23621598.06446     -1383.774
 -20042791.250 6  21932593.701 6 -15597292.37847  21932587.12847      4492.900
 -51740331.594 7  20530967.320 7 -40305652.52749  20530964.32249      -266.250
 -47491708.730 7  19469323.018 7 -36988158.06749  19469317.57749       706.939
 -35754855.059 7  20224659.249 7 -27375245.30949  20224653.19249      1641.299
 15  1  3  1 44 59.9970000  0  6G05G12G21G25G29G31
  -7135914.297 6  23701585.438 6  -5552571.79846  23701577.42746      3095.532
 -44089359.621 5  23629512.631 5 -34332596.22747  23629507.99647     -1387.813
 -20177444.098 6  21906970.070 6 -15702216.66447  21906963.71047      4483.555
 -51732184.578 7  20532517.667 7 -40299304.22049  20532515.25849      -277.290
 -47512741.566 7  19465320.594 7 -37004547.29449  19465315.36749       694.858
 -35803804.672 7  20215344.458 7 -27413387.88349  20215338.51549      1621.719
 15  1  3  1 45 29.9970000  0  6G05G12G21G25G29G31
  -7228560.922 2  23683954.875 2  -5624763.98845  23683949.87945      3080.674
 -44047668.949 5  23637446.146 5 -34300110.01747  23637441.22947     -1391.685
 -20311815.129 6  21881400.089 6 -15806921.33447  21881393.32047      4474.419
 -51723708.176 7  20534130.709 7 -40292699.24649  20534128.70649      -287.979
 -47533413.078 7  19461386.908 7 -37020654.96449  19461381.68749       683.125
 -35852167.254 7  20206141.368 7 -27451073.02049  20206135.78049      1602.378
 15  1  3  1 45 59.9970000  0  6G05G12G21G25G29G31
  -7320762.980 5  23666409.369 5  -5696609.71446  23666402.73146      3065.991
 -44005862.395 6  23645401.687 6 -34267533.47947  23645396.16947     -1395.625
 -20445909.996 6  21855882.644 6 -15911410.84147  21855876.24347      4465.122
 -51714910.543 7  20535804.891 7 -40285843.98049  20535802.11149      -298.667
 -47553733.223 7  19457520.093 7 -37036488.85549  19457514.86249       671.377
 -35899950.535 7  20197048.500 7 -27488306.74949  20197042.59049      1583.071
 15  1  3  1 46 29.9970000  0  6G05G12G21G25G29G31
  -7412527.137 3  23648946.919 3  -5768114.26646  23648942.19646      3051.426
 -43963949.793 5  23653377.365 5 -34234874.34147  23653372.58347     -1398.984
 -20579735.473 6  21830416.489 6 -16015690.42348  21830410.58248      4456.279
 -51705800.777 7  20537538.448 7 -40278745.48049  20537536.07249      -308.945
 -47573711.355 7  19453718.390 7 -37052056.23449  19453712.97749       660.127
 -35947163.074 7  20188064.236 7 -27525095.75249  20188057.90849      1564.150
 15  1  3  1 46 59.9970000  0  6G05G12G21G25G29G31
  -7503838.672 6  23631571.117 6  -5839266.03646  23631562.80646      3035.928
 -43921918.855 5  23661375.640 5 -34202123.02246  23661369.74146     -1403.188
 -20713277.445 6  21805004.273 6 -16119749.10647  21804998.70247      4446.504
 -51696367.078 7  20539333.629 7 -40271394.55949  20539330.95649      -319.980
 -47593336.770 8  19449983.800 8 -37067348.75649  19449978.64849       648.198
 -35993792.637 7  20179190.922 7 -27561430.46949  20179185.05749      1544.453
 15  1  3  1 47 29.9970000  0  6G05G12G21G25G29G31
  -7594692.270 5  23614282.150 5  -5910060.85746  23614280.03146      3021.186
 -43879766.813 5  23669396.884 5 -34169277.26346  23669392.27746     -1406.690
 -20846530.262 6  21779647.099 6 -16223582.45148  21779641.48448      4437.309
 -51686606.398 7  20541191.035 7 -40263788.85749  20541188.74449      -330.391
 -47612607.645 7  19446316.691 7 -37082365.02549  19446311.22449       636.904
 -36039835.789 7  20170429.219 7 -27597308.25949  20170423.22349      1525.410
 15  1  3  1 47 59.9970000  0  6G05G12G21G25G29G31
  -7685095.504 5  23597078.828 5  -5980505.01845  23597073.59345      3005.601
 -43837504.797 4  23677439.040 4 -34136345.80446  23677435.28446     -1410.947
 -20979502.266 6  21754343.340 6 -16327196.98248  21754338.08848      4427.358
 -51676529.313 6  20543108.628 6 -40255936.60849  20543106.10649      -341.548
 -47631535.566 7  19442714.840 7 -37097114.05349  19442709.63849       624.878
 -36085302.516 7  20161777.216 7 -27632736.88549  20161771.86349      1505.625
 15  1  3  1 48 29.9970000  0  6G05G12G21G25G29G31
  -7775049.434 5  23579960.963 5  -6050598.86846  23579955.81846      2990.806
 -43795136.168 4  23685501.523 4 -34103331.29646  23685498.29346     -1414.116
 -21112194.543 6  21729092.824 6 -16430593.56748  21729087.22448      4418.276
 -51666138.941 6  20545085.826 6 -40247840.23249  20545083.22049      -351.655
 -47650124.164 7  19439177.554 7 -37111598.68749  19439172.07049       613.896
 -36130195.336 7  20153234.424 7 -27667718.30949  20153228.74249      1486.729
 15  1  3  1 48 59.9970000  0  6G05G12G21G25G29G31
  -7864539.621 5  23562931.179 5  -6120331.46846  23562927.34946      2975.630
 -43752649.527 4  23693586.379 4 -34070224.77746  23693582.94646     -1417.700
 -21244592.637 6  21703898.280 6 -16533760.89348  21703892.91148      4408.750
 -51655423.484 7  20547124.899 7 -40239490.54249  20547122.58249      -362.231
 -47668362.887 8  19435706.868 8 -37125810.67949  19435701.55949       602.568
 -36174502.141 7  20144803.131 7 -27702243.10449  20144796.92649      1467.510
 15  1  3  1 49 29.9970000  0  6G05G12G21G25G29G31
  -7953571.293 5  23545988.957 5  -6189706.67146  23545983.21846      2959.976
 -43710052.648 5  23701692.243 5 -34037032.46046  23701688.79046     -1421.802
 -21376702.012 6  21678758.690 6 -16636703.24848  21678753.42848      4398.750
 -51644390.887 6  20549224.341 6 -40230893.72349  20549222.37649      -373.081
 -47686260.242 7  19432301.121 7 -37139756.67249  19432295.69049       590.840
 -36218230.625 7  20136481.862 7 -27736317.25549  20136475.97649      1447.920
 15  1  3  1 49 59.9970000  0  6G05G12G21G25G29G31
  -8042135.820 3  23529135.634 3  -6258718.01246  23529128.23146      2944.438
 -43667339.711 5  23709820.372 5 -34003749.62446  23709816.83646     -1425.767
 -21508514.844 6  21653675.521 6 -16739414.53148  21653670.06548      4388.882
 -51633035.164 7  20551385.273 7 -40222045.11749  20551382.84049      -383.926
 -47703810.883 8  19428961.370 8 -37153432.49349  19428955.84349       579.331
 -36261374.391 7  20128271.861 7 -27769935.78149  20128265.89849      1428.447
 15  1  3  1 50 29.9970000  0  6G05G12G21G25G29G31
  -8130233.230 5  23512371.284 5  -6327365.32646  23512369.45446      2928.418
 -43624513.676 5  23717970.060 5 -33970378.72246  23717966.36946     -1429.932
 -21640030.934 6  21628648.861 6 -16841894.59648  21628642.46048      4378.511
 -51621358.758 6  20553607.271 6 -40212946.64049  20553605.08749      -395.000
 -47721018.371 7  19425686.927 7 -37166840.92049  19425681.44949       567.437
 -36303935.449 7  20120172.753 7 -27803100.25149  20120166.91849      1408.604
 15  1  3  1 50 59.9970000  0  6G05G12G21G25G29G31
  -8217861.805 5  23495695.909 5  -6395647.23446  23495692.08846      2913.179
 -43581575.277 4  23726141.001 4 -33936920.22546  23726137.19046     -1433.032
 -21771248.633 6  21603678.980 6 -16944142.13948  21603673.07348      4369.009
 -51609362.195 7  20555890.196 7 -40203598.67449  20555887.72849      -405.093
 -47737884.734 8  19422477.376 8 -37179983.54649  19422472.35949       556.680
 -36345913.992 7  20112184.508 7 -27835810.81449  20112178.61149      1389.692
 15  1  3  1 51 29.9970000  0  6G05G12G21G25G29G31
  -8305022.461 5  23479109.736 5  -6463564.57146  23479105.88946      2897.563
 -43538528.492 4  23734332.472 4 -33903377.32346  23734329.07246     -1436.641
 -21902169.277 6  21578765.582 6 -17046158.21248  21578759.24448      4358.999
 -51597049.191 7  20558233.322 7 -40194004.14849  20558230.95649      -415.737
 -47754413.578 7  19419332.034 7 -37192863.16249  19419327.07549       545.234
 -36387313.441 7  20104306.471 7 -27868070.13249  20104300.60049      1370.249
 15  1  3  1 51 59.9970000  0  6G05G12G21G25G29G31
  -8391711.664 4  23462613.256 4  -6531114.51246  23462607.88246      2881.645
 -43495372.125 4  23742544.828 4 -33869748.95446  23742540.58946     -1440.425
 -22032789.129 6  21553909.429 6 -17147939.90248  21553904.05648      4348.970
 -51584418.578 7  20560636.875 7 -40184162.12949  20560635.01849      -426.353
 -47770604.934 8  19416250.885 8 -37205479.80849  19416245.86949       534.009
 -36428132.281 7  20096538.945 7 -27899877.02649  20096532.99049      1350.854
 15  1  3  1 52 29.9970000  0  6G05G12G21G25G29G31
  -8477920.820 5  23446208.344 5  -6598290.47146  23446201.41046      2865.864
 -43452100.215 4  23750779.265 4 -33836030.60146  23750775.86046     -1444.053
 -22163098.840 6  21529112.281 6 -17249479.92148  21529106.38348      4338.765
 -51571464.000 7  20563102.069 7 -40174067.66949  20563099.58849      -436.919
 -47786453.309 8  19413235.007 8 -37217829.19549  19413230.28749       522.778
 -36468363.883 7  20088883.155 7 -27931226.33949  20088877.37749      1331.538
 15  1  3  1 52 59.9970000  0  6G05G12G21G25G29G31
  -8563658.691 6  23429893.075 6  -6665099.14547  23429889.01947      2850.366
 -43408724.625 4  23759033.386 4 -33802231.42846  23759029.71346     -1447.251
 -22293108.863 6  21504372.166 6 -17350786.44148  21504366.03248      4328.926
 -51558197.027 7  20565626.700 7 -40163729.78749  20565624.01249      -447.139
 -47801971.625 8  19410281.951 8 -37229921.38649  19410276.64149       512.080
 -36508019.586 7  20081336.932 7 -27962126.88249  20081331.14349      1312.578
 15  1  3  1 53 29.9970000  0  6G05G12G21G25G29G31
  -8648918.586 6  23413668.551 6  -6731535.39847  23413663.82947      2834.316
 -43365240.809 3  23767308.138 3 -33768348.00446  23767304.30746     -1451.030
 -22422812.074 6  21479690.462 6 -17451853.85848  21479684.48448      4318.526
 -51544613.121 7  20568211.642 7 -40153144.94949  20568209.01149      -457.783
 -47817155.449 8  19407392.556 8 -37241752.94249  19407387.54749       500.742
 -36547094.520 7  20073901.225 7 -27992574.88949  20073894.85449      1293.027
 15  1  3  1 53 59.9970000  0  6G05G12G21G25G29G31
  -8733695.223 6  23397536.053 6  -6797595.05647  23397533.43047      2817.700
 -43321646.082 3  23775603.943 3 -33734378.07846  23775599.00046     -1455.063
 -22552203.125 6  21455068.174 6 -17552678.04548  21455062.22448      4307.661
 -51530709.457 7  20570857.449 7 -40142310.93949  20570855.26949      -468.872
 -47832002.984 8  19404567.177 8 -37253322.45249  19404561.93849       489.189
 -36585585.559 7  20066576.631 7 -28022567.92349  20066571.16449      1273.164
 15  1  3  1 54 29.9970000  0  6G05G12G21G25G29G31
  -8817992.883 6  23381494.701 6  -6863281.55847  23381488.20747      2802.143
 -43277947.977 2  23783919.416 2 -33700327.55246  23783915.57946     -1458.174
 -22681286.559 6  21430504.476 6 -17653262.53148  21430498.12748      4297.774
 -51516492.996 7  20573562.780 7 -40131233.19549  20573560.07249      -478.892
 -47846522.727 8  19401804.163 8 -37264636.53849  19401799.13949       478.711
 -36623499.387 7  20059361.886 7 -28052111.17449  20059355.88049      1254.360
 15  1  3  1 54 59.9970000  0  6G05G12G21G25G29G31
  -8901811.418 6  23365544.724 6  -6928594.60547  23365540.58547      2785.918
 -43234148.754 2  23792254.130 2 -33666198.24746  23792250.20746     -1461.641
 -22810062.133 6  21405999.356 6 -17753607.12048  21405993.05748      4287.349
 -51501965.867 7  20576327.218 7 -40119913.38249  20576324.29049      -489.473
 -47860716.477 8  19399103.182 8 -37275696.60949  19399098.39549       467.710
 -36660838.086 7  20052256.587 7 -28081206.27449  20052250.79949      1235.015
 15  1  3  1 55 29.9970000  0  6G05G12G21G25G29G31
  -8985149.488 6  23349685.865 6  -6993533.37147  23349680.08447      2769.775
 -43190249.500 2  23800607.800 2 -33631991.03446  23800603.80646     -1465.244
 -22938528.848 6  21381553.002 6 -17853711.03648  21381546.46448      4276.831
 -51487129.129 7  20579150.568 7 -40108352.30049  20579148.20949      -499.893
 -47874586.598 8  19396463.774 8 -37286504.50449  19396458.71249       456.729
 -36697602.418 7  20045260.588 7 -28109853.81549  20045254.82549      1215.698
 15  1  3  1 55 59.9970000  0  6G05G12G21G25G29G31
  -9068008.102 6  23333918.340 6  -7058098.44247  23333913.74247      2753.965
 -43146253.543 2  23808979.767 2 -33597708.46945  23808975.26145     -1467.983
 -23066687.211 7  21357165.279 7 -17953574.68748  21357159.43448      4266.797
 -51471985.824 7  20582032.231 7 -40096552.33549  20582030.37449      -509.873
 -47888137.605 7  19393885.071 7 -37297063.73449  19393879.49849       446.484
 -36733795.344 7  20038373.307 7 -28138056.09949  20038367.38349      1196.997
 15  1  3  1 56 29.9970000  0  6G05G12G21G25G29G31
  -9150389.707 6  23318241.633 6  -7122291.92047  23318236.71347      2738.047
 -43102166.234 5  23817369.259 5 -33563354.73046  23817362.68346     -1471.157
 -23194540.402 6  21332835.629 6 -18053200.55248  21332829.10348      4256.577
 -51456541.160 7  20584971.246 7 -40084517.54849  20584968.61949      -519.893
 -47901374.645 8  19391366.138 8 -37307378.31049  19391361.27749       435.903
 -36769421.773 8  20031593.819 8 -28165816.96949  20031587.96349      1178.047
 15  1  3  1 56 59.9970000  0  6G05G12G21G25G29G31
  -9232290.973 6  23302656.477 6  -7186111.00347  23302651.91847      2721.572
 -43057986.676 5  23825776.689 5 -33528929.17646  23825769.67346     -1474.624
 -23322085.164 7  21308564.675 7 -18152586.07148  21308558.23348      4245.874
 -51440794.176 7  20587967.811 7 -40072247.19449  20587965.05749      -530.415
 -47914297.551 8  19388907.002 8 -37317448.10849  19388901.73149       425.073
 -36804480.707 8  20024922.341 8 -28193135.61249  20024915.77849      1158.696
 15  1  3  1 57 29.9960000  0  6G05G12G21G25G29G31
  -9313704.926 6  23287163.779 6  -7249550.43847  23287160.09347      2705.752
 -43013714.695 5  23834201.597 5 -33494431.50346  23834195.16946     -1477.363
 -23449312.734 7  21284354.073 7 -18251724.43348  21284347.42748      4235.757
 -51424743.473 7  20591022.161 7 -40059740.16748  20591020.28848      -540.112
 -47926905.141 8  19386507.903 8 -37327272.20849  19386502.54849       415.000
 -36838969.078 7  20018359.447 7 -28220009.68549  20018353.35849      1140.063
 15  1  3  1 57 59.9960000  0  6G05G12G21G25G29G31
  -9394636.117 6  23271763.033 6  -7312613.64547  23271757.05947      2689.526
 -42969348.848 5  23842644.698 5 -33459860.80246  23842636.95446     -1480.503
 -23576230.699 7  21260202.422 7 -18350621.51948  21260196.39348      4225.288
 -51408389.277 6  20594134.223 6 -40046996.64148  20594131.08948      -550.269
 -47939200.340 8  19384168.242 8 -37336852.88249  19384162.78849       404.575
 -36872890.180 7  20011904.486 7 -28246441.71949  20011898.30849      1121.172
 15  1  3  1 58 29.9960000  0  6G05G12G21G25G29G31
  -9475079.824 6  23256455.080 6  -7375297.08447  23256449.21647      2673.276
 -42924891.184 4  23851105.324 4 -33425218.48946  23851099.25546     -1483.457
 -23702832.852 7  21236110.833 7 -18449272.54248  21236104.86848      4214.707
 -51391732.480 7  20597303.862 7 -40034017.32348  20597301.58448      -560.244
 -47951183.656 8  19381887.913 8 -37346190.52549  19381882.75949       394.180
 -36906243.156 8  20005557.634 8 -28272431.05949  20005551.67149      1102.202
 15  1  3  1 58 59.9960000  0  6G05G12G21G25G29G31
  -9555033.129 6  23241240.520 6  -7437598.33347  23241234.16747      2656.694
 -42880341.188 4  23859583.379 4 -33390504.22946  23859574.77646     -1486.748
 -23829116.328 7  21212079.873 7 -18547675.23748  21212073.35848      4203.843
 -51374772.434 7  20600531.236 7 -40020801.72348  20600528.74648      -570.542
 -47962855.355 8  19379666.867 8 -37355285.35249  19379661.31649       383.652
 -36939027.074 8  19999319.074 8 -28297976.97749  19999313.66649      1083.042
 15  1  3  1 59 29.9960000  0  6G05G12G21G25G29G31
  -9634491.004 6  23226120.070 6  -7499513.50347  23226114.64647      2640.449
 -42835696.133 1  23868081.188 1 -33355715.87145  23868073.74545     -1489.712
 -23955075.930 7  21188110.535 7 -18645825.55848  21188103.84948      4193.437
 -51357506.449 7  20603816.869 7 -40007347.72448  20603814.66048      -580.391
 -47974213.508 8  19377505.453 8 -37364135.86549  19377499.75149       373.486
 -36971239.434 8  19993189.264 8 -28323077.51849  19993183.27749      1064.380
 15  1  3  2  0  0.0000000  0  6G05G12G21G25G29G31
  -9713456.703 6  24410263.156 6  -7561045.18847  24410259.84947      2623.643
 -42790962.375 1  25075763.392 1 -33320858.50845  25075750.10945     -1492.842
 -24080715.422 7  22363371.924 7 -18743726.45348  22363365.83748      4182.407
 -51339940.457 6  21806329.418 6 -39993659.95248  21806326.98948      -590.723
 -47985265.000 8  20574572.243 8 -37372747.42349  20574567.01149       362.974
 -37002886.063 8  21186336.947 8 -28347737.25149  21186331.41749      1045.220
 15  1  3  2  0 30.0000000  0  5G05G21G25G29G31
  -9791928.102 6  24395330.466 6  -7622191.76047  24395324.94147      2607.710
 -24206032.129 7  22339524.903 7 -18841375.83448  22339518.31048      4172.090
 -51322074.043 7  21809729.297 7 -39979738.07948  21809726.70148      -600.278
 -47996010.113 7  20572527.504 7 -37381120.24149  20572522.27049       353.315
 -37033966.719 7  21180422.493 7 -28371955.94049  21180416.89649      1026.841
 15  1  3  2  1  0.0000000  0  5G05G21G25G29G31
  -9869908.184 6  24380491.404 6  -7682955.41447  24380486.67147      2591.377
 -24331029.105 7  22315738.748 7 -18938776.04248  22315732.43548      4161.504
 -51303912.438 7  21813185.373 7 -39965586.18248  21813183.07548      -610.005
 -48006454.074 8  20570540.092 8 -37389258.39449  20570534.55449       343.286
 -37064486.156 8  21174614.836 8 -28395737.33049  21174609.20049      1008.154
 15  1  3  2  1 30.0000000  0  6G05G12G21G25G29G31
  -9947388.605 6  24365747.361 6  -7743329.70247  24365743.38547      2574.585
     24937.793 3  25101395.790 3 -33285416.40446  25101390.96646     -1501.167
 -24455698.000 7  22292015.033 7 -19035920.63848  22292008.96548      4150.332
 -51285449.598 7  21816698.771 7 -39951199.58148  21816696.32648      -620.269
 -48016592.188 8  20568610.869 8 -37397158.21749  20568605.61849       333.062
 -37094438.441 8  21168915.094 8 -28419076.78649  21168909.14749       989.238
 15  1  3  2  2  0.0000000  0  6G05G12G21G25G29G31
 -10024373.285 6  24351097.467 6  -7803317.75047  24351092.47747      2557.886
     70016.441 4  25109974.428 4 -33250290.21446  25109969.98246     -1503.975
 -24580042.770 7  22268353.003 7 -19132812.63548  22268347.21848      4139.463
 -51266692.035 6  21820268.233 6 -39936583.30748  21820266.52948      -630.093
 -48026431.840 7  20566738.453 7 -37404825.47149  20566733.19249       323.003
 -37123830.258 7  21163322.008 7 -28441979.50349  21163315.60549       970.483
 15  1  3  2  2 30.0000000  0  6G05G12G21G25G29G31
 -10100853.402 6  24336543.698 6  -7862912.60447  24336541.56847      2541.079
    115184.668 4  25118569.788 4 -33215094.15446  25118565.84246     -1506.968
 -24704054.508 7  22244754.339 7 -19229445.14548  22244748.48648      4128.315
 -51247632.883 6  21823895.070 6 -39921732.03948  21823892.58848      -640.103
 -48035966.836 8  20564924.009 8 -37412255.33549  20564918.64149       312.988
 -37152654.805 8  21157836.890 8 -28464440.21249  21157830.35049       951.567
 15  1  3  2  3  0.0000000  0  6G05G12G21G25G29G31
 -10176826.340 6  24322086.591 6  -7922112.36347  24322080.19947      2523.999
    160442.469 3  25127182.072 3 -33179828.38246  25127179.00246     -1510.093
 -24827730.629 7  22221219.500 7 -19325816.13948  22221214.05248      4117.012
 -51228271.828 7  21827579.354 7 -39906645.51948  21827577.21548      -650.273
 -48045197.633 8  20563167.443 8 -37419448.16949  20563162.77149       302.749
 -37180911.617 8  21152459.815 8 -28486458.52049  21152453.39449       932.529
 15  1  3  2  3 30.0000000  0  6G05G12G21G25G29G31
 -10252291.715 6  24307726.221 6  -7980916.42347  24307722.89547      2506.738
    205788.027 4  25135811.097 4 -33144494.13447  25135806.67347     -1513.374
 -24951070.695 7  22197748.599 7 -19421925.27248  22197742.33748      4105.361
 -51208610.660 7  21831320.758 7 -39891325.14948  21831318.45248      -660.693
 -48054126.219 7  20561468.385 7 -37426405.52049  20561463.16349       292.266
 -37208602.887 7  21147190.353 7 -28508036.15249  21147184.26249       913.325
 15  1  3  2  4  0.0000000  0  6G05G12G21G25G29G31
 -10327248.520 6  24293462.265 6  -8039324.35447  24293456.22847      2489.912
    251220.043 5  25144456.469 5 -33109092.57947  25144452.52547     -1515.938
 -25074073.430 7  22174341.889 7 -19517771.54248  22174336.28348      4094.351
 -51188650.473 7  21835119.088 7 -39875771.76848  21835116.64148      -670.474
 -48062754.676 7  20559826.434 7 -37433128.98849  20559821.46349       282.461
 -37235729.633 8  21142028.320 8 -28529173.87849  21142022.39649       894.722
 15  1  3  2  4 30.0000000  0  6G05G12G21G25G29G31
 -10401691.793 6  24279296.208 6  -8097331.95947  24279291.61147      2472.886
    296741.410 5  25153118.864 5 -33073621.34446  25153114.89746     -1518.979
 -25196733.820 7  22151000.348 7 -19613351.05148  22150993.70248      4082.944
 -51168388.285 6  21838974.890 6 -39859983.06648  21838971.80548      -680.469
 -48071080.957 7  20558241.999 7 -37439616.99849  20558236.43449       272.554
 -37262289.156 7  21136974.233 7 -28549869.61949  21136968.23249       875.894
 15  1  3  2  5  0.0000000  0  6G05G12G21G25G29G31
 -10475619.965 6  24265228.208 6  -8154938.41247  24265223.20247      2455.894
    342350.863 5  25161798.005 5 -33038081.52747  25161793.89347     -1521.558
 -25319050.336 7  22127724.245 7 -19708662.59948  22127718.89248      4071.641
 -51147825.320 6  21842887.916 6 -39843959.99648  21842885.60448      -690.303
 -48079106.480 7  20556714.787 7 -37445870.65449  20556709.45149       262.661
 -37288282.457 8  21132027.875 8 -28570124.14049  21132022.59349       857.119
 15  1  3  2  5 30.0000000  0  6G05G12G21G25G29G31
 -10549036.258 6  24251257.718 6  -8212145.73747  24251253.40547      2438.433
    388044.141 5  25170493.130 5 -33002476.29646  25170488.92346     -1524.722
 -25441025.660 7  22104513.077 7 -19803708.30948  22104507.18848      4059.922
 -51126965.734 6  21846857.379 6 -39827705.80448  21846855.18448      -700.459
 -48086836.484 7  20555243.815 7 -37451894.03049  20555238.67649       252.563
 -37313713.809 7  21127188.435 7 -28589940.79549  21127182.97449       838.140
 15  1  3  2  6  0.0000000  0  6G05G12G21G25G29G31
 -10621933.289 5  24237385.603 5  -8268948.68647  24237380.25747      2421.353
    433825.617 5  25179205.039 5 -32966802.43046  25179200.74946     -1527.427
 -25562652.699 7  22081368.220 7 -19898482.61348  22081362.82848      4048.472
 -51105805.160 7  21850884.108 7 -39811217.04348  21850881.43548      -710.308
 -48094266.879 7  20553829.852 7 -37457683.94249  20553823.88049       242.798
 -37338579.047 7  21122456.722 7 -28609316.31849  21122450.83749       819.429
 15  1  3  2  6 30.0000000  0  6G05G12G21G25G29G31
 -10694307.789 5  24223613.148 5  -8325344.30247  24223609.78047      2403.980
    479696.426 5  25187933.885 5 -32931058.95546  25187929.74346     -1530.357
 -25683927.391 7  22058290.429 7 -19992982.36448  22058284.80548      4036.777
 -51084341.926 6  21854968.446 6 -39794492.46748  21854965.68448      -720.400
 -48101396.977 7  20552473.038 7 -37463239.87049  20552467.37049       232.896
 -37362876.813 7  21117833.003 7 -28628249.64249  21117827.04749       800.674
 15  1  3  2  7  0.0000000  0  6G05G12G21G25G29G31
 -10766164.977 6  24209939.039 6  -8381336.97247  24209934.20647      2385.972
    525648.816 5  25196678.378 5 -32895251.93746  25196674.03446     -1533.657
 -25804855.531 7  22035278.634 7 -20087212.06748  22035272.62148      4024.541
 -51062584.070 7  21859108.853 7 -39777538.30848  21859106.32148      -730.791
 -48108235.988 7  20551171.614 7 -37468568.96449  20551166.14949       222.529
 -37386614.965 7  21113315.807 7 -28646746.91749  21113309.57449       781.416
 15  1  3  2  7 30.0000000  0  6G05G12G21G25G29G31
 -10837500.852 5  24196364.107 5  -8436923.25347  24196358.27947      2369.404
    571684.961 5  25205438.725 5 -32859379.56646  25205434.08146     -1535.742
 -25925432.238 7  22012333.695 7 -20181167.93048  22012327.81848      4013.623
 -51040528.941 6  21863305.800 6 -39760352.50748  21863303.74548      -739.873
 -48114781.172 8  20549926.122 8 -37473669.10749  20549920.92549       213.560
 -37409791.648 7  21108905.464 7 -28664806.67349  21108899.73249       763.491
 15  1  3  2  8  0.0000000  0  6G05G12G21G25G29G31
 -10908319.266 6  24182887.622 6  -8492106.39847  24182885.61847      2351.958
    617798.691 5  25214213.878 5 -32823446.80746  25214209.99446     -1538.394
 -26045662.117 7  21989454.760 7 -20274853.52648  21989448.53248      4001.768
 -51018182.801 7  21867558.122 7 -39742939.94648  21867555.83548      -749.727
 -48121039.188 8  20548735.270 8 -37478545.49049  20548729.74349       203.789
 -37432413.164 7  21104600.769 7 -28682433.83849  21104594.62449       744.790
 15  1  3  2  8 30.0000000  0  5G05G21G25G29G31
 -10978616.457 5  24169510.352 5  -8546883.40847  24169504.24147      2334.199
 -26165540.758 7  21966642.635 7 -20368265.43748  21966636.06248      3989.795
 -50995543.980 7  21871866.150 7 -39725299.33048  21871863.86248      -759.795
 -48127009.738 8  20547599.115 8 -37483197.85849  20547593.71649       193.857
 -37454477.898 7  21100401.998 7 -28699627.14949  21100396.14349       725.850
 15  1  3  2  9  0.0000000  0  5G05G21G25G29G31
 -11048380.688 6  24156234.731 6  -8601245.10247  24156230.16947      2316.338
 -26285055.941 7  21943899.637 7 -20461394.12448  21943893.62848      3977.568
 -50972602.309 7  21876231.831 7 -39707422.71748  21876229.44348      -769.932
 -48132682.898 7  20546519.542 7 -37487618.51549  20546514.10349       183.848
 -37475975.871 7  21096311.038 7 -28716378.81849  21096305.09849       706.880
 15  1  3  2  9 30.0000000  0  5G05G21G25G29G31
 -11117617.723 5  24143059.133 5  -8655196.01647  24143056.39247      2299.272
 -26404213.691 7  21921224.636 7 -20554244.29948  21921218.73948      3966.060
 -50949365.875 7  21880653.604 7 -39689316.43648  21880651.01648      -779.292
 -48138067.063 8  20545494.966 8 -37491813.96349  20545490.15949       174.785
 -37496915.402 7  21092326.351 7 -28732695.34849  21092320.32149       688.838
 15  1  3  2 10  0.0000000  0  5G05G21G25G29G31
 -11186325.492 6  24129984.477 6  -8708734.48047  24129978.64947      2281.201
 -26523011.605 7  21898618.110 7 -20646814.10748  21898611.59948      3953.677
 -50925834.621 6  21885131.453 6 -39670980.41848  21885128.99448      -789.517
 -48143163.109 7  20544525.223 7 -37495784.91749  20544519.58549       164.810
 -37517296.891 7  21088447.889 7 -28748577.03949  21088441.18649       669.829
 15  1  3  2 10 30.0000000  0  5G05G21G25G29G31
 -11254496.879 5  24117011.758 5  -8761855.02647  24117009.40547      2263.335
 -26641441.762 7  21876081.593 7 -20739097.32548  21876075.60348      3941.441
 -50902003.129 7  21889666.421 7 -39652410.43748  21889664.44248      -799.521
 -48147966.512 8  20543611.206 8 -37499527.82649  20543606.03749       155.073
 -37537115.340 7  21084676.571 7 -28764020.00749  21084670.35049       651.060
 15  1  3  2 11  0.0000000  0  5G05G21G25G29G31
 -11322132.719 6  24104141.220 6  -8814558.24847  24104135.74647      2245.493
 -26759505.453 7  21853614.789 7 -20831094.99448  21853608.92748      3929.253
 -50877874.758 6  21894257.912 6 -39633609.12848  21894255.79848      -809.321
 -48152480.531 8  20542752.234 8 -37503045.24149  20542746.61049       145.581
 -37556374.156 7  21081011.747 7 -28779026.87849  21081006.18749       632.534
 15  1  3  2 11 30.0000000  0  5G05G21G25G29G31
 -11389223.910 5  24091374.141 5  -8866837.01547  24091369.65947      2227.710
 -26877193.344 7  21831219.521 7 -20922799.82348  21831213.74848      3917.139
 -50853442.203 6  21898907.289 6 -39614570.78848  21898904.48048      -818.980
 -48156698.859 7  20541949.506 7 -37506332.25749  20541944.22049       136.201
 -37575066.316 7  21077454.746 7 -28793592.20449  21077449.28049       614.209
 15  1  3  2 12  0.0000000  0  5G05G21G25G29G31
 -11455785.211 6  24078707.998 6  -8918702.96247  24078702.57047      2209.414
 -26994519.441 7  21808893.078 7 -21014222.75848  21808886.81348      3904.409
 -50828721.844 7  21903611.447 7 -39595308.20548  21903608.79448      -829.311
 -48160638.828 8  20541199.742 8 -37509402.36949  20541194.49949       126.265
 -37593208.695 7  21074002.369 7 -28807729.12749  21073996.25249       595.215
 15  1  3  2 12 29.9990000  0  5G05G21G25G29G31
 -11521809.313 5  24066144.008 5  -8970150.25247  24066139.45947      2191.811
 -27111474.492 7  21786637.246 7 -21105356.55148  21786632.02148      3892.363
 -50803710.996 6  21908370.857 6 -39575819.25448  21908368.78448      -838.730
 -48164296.973 7  20540503.613 7 -37512252.87149  20540498.56049       117.090
 -37610797.598 7  21070655.338 7 -28821434.78149  21070649.14149       576.958
 15  1  3  2 12 59.9990000  0  5G05G21G25G29G31
 -11587286.207 6  24053684.226 6  -9021171.22347  24053678.93447      2173.394
 -27228052.289 7  21764453.212 7 -21196196.38248  21764446.97548      3879.687
 -50778396.324 6  21913188.081 6 -39556093.55848  21913185.55148      -848.828
 -48167661.855 7  20539863.291 7 -37514874.86249  20539857.51349       107.285
 -37627822.602 7  21067415.597 7 -28834701.02749  21067410.28649       558.213
 15  1  3  2 13 29.9990000  0  5G05G21G25G29G31
 -11652224.691 6  24041326.858 6  -9071772.55647  24041322.84947      2155.718
 -27344258.824 7  21742339.834 7 -21286746.92648  21742333.87948      3867.314
 -50752790.863 6  21918060.650 6 -39536141.26148  21918058.20948      -858.384
 -48170746.840 7  20539276.256 7 -37517278.75049  20539270.76549        98.149
 -37644295.711 7  21064280.869 7 -28847537.22449  21064275.04949       539.907
 15  1  3  2 13 59.9990000  0  6G05G16G21G25G29G31
 -11716616.414 6  24029073.528 6  -9121947.93247  24029068.77847      2137.080
   -148095.770 1  24157453.610 1                                      4968.657
 -27460085.867 7  21720298.686 7 -21377001.75148  21720293.02548      3854.409
 -50726888.602 6  21922989.713 6 -39515957.71848  21922987.55448      -868.408
 -48173546.098 7  20538743.578 7 -37519459.99849  20538738.38749        88.481
 -37660211.547 7  21061252.172 7 -28859939.18549  21061246.35149       521.152
 15  1  3  2 14 29.9990000  0  6G05G16G21G25G29G31
 -11780463.402 5  24016923.810 5  -9171698.76647  24016918.32347      2119.131
   -297137.414 1  24129091.661 1                                      4967.285
 -27575534.969 7  21698329.467 7 -21466962.06348  21698323.40348      3841.885
 -50700693.234 7  21927974.552 7 -39495545.74948  21927971.95348      -878.179
 -48176063.930 7  20538264.443 7 -37521421.95749  20538259.40949        79.087
 -37675574.148 7  21058328.758 7 -28871910.05449  21058322.92349       502.744
 15  1  3  2 14 59.9990000  0  6G05G16G21G25G29G31
 -11843758.570 6  24004879.172 6  -9221019.64647  24004874.11347      2100.767
   -446126.539 1  24100739.603 1                                      4965.352
 -27690598.898 7  21676433.511 7 -21556622.25848  21676427.47248      3829.160
 -50674199.520 6  21933016.174 6 -39474901.30748  21933013.64348      -888.042
 -48178295.766 7  20537839.743 7 -37523161.05049  20537834.37649        69.795
 -37690378.949 8  21055511.514 8 -28883446.27649  21055505.77649       484.341
 15  1  3  2 15 29.9990000  0  6G05G16G21G25G29G31
 -11906505.180 4  23992938.768 4  -9269913.06347  23992935.46547      2082.334
   -595065.902 1  24072397.164 1                                      4963.984
 -27805280.738 7  21654610.297 7 -21645984.71548  21654604.66348      3816.406
 -50647412.473 6  21938113.621 6 -39454028.28248  21938111.60048      -897.710
 -48180247.070 7  20537468.433 7 -37524681.54849  20537463.21449        60.391
 -37704630.969 7  21052799.458 7 -28894551.75649  21052793.02749       465.889
 15  1  3  2 15 59.9990000  0  6G05G16G21G25G29G31
 -11968708.832 5  23981101.810 5  -9318383.37247  23981095.02647      2064.463
   -743961.109 1  24044063.113 1                                      4962.647
 -27919585.523 7  21632858.782 7 -21735053.37348  21632853.08248      3804.004
 -50620339.605 6  21943265.441 6 -39432932.54548  21943262.57848      -907.036
 -48181925.641 7  20537149.035 7 -37525989.53049  20537144.08849        51.616
 -37718338.367 7  21050191.033 7 -28905232.86049  21050185.54349       447.964
 15  1  3  2 16 29.9990000  0  6G05G16G21G25G29G31
 -12030363.336 4  23969369.164 4  -9366425.85147  23969365.13247      2045.806
   -892805.363 1  24015738.894 1                                      4960.449
 -28033506.285 7  21611180.361 7 -21823822.78648  21611174.92348      3790.820
 -50592976.344 7  21948472.520 7 -39411610.53948  21948470.21648      -917.070
 -48183327.648 7  20536882.255 7 -37527082.00649  20536876.97249        42.070
 -37731496.879 7  21047687.058 7 -28915486.24849  21047681.24749       429.312
 15  1  3  2 16 59.9990000  0  6G05G16G21G25G29G31
 -12091456.832 5  23957743.686 5  -9414031.08547  23957737.36447      2027.144
  -1041586.512 2  23987426.617 2                                      4958.301
 -28147031.301 7  21589577.238 7 -21912283.82148  21589571.44148      3777.744
 -50565312.680 6  21953736.758 6 -39390054.45148  21953734.72248      -926.939
 -48184443.766 7  20536669.872 7 -37527951.71249  20536664.54849        32.651
 -37744097.156 7  21045289.319 7 -28925304.66849  21045283.58549       410.923
 15  1  3  2 17 29.9990000  0  6G05G16G21G25G29G31
 -12152000.957 3  23946222.307 3  -9461208.26147  23946218.60847      2008.672
  -1190315.949 2  23959124.273 2                                      4956.377
 -28260172.043 7  21568047.271 7 -22000445.42148  21568041.30648      3764.473
 -50537361.965 7  21959055.600 7 -39368274.69548  21959053.45648      -936.855
 -48185287.086 7  20536509.364 7 -37528608.84949  20536503.61549        23.130
 -37756152.969 7  21042995.188 7 -28934698.81549  21042989.80349       392.344
 15  1  3  2 17 59.9990000  0  6G05G16G21G25G29G31
 -12211988.758 5  23934807.273 5  -9507951.96947  23934801.28847      1989.751
  -1338985.898 2  23930833.345 2                                      4954.189
 -28372920.211 7  21546591.994 7 -22088301.14248  21546585.98148      3751.245
 -50509118.813 6  21964430.084 6 -39346267.06848  21964428.10748      -946.768
 -48185852.859 7  20536401.664 7 -37529049.71049  20536396.59249        13.750
 -37767659.512 7  21040805.580 7 -28943664.97249  21040799.95949       373.906
 15  1  3  2 18 29.9990000  0  6G05G16G21G25G29G31
 -12271418.953 4  23923497.949 4  -9554261.23847  23923492.21347      1971.743
  -1487595.105 2  23902554.039 2                                      4952.617
 -28485274.859 7  21525211.602 7 -22175850.19648  21525205.87948      3738.652
 -50480583.934 6  21969860.092 6 -39324032.10148  21969858.34548      -955.933
 -48186142.457 7  20536346.550 7 -37529275.37149  20536341.63349         5.210
 -37778617.660 7  21038720.320 7 -28952203.78349  21038714.56749       356.333
 15  1  3  2 18 59.9990000  0  6G05G16G21G25G29G31
 -12330303.277 6  23912292.955 6  -9600145.07147  23912287.76247      1953.784
  -1636154.625 2  23874284.164 2                                      4951.113
 -28597247.184 7  21503903.930 7 -22263101.33148  21503898.18248      3726.138
 -50451770.645 7  21975343.091 7 -39301580.19848  21975341.05548      -964.985
 -48186169.797 7  20536341.368 7 -37529296.66749  20536335.87249        -3.340
 -37789041.711 7  21036736.698 7 -28960326.43249  21036731.03649       338.701
 15  1  3  2 19 29.9990000  0  6G05G16G21G25G29G31
 -12388632.664 5  23901193.060 5  -9645596.53747  23901187.08147      1935.015
  -1784655.129 2  23846025.578 2                                      4949.058
 -28708827.898 7  21482670.808 7 -22350047.33348  21482664.82848      3712.705
 -50422671.781 7  21980880.455 7 -39278905.77248  21980877.79948      -974.761
 -48185927.941 7  20536387.371 7 -37529108.22549  20536382.05149       -12.671
 -37798925.117 7  21034855.977 7 -28968027.80549  21034850.26949       320.327
 15  1  3  2 19 59.9990000  0  6G05G16G21G25G29G31
 -12446404.012 6  23890199.668 6  -9690613.08547  23890195.20147      1916.680
  -1933092.328 1  23817778.904 1                                      4947.095
 -28820012.648 7  21461513.041 7 -22436684.77748  21461506.83548      3699.810
 -50393285.363 6  21986472.497 6 -39256007.26748  21986469.83948      -984.023
 -48185415.477 7  20536484.914 7 -37528708.89749  20536479.50549       -21.289
 -37808266.262 8  21033078.442 8 -28975306.63049  21033072.49449       302.725
 15  1  3  2 20 29.9990000  0  6G05G16G21G25G29G31
 -12503612.840 6  23879313.044 6  -9735191.44447  23879305.92947      1897.422
  -2081461.824 2  23789545.187 2                                      4944.136
 -28930797.547 7  21440431.376 7 -22523010.67048  21440425.20948      3685.986
 -50363609.063 6  21992119.684 6 -39232882.89148  21992117.53848      -994.297
 -48184630.293 7  20536634.330 7 -37528097.08449  20536629.13349       -30.986
 -37817063.414 7  21031404.408 7 -28982161.58049  21031398.79149       283.979
 15  1  3  2 20 59.9990000  0  6G05G16G21G25G29G31
 -12560264.012 6  23868532.864 6  -9779335.09847  23868529.73647      1879.297
  -2229767.520 1  23761323.552 1                                      4942.612
 -29041186.027 7  21419425.125 7 -22609027.65148  21419419.12248      3673.188
 -50333648.770 7  21997820.915 7 -39209537.23548  21997819.17648     -1003.071
 -48183578.598 7  20536834.471 7 -37527277.57949  20536829.16349       -39.248
 -37825322.859 7  21029832.691 7 -28988597.51849  21029826.97249       266.553
 15  1  3  2 21 29.9990000  0  6G05G16G21G25G29G31
 -12616362.578 6  23857857.449 6  -9823048.32447  23857851.59247      1860.337
  -2378014.289 1  23733113.137 1  -1767595.66044  23733101.21044      4940.122
 -29151183.402 7  21398493.312 7 -22694739.87448  21398487.25948      3659.599
 -50303412.094 6  22003574.755 6 -39185976.18248  22003572.62848     -1012.852
 -48182268.523 7  20537083.751 7 -37526256.75249  20537078.26849       -48.408
 -37833053.238 7  21028361.658 7 -28994621.19749  21028355.42349       248.433
 15  1  3  2 21 59.9990000  0  6G05G16G21G25G29G31
 -12671902.586 5  23847288.658 5  -9866326.11647  23847283.09647      1842.236
  -2526195.152 1  23704915.142 1  -1883061.28945  23704906.87545      4938.506
 -29260783.266 7  21377637.152 7 -22780142.36848  21377631.47848      3646.846
 -50272894.234 6  22009382.096 6 -39162196.04948  22009380.74148     -1021.685
 -48180695.758 7  20537383.051 7 -37525031.21049  20537377.54149       -56.543
 -37840249.895 7  21026992.201 7 -29000228.99149  21026986.67549       231.201
 15  1  3  2 22 29.9990000  0  6G05G16G21G25G29G31
 -12726880.660 6  23836826.622 6  -9909166.25847  23836820.39547      1823.091
  -2674306.262 2  23676730.247 2  -1998472.49645  23676721.26145      4935.493
 -29369981.918 7  21356857.348 7 -22865232.20848  21356851.38348      3633.057
 -50242093.332 6  22015243.314 6 -39138195.34848  22015241.42048     -1031.641
 -48178858.988 7  20537732.545 7 -37523599.97949  20537727.37749       -65.767
 -37846911.977 7  21025724.476 7 -29005420.23949  21025718.80249       213.008
 15  1  3  2 22 59.9990000  0  6G05G16G21G25G29G31
 -12781302.828 5  23826470.653 5  -9951573.00947  23826464.98447      1804.536
  -2822352.660 2  23648557.764 2  -2113833.30545  23648549.39845      4933.525
 -29478783.918 7  21336153.005 7 -22950012.98148  21336146.89948      3619.941
 -50211016.848 6  22021156.986 6 -39113979.92548  22021154.46848     -1040.742
 -48176765.410 7  20538130.944 7 -37521968.62049  20538125.17849       -74.268
 -37853047.090 7  21024557.043 7 -29010200.86549  21024551.24549       195.518
 15  1  3  2 23 29.9990000  0  6G05G16G21G25G29G31
 -12835164.750 6  23816220.905 6  -9993543.34547  23816214.67547      1786.533
  -2970329.367 2  23620398.493 2  -2229139.80945  23620389.98745      4931.611
 -29587185.578 7  21315524.844 7 -23034481.78748  21315518.75948      3607.105
 -50179662.121 6  22027123.604 6 -39089547.67348  22027120.85848     -1049.370
 -48174413.223 7  20538578.545 7 -37520135.75149  20538573.45749       -82.222
 -37858653.973 7  21023490.116 7 -29014569.87149  21023484.15449       178.599
 15  1  3  2 23 59.9990000  0  6G05G16G21G25G29G31
 -12888472.570 4  23806076.732 4 -10035081.84347  23806073.27047      1767.202
  -3118241.598 2  23592251.526 2  -2344396.05143  23592241.65043      4929.102
 -29695191.250 7  21294972.017 7 -23118642.04749  21294965.75249      3593.174
 -50148036.672 6  22033141.733 6 -39064904.48448  22033139.28948     -1059.033
 -48171810.277 8  20539073.884 8 -37518107.48049  20539067.81249       -91.313
 -37863740.309 7  21022522.241 7 -29018533.26049  21022516.62249       160.483
 15  1  3  2 24 29.9990000  0  6G05G16G21G25G29G31
 -12941213.211 6  23796040.564 6 -10076178.44447  23796033.65347      1748.594
  -3266075.418 2  23564119.509 2  -2459591.23045  23564110.10045      4926.528
 -29802788.004 7  21274497.011 7 -23202483.66148  21274490.80048      3579.824
 -50116129.148 6  22039213.513 6 -39040041.48348  22039211.44048     -1068.189
 -48168945.289 7  20539619.042 7 -37515875.02449  20539613.75549       -99.844
 -37868295.566 7  21021655.403 7 -29022082.81749  21021649.72149       143.110
 15  1  3  2 24 59.9990000  0  6G05G16G21G25G29G31
 -12993394.453 4  23786110.762 4 -10116839.12047  23786105.88547      1730.205
  -3413837.949 3  23536001.165 3  -2574730.82044  23535990.49444      4924.414
 -29909983.531 7  21254098.374 7 -23286012.63048  21254092.69948      3566.660
 -50083948.570 6  22045337.244 6 -39014965.72548  22045335.43948     -1077.085
 -48165827.727 7  20540212.348 7 -37513445.76549  20540207.03549      -107.939
 -37872329.332 7  21020887.797 7 -29025226.02149  21020882.28549       125.933
 15  1  3  2 25 29.9990000  0  6G05G16G21G25G29G31
 -13045007.035 6  23776289.211 6 -10157056.68447  23776281.37247      1710.596
  -3561519.199 2  23507898.237 2  -2689807.11745  23507887.26145      4921.079
 -30016767.402 7  21233778.114 7 -23369220.82948  21233772.18148      3552.285
 -50051487.500 6  22051514.374 6 -38989671.39848  22051512.01448     -1086.992
 -48162450.621 7  20540854.967 7 -37510814.26049  20540849.81149      -117.144
 -37875835.109 7  21020220.658 7 -29027957.81149  21020214.63549       107.793
 15  1  3  2 25 59.9990000  0  6G05G16G21G25G29G31
 -13096053.285 3  23766575.310 3 -10196832.96247  23766572.20847      1692.241
  -3709120.434 3  23479810.548 3  -2804821.03945  23479800.29245      4918.882
 -30123141.504 7  21213535.835 7 -23452109.72649  21213529.55949      3539.033
 -50018749.512 6  22057744.226 6 -38964161.29648  22057742.37148     -1095.737
 -48158817.406 7  20541546.412 7 -37507983.18249  20541540.70149      -125.225
 -37878817.188 7  21019653.153 7 -29030281.51249  21019647.08449        90.835
 15  1  3  2 26 29.9990000  0  6G05G16G21G25G29G31
 -13146545.484 5  23756967.026 5 -10236177.52847  23756959.30847      1673.818
  -3856652.809 4  23451735.960 4  -2919781.29045  23451726.44645      4916.523
 -30229117.238 7  21193369.332 7 -23534688.20449  21193362.70549      3525.811
 -49985748.313 6  22064024.182 6 -38938446.09548  22064021.62448     -1104.429
 -48154942.445 7  20542283.773 7 -37504963.73649  20542279.21449      -133.242
 -37881289.754 7  21019182.624 7 -29032208.19949  21019176.33149        73.936
 15  1  3  2 26 59.9990000  0  6G05G16G21G25G29G31
 -13196480.008 4  23747464.730 4 -10275087.48247  23747458.83347      1654.751
  -4004112.355 4  23423675.246 4  -3034684.86846  23423667.29946      4913.809
 -30334690.676 7  21173279.353 7 -23616953.20749  21173273.07749      3512.104
 -49952481.781 6  22070354.636 6 -38912524.12048  22070352.81648     -1113.613
 -48150823.852 7  20543067.534 7 -37501754.44849  20543061.36249      -141.738
 -37883251.738 7  21018809.284 7 -29033737.03249  21018803.70249        56.577
 15  1  3  2 27 29.9990000  0  6G05G16G21G25G29G31
 -13245845.668 5  23738070.708 5 -10313554.17647  23738065.41847      1636.133
  -4151485.824 4  23395630.942 4  -3149521.31846  23395623.03146      4911.001
 -30439850.109 7  21153268.154 7 -23698895.62949  21153262.35449      3498.379
 -49918939.938 6  22076737.493 6 -38886387.64248  22076735.72748     -1122.598
 -48146451.641 7  20543899.536 7 -37498347.53249  20543894.93749      -149.893
 -37884693.738 7  21018534.903 7 -29034860.68449  21018528.83749        39.443
 15  1  3  2 27 59.9980000  0  6G05G16G21G25G29G31
 -13294643.934 5  23728784.587 5 -10351578.81547  23728778.05447      1617.158
  -4298770.438 5  23367603.520 5  -3264288.53546  23367596.30546      4908.286
 -30544594.426 7  21133335.952 7 -23780514.55749  21133330.09449      3484.790
 -49885128.285 6  22083171.648 6 -38860040.90848  22083170.33448     -1131.538
 -48141830.816 7  20544778.852 7 -37494746.90349  20544773.29249      -158.130
 -37885620.969 7  21018358.491 7 -29035583.20949  21018352.87149        22.354
 15  1  3  2 28 29.9980000  0  6G05G16G21G25G29G31
 -13342877.379 5  23719606.121 5 -10389163.23647  23719600.75247      1598.379
  -4445975.313 5  23339591.191 5  -3378993.58946  23339584.76946      4905.469
 -30648929.824 7  21113481.587 7 -23861814.86649  21113475.33649      3470.967
 -49851045.973 6  22089657.274 6 -38833483.27348  22089655.24548     -1140.479
 -48136962.918 7  20545705.227 7 -37490953.72649  20545700.48149      -166.372
 -37886035.547 7  21018279.621 7 -29035906.26249  21018273.65149         5.288
 15  1  3  2 28 59.9980000  0  6G05G16G21G25G29G31
 -13390554.090 4  23710533.371 4 -10426313.92747  23710528.13947      1580.112
  -4593103.332 4  23311593.525 4  -3493638.80346  23311586.26646      4903.066
 -30752861.367 7  21093704.075 7 -23942800.46349  21093698.61849      3457.759
 -49816704.563 6  22096192.226 6 -38806723.73448  22096190.33748     -1148.877
 -48131858.672 7  20546676.494 7 -37486976.40749  20546671.95549      -173.931
 -37885948.898 7  21018296.101 7 -29035838.75049  21018290.62449       -11.064
 15  1  3  2 29 29.9980000  0  6G05G16G21G25G29G31
 -13437670.824 5  23701567.539 5 -10463028.20747  23701561.05747      1560.967
  -4740150.457 4  23283611.297 4  -3608220.95646  23283604.65246      4899.971
 -30856385.063 7  21074004.153 7 -24023468.27648  21073997.80848      3443.682
 -49782102.199 6  22102776.838 6 -38779760.87048  22102774.52648     -1158.096
 -48126516.523 7  20547693.115 7 -37482813.68449  20547688.15949      -182.271
 -37885359.707 7  21018408.236 7 -29035379.65449  21018402.74949       -28.291
 15  1  3  2 29 59.9980000  0  6G05G16G21G25G29G31
 -13484215.539 4  23692710.215 4 -10499296.83147  23692704.55847      1541.914
  -4887103.148 5  23255647.010 5  -3722729.55846  23255640.15746      4896.685
 -30959488.414 7  21054384.208 7 -24103808.53549  21054378.03349      3429.551
 -49747228.387 6  22109413.112 6 -38752586.47248  22109411.12848     -1167.100
 -48120925.703 7  20548756.953 7 -37478457.23349  20548751.52549      -190.723
 -37884258.293 7  21018617.845 7 -29034521.41249  21018611.88049       -45.420
 15  1  3  2 30 29.9980000  0  6G05G16G21G25G29G31
 -13530195.039 5  23683960.779 5 -10535124.94647  23683955.92547      1523.481
  -5033967.055 5  23227699.668 5  -3837168.93346  23227692.15546      4894.287
 -31062177.883 7  21034843.022 7 -24183826.30349  21034836.63049      3416.299
 -49712091.051 6  22116099.531 6 -38725206.73548  22116098.00848     -1175.312
 -48115094.578 7  20549866.677 7 -37473913.49849  20549861.27649      -198.042
 -37882653.363 7  21018923.277 7 -29033270.83649  21018917.15349       -61.572
 15  1  3  2 30 59.9980000  0  6G05G16G21G25G29G31
 -13575612.340 4  23675317.975 4 -10570515.09647  23675311.14347      1504.556
  -5180744.262 5  23199768.866 5  -3951540.76246  23199760.84446      4891.045
 -31164455.031 7  21015380.345 7 -24263522.77949  21015374.02949      3402.388
 -49676694.469 6  22122835.285 6 -38697624.98948  22122833.78248     -1184.165
 -48109027.785 7  20551021.102 7 -37469186.14149  20551015.88849      -206.069
 -37880550.457 7  21019323.468 7 -29031632.21849  21019317.11749       -78.398
 15  1  3  2 31 29.9980000  0  6G05G16G21G25G29G31
 -13620464.570 4  23666783.099 4 -10605464.78847  23666777.41047      1485.767
  -5327430.281 5  23171855.455 5  -4065841.54646  23171847.22946      4888.027
 -31266316.582 7  20995996.787 7 -24342895.40349  20995990.05949      3388.481
 -49641036.926 6  22129620.696 6 -38669839.89948  22129619.02048     -1192.910
 -48102723.980 7  20552220.714 7 -37464274.08549  20552215.18049      -214.033
 -37877948.434 7  21019818.629 7 -29029604.67949  21019812.32249       -95.005
 15  1  3  2 31 59.9980000  0  6G05G16G21G25G29G31
 -13664750.746 3  23658355.442 3 -10639973.56147  23658350.25947      1466.953
  -5474023.059 6  23143959.793 6  -4180069.65046  23143951.98446      4885.171
 -31367761.535 7  20976692.453 7 -24421943.38949  20976686.59649      3374.785
 -49605118.996 6  22136455.660 6 -38641851.93048  22136453.60348     -1201.333
 -48096183.609 7  20553465.270 7 -37459177.70549  20553460.80349      -221.685
 -37874848.656 7  21020408.517 7 -29027189.28049  21020402.32849      -111.299
 15  1  3  2 32 29.9980000  0  6G05G16G21G25G29G31
 -13708469.801 4  23650036.136 4 -10674040.24247  23650030.29247      1447.515
  -5620520.102 5  23116082.352 5  -4294223.17846  23116075.38546      4881.333
 -31468787.352 7  20957467.835 7 -24500664.79949  20957461.66949      3360.259
 -49568940.648 6  22143340.191 6 -38613661.04448  22143337.62948     -1210.562
 -48089406.789 7  20554754.848 7 -37453897.08549  20554749.40549      -230.049
 -37871252.289 7  21021092.892 7 -29024386.92349  21021086.87949      -128.452
 15  1  3  2 32 59.9980000  0  6G05G16G21G25G29G31
 -13751626.090 4  23641823.551 4 -10707668.54947  23641817.68247      1428.926
  -5766924.438 6  23088222.515 6  -4408304.50146  23088215.57346      4878.350
 -31569397.996 7  20938322.211 7 -24579062.68849  20938316.10249      3346.597
 -49532507.563 6  22150273.200 6 -38585271.63348  22150271.19148     -1218.887
 -48082399.168 7  20556088.389 7 -37448436.59149  20556083.66649      -237.651
 -37867165.754 7  21021870.554 7 -29021202.61549  21021864.48449      -144.590
 15  1  3  2 33 29.9980000  0  6G05G16G21G25G29G31
 -13794223.473 5  23633717.675 5 -10740861.24047  23633710.94347      1410.523
  -5913238.410 6  23060379.856 6  -4522315.37546  23060373.92246      4875.542
 -31669596.648 7  20919255.008 7 -24657139.54249  20919248.83849      3332.988
 -49495824.715 6  22157253.723 6 -38556687.59748  22157251.55748     -1226.929
 -48075166.457 7  20557464.715 7 -37442800.72849  20557459.34949      -244.917
 -37862594.734 7  21022740.392 7 -29017640.79549  21022734.90849      -160.542
 15  1  3  2 33 59.9980000  0  6G05G16G21G25G29G31
 -13836259.074 5  23625718.400 5 -10773616.25247  23625712.96147      1391.914
  -6059457.926 5  23032555.154 5  -4636252.62247  23032549.40447      4872.402
 -31769379.637 7  20900266.941 7 -24734892.52049  20900260.68049      3319.165
 -49458890.266 6  22164282.114 6 -38527907.53548  22164280.03948     -1235.322
 -48067706.402 7  20558884.374 7 -37436987.70249  20558879.01349      -252.383
 -37857538.410 7  21023702.581 7 -29013700.81749  21023696.96049      -176.611
 15  1  3  2 34 29.9980000  0  6G05G16G21G25G29G31
 -13877729.125 5  23617827.029 5 -10805930.53147  23617821.02347      1373.027
  -6205577.559 6  23004749.436 6  -4750112.08147  23004743.42547      4869.111
 -31868741.891 7  20881358.943 7 -24812317.63849  20881353.10149      3305.151
 -49421701.637 6  22171358.857 6 -38498929.38348  22171357.14248     -1243.765
 -48060016.672 7  20560347.663 7 -37430995.72349  20560342.31749      -260.054
 -37851995.238 7  21024757.410 7 -29009381.47649  21024751.54149      -192.812
 15  1  3  2 34 59.9980000  0  6G05G16G21G25G29G31
 -13918634.664 5  23610042.793 5 -10837804.94147  23610037.26447      1354.072
  -6351597.250 6  22976962.756 6  -4863893.66046  22976956.75546      4865.635
 -31967684.477 7  20862530.798 7 -24889415.74849  20862524.94249      3291.011
 -49384261.332 6  22178483.515 6 -38469755.14547  22178481.28647     -1252.202
 -48052100.328 7  20561854.136 7 -37424827.14849  20561849.07249      -267.651
 -37845968.301 7  21025904.304 7 -29004685.16449  21025898.09549      -208.965
 15  1  3  2 35 29.9980000  0  6G05G16G21G25G29G31
 -13958970.016 5  23602367.276 5 -10869235.04247  23602361.63247      1334.888
  -6497508.957 6  22949196.622 6  -4977591.07546  22949190.34946      4861.719
 -32066200.355 7  20843783.821 7 -24966181.35449  20843778.19149      3276.587
 -49346564.215 6  22185657.060 6 -38440380.78348  22185654.85848     -1261.030
 -48043951.840 7  20563404.728 7 -37418477.68249  20563399.59449      -275.664
 -37839453.559 7  21027144.024 7 -28999608.75849  21027138.46649      -225.430
 15  1  3  2 35 59.9980000  0  6G05G16G21G25G29G31
 -13998746.320 4  23594797.889 4 -10900229.53247  23594793.15247      1316.562
  -6643322.957 6  22921449.113 6  -5091212.35647  22921443.40447      4858.936
 -32164300.449 7  20825115.972 7 -25042622.98749  20825109.92949      3263.140
 -49308622.813 5  22192877.107 5 -38410816.06548  22192874.45248     -1268.755
 -48035583.957 7  20564997.065 7 -37411957.24649  20564992.24749      -282.451
 -37832464.738 7  21028473.951 7 -28994162.93449  21028468.92949      -240.767
 15  1  3  2 36 29.9980000  0  6G05G16G21G25G29G31
 -14037958.414 5  23587335.980 5 -10930784.40647  23587329.68847      1298.008
  -6789032.227 6  22893721.559 6  -5204752.01047  22893714.81647      4855.449
 -32261978.988 7  20806528.358 7 -25118736.11549  20806522.76049      3249.092
 -49270433.219 5  22200144.365 5 -38381057.94548  22200142.53448     -1276.807
 -48026992.801 7  20566631.951 7 -37405262.84049  20566626.67249      -289.775
 -37824998.648 7  21029894.698 7 -28988345.21249  21029888.63249      -256.519
 15  1  3  2 36 59.9980000  0  6G05G16G21G25G29G31
 -14076603.348 5  23579982.049 5 -10960897.28447  23579976.87147      1278.516
  -6934632.141 5  22866014.773 5  -5318206.46747  22866009.25847      4851.357
 -32359231.313 7  20788021.883 7 -25194517.13449  20788015.56349      3234.463
 -49231993.273 5  22207459.281 5 -38351104.74647  22207457.53547     -1285.635
 -48018176.629 7  20568309.603 7 -37398393.13549  20568304.38249      -297.827
 -37817054.230 7  21031406.474 7 -28982154.76449  21031400.26249      -272.969
 15  1  3  2 37 29.9980000  0  6G05G16G21G25G29G31
 -14114683.047 5  23572735.658 5 -10990569.79547  23572729.97947      1259.878
  -7080123.324 6  22838328.670 6  -5431576.18147  22838323.16947      4847.764
 -32456059.707 7  20769596.076 7 -25269967.81849  20769590.06549      3220.395
 -49193306.207 6  22214821.205 6 -38320959.00147  22214819.24847     -1293.843
 -48009138.434 7  20570029.562 7 -37391350.39049  20570023.57349      -305.078
 -37808635.867 7  21033008.435 7 -28975595.00149  21033002.85649      -288.574
 15  1  3  2 37 59.9980000  0  6G05G16G21G25G29G31
 -14152191.504 5  23565598.063 5 -11019797.12947  23565593.42547      1241.021
  -7225497.738 6  22810664.776 6  -5544854.93947  22810658.48247      4844.087
 -32552456.078 7  20751252.456 7 -25345081.86949  20751246.30449      3206.270
 -49154366.625 6  22222231.167 6 -38290616.48748  22222229.58848     -1301.963
 -47999872.703 7  20571792.744 7 -37384130.34449  20571787.47049      -312.393
 -37799739.039 7  21034701.442 7 -28968662.42949  21034695.49749      -304.336
 15  1  3  2 38 29.9980000  0  6G05G16G21G25G29G31
 -14189141.734 6  23558566.609 6 -11048589.51647  23558560.67247      1222.466
  -7370766.879 6  22783020.971 6  -5658051.66147  22783015.02047      4840.640
 -32648433.230 7  20732988.580 7 -25419869.23549  20732983.00649      3192.339
 -49115189.078 6  22229686.409 6 -38260088.55247  22229684.18447     -1309.854
 -47990394.180 7  20573596.442 7 -37376744.50049  20573591.15649      -319.419
 -37790378.777 7  21036482.637 7 -28961368.72249  21036477.07349      -319.624
 15  1  3  2 38 59.9980000  0  6G05G16G21G25G29G31
 -14225530.770 5  23551642.074 5 -11076944.57347  23551637.26347      1203.657
  -7515925.746 6  22755398.137 6  -5771162.44347  22755392.11647      4836.885
 -32743987.391 7  20714805.206 7 -25494327.01549  20714798.84249      3178.101
 -49075771.172 6  22237187.391 6 -38229373.28647  22237185.09247     -1317.915
 -47980700.594 7  20575441.133 7 -37369191.06949  20575435.93249      -326.689
 -37780554.168 7  21038352.195 7 -28953713.18149  21038345.97149      -335.220
 15  1  3  2 39 29.9980000  0  6G05G16G21G25G29G31
 -14261349.449 5  23544825.887 5 -11104855.24947  23544820.19947      1184.609
  -7660963.691 6  22727798.288 6  -5884178.99947  22727792.12047      4832.647
 -32839108.684 7  20696704.238 7 -25568447.50749  20696697.76949      3163.638
 -49036104.965 6  22244735.644 6 -38198464.56047  22244733.64447     -1326.226
 -47970783.902 7  20577328.224 7 -37361463.78849  20577323.24249      -334.102
 -37770258.242 7  21040311.463 7 -28945690.39549  21040305.44849      -350.796
 15  1  3  2 39 59.9980000  0  6G05G16G21G25G29G31
 -14296602.461 5  23538117.485 5 -11132325.05847  23538110.55347      1165.518
  -7805883.008 6  22700221.010 6  -5997103.12946  22700215.20246      4828.604
 -32933800.641 7  20678684.990 7 -25642233.42849  20678678.57949      3149.116
 -48996195.594 6  22252330.165 6 -38167366.36647  22252327.77747     -1334.487
 -47960649.508 7  20579256.740 7 -37353566.86049  20579252.33649      -341.572
 -37759497.328 7  21042359.210 7 -28937305.26948  21042353.47748      -366.533
 15  1  3  2 40 29.9980000  0  6G05G16G21G25G29G31
 -14331293.844 5  23531515.880 5 -11159357.28847  23531510.92947      1147.051
  -7950686.379 6  22672665.777 6  -6109936.91147  22672658.96647      4824.712
 -33028066.570 7  20660746.779 7 -25715687.38549  20660740.28749      3135.054
 -48956048.500 5  22259969.929 5 -38136082.93347  22259967.72247     -1342.261
 -47950302.602 7  20581225.685 7 -37345504.33249  20581220.43349      -348.462
 -37748277.574 7  21044494.277 7 -28928562.62049  21044488.37249      -381.665
 15  1  3  2 40 59.9980000  0  6G05G16G21G25G29G31
 -14365421.797 6  23525021.505 6 -11185950.48447  23525016.35547      1128.022
  -8095370.156 6  22645133.337 6  -6222677.50247  22645126.63447      4820.552
 -33121903.348 7  20642890.218 7 -25788806.93549  20642884.29449      3120.596
 -48915662.723 6  22267655.080 6 -38104613.51047  22267653.30147     -1350.356
 -47939742.371 7  20583235.222 7 -37337275.59149  20583229.74049      -355.757
 -37736599.270 7  21046716.587 7 -28919462.65149  21046711.11649      -397.163
 15  1  3  2 41 29.9980000  0  6G05G16G21G25G29G31
 -14398982.914 5  23518634.967 5 -11212101.97647  23518629.80947      1109.272
  -8239929.215 6  22617624.646 6  -6335320.93247  22617618.18347      4816.528
 -33215307.938 7  20625115.864 7 -25861589.73149  20625109.81749      3106.338
 -48875035.883 5  22275386.090 5 -38072956.23247  22275383.52147     -1358.350
 -47928966.406 7  20585285.810 7 -37328878.74849  20585281.20649      -362.778
 -37724461.008 7  21049026.434 7 -28910004.26949  21049020.99849      -412.212
 15  1  3  2 41 59.9980000  0  6G05G16G21G25G29G31
 -14431975.168 6  23512356.695 6 -11237810.21447  23512351.91747      1090.527
  -8384359.480 6  22590140.458 6  -6447863.96247  22590133.71347      4812.437
 -33308276.844 7  20607424.428 7 -25934033.01349  20607418.13549      3091.934
 -48834166.891 6  22283163.186 6 -38041110.26547  22283161.54547     -1366.143
 -47917973.164 7  20587377.698 7 -37320312.59849  20587372.13749      -369.800
 -37711862.922 7  21051423.786 7 -28900187.58549  21051417.88049      -427.310
 15  1  3  2 42 29.9980000  0  6G05G16G21G25G29G31
 -14464408.707 5  23506184.806 5 -11263083.06847  23506179.03247      1071.831
  -8528668.613 6  22562679.331 6  -6560312.65047  22562673.04747      4808.379
 -33400818.379 7  20589814.362 7 -26006143.29449  20589808.48249      3077.671
 -48793066.316 6  22290984.350 6 -38009083.86147  22290983.02947     -1373.779
 -47906773.465 7  20589508.977 7 -37311585.56549  20589504.27049      -376.792
 -37698816.535 7  21053906.466 7 -28890021.58149  21053900.55949      -442.300
 15  1  3  2 42 59.9970000  0  6G05G16G21G25G29G31
 -14496277.293 4  23500120.337 4 -11287915.71847  23500115.01847      1053.296
  -8672845.273 6  22535243.419 6  -6672658.09547  22535237.40947      4804.380
 -33492924.098 7  20572287.248 7 -26077913.97249  20572281.00649      3063.506
 -48751731.605 6  22298850.079 6 -37976875.00147  22298847.58047     -1381.318
 -47895363.953 7  20591680.091 7 -37302695.04849  20591675.32149      -383.364
 -37685319.414 7  21056474.932 7 -28879504.35749  21056468.82549      -456.953
 15  1  3  2 43 29.9970000  0  6G05G16G21G25G29G31
 -14527596.641 5  23494160.479 5 -11312320.34947  23494155.69947      1034.605
  -8816910.270 6  22507828.806 6  -6784916.51647  22507821.82147      4800.063
 -33584613.242 7  20554839.395 7 -26149360.03849  20554833.36249      3049.155
 -48710174.203 6  22306758.206 6 -37944492.60547  22306755.74147     -1389.077
 -47883757.734 7  20593888.668 7 -37293651.25049  20593883.66249      -390.269
 -37671385.832 7  21059126.423 7 -28868647.03449  21059120.81549      -471.841
 15  1  3  2 43 59.9970000  0  6G05G16G21G25G29G31
 -14558370.105 5  23488304.415 5 -11336299.66747  23488299.02047      1016.611
  -8960860.910 6  22480435.939 6  -6897085.83447  22480429.01147      4796.372
 -33675885.156 7  20537470.925 7 -26220481.00049  20537464.98249      3035.415
 -48668400.590 6  22314707.477 6 -37911941.75647  22314704.87647     -1396.025
 -47871960.117 7  20596133.744 7 -37284458.30449  20596127.99749      -396.470
 -37657022.625 7  21061859.636 7 -28857454.92749  21061854.32749      -485.938
 15  1  3  2 44 29.9970000  0  6G05G16G21G25G29G31
 -14588590.742 5  23482553.561 5 -11359848.21247  23482549.16447       998.374
  -9104688.430 6  22453066.505 6  -7009159.21347  22453059.62447      4792.290
 -33766732.805 7  20520183.193 7 -26291271.37149  20520176.48749      3021.348
 -48626404.934 6  22322698.996 6 -37879217.86747  22322696.87747     -1403.394
 -47859965.547 7  20598416.185 7 -37275111.89949  20598411.63749      -402.905
 -37642225.129 7  21064675.486 7 -28845924.41749  21064669.94349      -500.273
 15  1  3  2 44 59.9970000  0  7G05G16G18G21G25G29G31
 -14618260.137 5  23476907.814 5 -11382967.16847  23476903.15447       979.658
  -9248392.465 6  22425720.545 6  -7121136.37547  22425713.92147      4787.876
   -157545.746 2  24195180.667 2                                      4607.964
 -33857156.848 7  20502976.098 7 -26361731.65049  20502969.81149      3006.924
 -48584189.465 6  22330732.363 6 -37846322.72347  22330730.59747     -1410.903
 -47847775.844 7  20600735.799 7 -37265613.46149  20600730.80549      -409.727
 -37626996.445 7  21067573.398 7 -28834057.92849  21067567.91749      -514.961
 15  1  3  2 45 29.9970000  0  7G05G16G18G21G25G29G31
 -14647379.090 5  23471366.571 5 -11405657.23347  23471361.02547       961.475
  -9391971.387 6  22398398.413 6  -7233016.04047  22398391.53247      4783.779
   -295825.438 2  24168866.648 2                                      4610.591
 -33947157.180 7  20485849.615 7 -26431861.76149  20485843.30649      2992.930
 -48541755.621 6  22338807.274 6 -37813257.40247  22338806.21647     -1418.125
 -47835392.574 7  20603092.265 7 -37255964.15649  20603087.57949      -416.021
 -37611339.453 7  21070552.844 7 -28821857.67948  21070547.07748      -529.033
 15  1  3  2 45 59.9970000  0  7G05G16G18G21G25G29G31
 -14675951.496 5  23465929.371 5 -11427921.43647  23465922.95747       943.081
  -9535426.836 6  22371099.786 6  -7344799.49047  22371092.91747      4779.590
   -434180.859 1  24142538.421 1                                      4612.739
 -34036736.051 7  20468803.291 7 -26501663.47049  20468796.89349      2978.794
 -48499108.125 6  22346922.828 6 -37780025.57147  22346920.79047     -1425.332
 -47822819.895 7  20605484.738 7 -37246167.26749  20605479.59649      -422.432
 -37595259.617 7  21073612.765 7 -28809327.95448  21073607.20548      -543.115
 15  1  3  2 46 29.9970000  0  7G05G16G18G21G25G29G31
 -14703981.453 5  23460595.465 5 -11449762.95247  23460590.32347       925.234
  -9678760.945 6  22343824.222 6  -7456488.37747  22343818.31547      4775.532
   -572613.336 2  24116195.482 2                                      4615.430
 -34125896.785 7  20451836.519 7 -26571139.36149  20451830.02049      2964.937
 -48456251.766 6  22355078.172 6 -37746631.02047  22355075.85447     -1432.168
 -47810063.227 7  20607912.293 7 -37236227.00449  20607906.48149      -428.379
 -37578763.238 7  21076751.926 7 -28796473.63948  21076746.13148      -556.938
 15  1  3  2 46 59.9970000  0  7G05G16G18G21G25G29G31
 -14731463.848 5  23455365.688 5 -11471177.79947  23455359.93547       907.393
  -9821966.336 6  22316573.184 6  -7568076.96247  22316567.14847      4771.734
   -711114.930 1  24089839.189 1                                      4618.276
 -34214633.574 7  20434950.457 7 -26640284.89949  20434943.98049      2951.186
 -48413182.230 6  22363274.059 6 -37713070.33047  22363272.46347     -1438.853
 -47797117.234 7  20610375.828 7 -37226139.23049  20610371.15149      -434.277
 -37561846.875 7  21079970.980 7 -28783292.06548  21079965.05248      -570.478
 15  1  3  2 47 29.9970000  0  7G05G16G18G21G25G29G31
 -14758416.223 5  23450236.870 5 -11492179.57847  23450232.14747       889.561
  -9965058.168 6  22289343.710 6  -7679577.07947  22289337.12647      4767.729
   -849700.219 1  24063466.967 1                                      4620.869
 -34302962.773 7  20418141.983 7 -26709112.82949  20418135.63249      2937.417
 -48369917.648 6  22371507.085 6 -37679357.69047  22371504.54047     -1445.474
 -47784000.395 7  20612871.889 7 -37215918.31149  20612866.78249      -440.161
 -37544529.922 7  21083266.266 7 -28769798.34048  21083260.53348      -583.979
 15  1  3  2 47 59.9970000  0  7G05G16G18G21G25G29G31
 -14784819.785 5  23445212.338 5 -11512753.76847  23445208.50947       871.143
 -10108015.250 6  22262139.863 6  -7790972.19147  22262133.58047      4762.993
   -988347.449 1  24037083.020 1                                      4622.651
 -34390864.785 7  20401414.784 7 -26777607.88349  20401408.20749      2922.964
 -48326439.910 6  22379780.626 6 -37645478.94347  22379779.06947     -1452.803
 -47770694.297 7  20615403.950 7 -37205549.93249  20615398.89349      -446.699
 -37526795.328 7  21086641.046 7 -28755979.17948  21086635.28148      -598.076
 15  1  3  2 48 29.9970000  0  7G05G16G18G21G25G29G31
 -14810679.090 5  23440291.382 5 -11532903.90247  23440286.23347       853.149
 -10250839.688 6  22234961.271 6  -7902263.94247  22234955.06547      4758.789
  -1127057.824 1  24010687.217 1                                      4624.883
 -34478343.355 7  20384768.133 7 -26845772.98949  20384762.21649      2909.102
 -48282754.035 5  22388093.808 5 -37611438.00747  22388091.44747     -1459.536
 -47757204.141 7  20617971.010 7 -37195038.14049  20617966.39149      -452.588
 -37508649.563 7  21090094.067 7 -28741839.63848  21090088.55048      -611.489
 15  1  3  2 48 59.9970000  0  7G05G16G18G21G25G29G31
 -14836003.184 5  23435472.420 5 -11552636.90147  23435467.34247       835.142
 -10393538.301 6  22207806.632 6  -8013457.65947  22207799.92047      4754.541
  -1265837.770 1  23984277.702 1                                      4626.772
 -34565405.867 7  20368200.637 7 -26913613.90649  20368194.77149      2895.152
 -48238869.848 6  22396444.698 6 -37577242.52347  22396442.53747     -1466.060
 -47743538.938 7  20620571.470 7 -37184389.92949  20620566.77849      -458.437
 -37490103.340 7  21093623.306 7 -28727388.04748  21093618.09348      -624.839
 15  1  3  2 49 29.9970000  0  7G05G16G18G21G25G29G31
 -14860793.418 5  23430754.926 5 -11571953.94946  23430749.68446       817.109
 -10536110.250 6  22180676.105 6  -8124552.67447  22180669.23047      4750.039
  -1404685.949 1  23957855.024 1                                      4629.360
 -34652052.930 7  20351712.206 7 -26981131.08949  20351706.10049      2881.030
 -48194789.539 6  22404832.859 6 -37542894.23847  22404830.53847     -1472.964
 -47729701.098 7  20623204.702 7 -37173607.19949  20623200.10949      -464.414
 -37471159.980 7  21097228.110 7 -28712627.00548  21097222.70048      -638.267
 15  1  3  2 49 59.9970000  0  7G05G16G18G21G25G29G31
 -14885046.512 4  23426139.634 4 -11590852.48546  23426134.87346       799.697
 -10678549.691 6  22153570.757 6  -8235544.43747  22153564.40347      4745.879
  -1543595.234 1  23931421.793 1                                      4631.484
 -34738280.641 7  20335303.597 7 -27048321.49649  20335297.66649      2867.451
 -48150510.297 6  22413258.906 6 -37508390.95147  22413257.09647     -1479.170
 -47715687.805 7  20625871.295 7 -37162687.75749  20625866.50549      -469.849
 -37451818.102 7  21100908.736 7 -28697555.41648  21100903.33148      -651.226
 15  1  3  2 50 29.9970000  0  7G05G16G18G21G25G29G31
 -14908761.074 5  23421626.931 5 -11609331.34046  23421622.32246       781.665
 -10820852.691 6  22126491.370 6  -8346429.88947  22126484.99747      4741.304
  -1682561.238 1  23904977.524 1                                      4633.394
 -34824085.949 7  20318975.384 7 -27115182.75749  20318968.71949      2853.276
 -48106031.137 6  22421723.012 6 -37473731.86347  22421721.29147     -1485.767
 -47701497.625 7  20628571.644 7 -37151630.48649  20628566.52349      -475.811
 -37432077.848 7  21104665.173 7 -28682173.40548  21104659.36848      -664.458
 15  1  3  2 50 59.9970000  0  7G05G16G18G21G25G29G31
 -14931945.129 4  23417215.043 4 -11627396.81446  23417210.89646       763.931
 -10963024.539 6  22099436.930 6  -8457213.12847  22099430.64147      4736.875
  -1821588.809 2  23878521.307 2                                      4635.176
 -34909475.875 7  20302726.191 7 -27181720.34649  20302720.50749      2839.336
 -48061360.551 6  22430223.581 6 -37438923.63847  22430221.54647     -1492.324
 -47687138.645 7  20631304.023 7 -37140441.68049  20631298.80749      -481.445
 -37411948.789 7  21108495.613 7 -28666488.42648  21108489.29248      -677.456
 15  1  3  2 51 29.9970000  0  7G05G16G18G21G25G29G31
 -14954596.105 4  23412904.655 4 -11645046.94346  23412899.85746       746.021
 -11105060.418 6  22072408.376 6  -8567890.43247  22072401.16747      4732.270
  -1960672.512 3  23852054.758 3                                      4637.016
 -34994447.059 7  20286556.678 7 -27247931.64349  20286550.10749      2825.390
 -48016496.805 6  22438760.894 6 -37403964.88847  22438758.58947     -1498.701
 -47672609.211 7  20634068.852 7 -37129120.05349  20634064.41449      -487.163
 -37391430.492 7  21112400.147 7 -28650500.16048  21112393.68948      -690.430
 15  1  3  2 51 59.9970000  0  7G05G16G18G21G25G29G31
 -14976716.547 5  23408695.299 5 -11662283.61846  23408690.99146       728.330
 -11246960.508 6  22045405.676 6  -8678461.93047  22045398.66647      4727.612
  -2099811.586 2  23825577.520 2                                      4638.818
 -35079000.914 7  20270466.596 7 -27313817.74949  20270459.94949      2811.338
 -47971442.887 6  22447334.382 6 -37368857.95047  22447332.19147     -1505.137
 -47657911.531 7  20636865.780 7 -37117667.30649  20636860.95849      -492.939
 -37370527.148 7  21116377.951 7 -28634211.84348  21116371.64048      -703.315
 15  1  3  2 52 29.9970000  0  7G05G16G18G21G25G29G31
 -14998293.359 4  23404589.251 4 -11679096.73946  23404583.66746       710.200
 -11388709.328 6  22018431.732 6  -8788915.53847  22018424.78647      4722.471
  -2238989.664 3  23799093.112 3                                      4640.024
 -35163123.434 7  20254458.604 7 -27379367.74649  20254452.64149      2796.885
 -47926186.383 5  22455946.398 5 -37333593.15447  22455944.14247     -1511.846
 -47643033.477 7  20639696.954 7 -37106074.02548  20639691.69048      -498.911
 -37349227.684 7  21120431.145 7 -28617614.87748  21120424.50148      -716.548
 15  1  3  2 52 59.9970000  0  7G05G16G18G21G25G29G31
 -15019341.313 4  23400584.115 4 -11695497.72946  23400577.84246       692.568
 -11530318.227 6  21991484.436 6  -8899260.12947  21991478.13547      4717.739
  -2378218.648 2  23772598.839 2                                      4641.543
 -35246828.418 7  20238530.080 7 -27444592.39449  20238524.06949      2782.993
 -47880742.285 6  22464594.133 6 -37298182.17147  22464591.82347     -1518.076
 -47627989.836 7  20642559.679 7 -37094351.70649  20642553.93549      -504.365
 -37327548.043 7  21124556.643 7 -28600721.65848  21124550.83748      -729.106
 15  1  3  2 53 29.9970000  0  7G05G16G18G21G25G29G31
 -15039857.508 5  23396680.175 5 -11711484.34046  23396674.49646       674.844
 -11671781.648 6  21964564.816 6  -9009491.33247  21964558.78447      4712.793
  -2517491.762 2  23746096.033 2                                      4642.920
 -35330111.277 7  20222681.883 7 -27509488.11349  20222675.84249      2768.818
 -47835108.137 6  22473278.032 6 -37262623.10047  22473276.50947     -1524.419
 -47612777.910 7  20645454.474 7 -37082498.24349  20645449.60649      -510.098
 -37305486.945 7  21128754.718 7 -28583531.19748  21128749.04248      -741.948
 15  1  3  2 53 59.9970000  0  7G05G16G18G21G25G29G31
 -15059838.195 3  23392877.895 3 -11727053.70346  23392872.16046       657.251
 -11813093.559 6  21937674.019 6  -9119604.48947  21937667.94047      4708.022
  -2656802.156 2  23719586.171 2                                      4644.570
 -35412967.082 7  20206914.938 7 -27574051.06449  20206909.29349      2754.897
 -47789280.578 6  22481998.729 6 -37226913.31847  22481997.11147     -1530.649
 -47597393.418 7  20648381.995 7 -37070510.34249  20648377.25949      -515.483
 -37283042.660 7  21133025.711 7 -28566042.15148  21133020.23748      -754.321
 15  1  3  2 54 29.9970000  0  7G05G16G18G21G25G29G31
 -15079292.559 2  23389175.648 2 -11742212.88846  23389168.77546       639.546
 -11954260.902 6  21910810.739 6  -9229605.00047  21910805.08147      4703.037
  -2796156.035 3  23693068.155 3                                      4645.586
 -35495404.434 7  20191227.626 7 -27638287.94849  20191221.44949      2740.889
 -47743269.617 6  22490754.302 6 -37191060.63447  22490752.90347     -1536.807
 -47581846.465 7  20651340.461 7 -37058395.84649  20651335.71849      -521.006
 -37260226.141 7  21137367.545 7 -28548263.04248  21137361.98048      -766.841
 15  1  3  2 54 59.9970000  0  7G05G16G18G21G25G29G31
 -15098215.551 3  23385574.763 3 -11756958.07946  23385569.93446       621.694
 -12095275.387 6  21883976.560 6  -9339486.40347  21883970.26347      4697.720
  -2935545.039 3  23666543.535 3                                      4646.748
 -35577417.367 7  20175621.110 7 -27702194.12149  20175615.06549      2726.538
 -47697070.563 6  22499545.671 6 -37155061.37047  22499544.67247     -1543.149
 -47566132.258 7  20654330.825 7 -37046151.02449  20654325.75049      -526.758
 -37237034.051 7  21141780.864 7 -28530191.29648  21141775.58648      -779.414
 15  1  3  2 55 29.9970000  0  7G05G16G18G21G25G29G31
 -15116608.426 3  23382074.774 3 -11771290.21646  23382069.86046       604.033
 -12236135.070 6  21857171.881 6  -9449247.18347  21857165.84447      4692.666
  -3074966.211 1  23640012.499 1                                      4647.822
 -35659005.492 7  20160095.428 7 -27765769.26049  20160088.82649      2712.398
 -47650684.492 5  22508372.611 5 -37118916.39147  22508371.17247     -1549.443
 -47550251.289 7  20657352.853 7 -37033776.25849  20657348.26049      -532.354
 -37213468.953 7  21146265.163 7 -28511828.87648  21146259.76548      -791.870
 15  1  3  2 55 59.9970000  0  7G05G16G18G21G25G29G31
 -15134477.555 4  23378674.449 4 -11785214.18046  23378668.73546       586.870
 -12376843.945 6  21830395.901 6  -9558890.44147  21830389.48847      4687.671
  -3214422.793 1  23613474.180 1                                      4649.194
 -35740173.895 7  20144649.576 7 -27829017.34749  20144643.62849      2698.560
 -47604118.566 5  22517233.780 5 -37082631.23947  22517232.69647     -1555.259
 -47534210.500 7  20660405.303 7 -37021276.94049  20660400.54849      -537.314
 -37189538.879 7  21150818.899 7 -28493182.06748  21150813.84348      -803.735
 15  1  3  2 56 29.9970000  0  6G05G16G21G25G29G31
 -15151815.570 4  23375375.237 4 -11798724.25746  23375370.22946       569.019
 -12517392.445 6  21803650.434 6  -9668408.72547  21803644.25147      4682.261
 -35820914.750 7  20129285.080 7 -27891932.29149  20129279.29349      2684.321
 -47557366.031 6  22526130.502 6 -37046200.70347  22526127.90747     -1561.567
 -47518003.027 7  20663489.542 7 -37008647.74049  20663484.37749      -543.027
 -37165238.426 7  21155443.102 7 -28474246.65448  21155437.33348      -816.138
 15  1  3  2 56 59.9970000  0  6G05G16G21G25G29G31
 -15168627.199 3  23372175.988 3 -11811824.40346  23372171.84846       551.826
 -12657781.957 6  21776935.228 6  -9777803.14247  21776929.16547      4677.144
 -35901231.668 7  20114001.268 7 -27954516.88549  20113995.12749      2670.322
 -47510431.906 6  22535061.804 6 -37009628.66847  22535060.16447     -1567.310
 -47501632.742 7  20666604.691 7 -36995891.68648  20666599.93348      -548.252
 -37140573.895 7  21160136.578 7 -28455027.55148  21160131.40248      -828.057
 15  1  3  2 57 29.9970000  0  7G05G16G18G21G25G29G31
 -15184909.051 4  23369077.646 4 -11824511.44945  23369072.92045       533.608
 -12798006.008 6  21750251.517 6  -9887068.62747  21750244.90547      4670.923
   -118133.074 2  23533851.210 2                                      4650.801
 -35981119.457 7  20098799.122 7 -28016767.09649  20098793.53249      2655.308
 -47463312.820 6  22544028.278 6 -36972912.50147  22544026.15347     -1574.160
 -47485096.617 7  20669751.403 7 -36983006.39249  20669746.09349      -554.424
 -37115543.379 7  21164899.723 7 -28435523.26248  21164893.72848      -840.840
 15  1  3  2 57 59.9970000  0  7G05G16G18G21G25G29G31
 -15200657.941 3  23366080.783 3 -11836783.24245  23366076.49645       516.270
 -12938058.434 6  21723600.453 6  -9996200.37447  21723594.71147      4665.639
   -257672.734 1  23507289.198 1                                      4651.470
 -36060574.348 7  20083679.367 7 -28078679.97949  20083673.15349      2641.377
 -47416005.977 5  22553030.482 5 -36936050.03047  22553028.11747     -1579.873
 -47468391.805 7  20672930.293 7 -36969989.64749  20672925.47449      -559.536
 -37090145.199 7  21169732.842 7 -28415732.47848  21169727.06348      -852.607
 15  1  3  2 58 29.9960000  0  6G05G16G21G25G29G31
 -15215887.895 1  23363182.320 1 -11848650.71945  23363179.18545       499.048
 -13077946.555 6  21696980.651 6 -10105204.11447  21696974.55047      4660.420
 -36139606.824 7  20068639.976 7 -28140263.70949  20068633.56849      2627.471
 -47368527.922 5  22562065.231 5 -36899054.13747  22562063.28747     -1585.615
 -47451532.469 7  20676138.554 7 -36956852.51749  20676133.01949      -564.624
 -37064396.324 7  21174632.727 7 -28395668.42148  21174626.86548      -864.185
 15  1  3  2 58 59.9960000  0  7G05G16G18G21G25G29G31
 -15230597.246 3  23360383.126 3 -11860112.60545  23360378.92645       481.738
 -13217673.777 6  21670391.464 6 -10214082.47047  21670385.65647      4654.941
   -536811.129 1  23454165.131 1                                      4652.988
 -36218217.727 7  20053680.787 7 -28201518.94749  20053674.21349      2613.374
 -47320873.059 6  22571133.641 6 -36861920.48547  22571131.97247     -1591.289
 -47434515.070 7  20679376.858 7 -36943592.21149  20679371.61549      -569.761
 -37038294.000 7  21179599.845 7 -28375328.96048  21179593.92248      -875.835
 15  1  3  2 59 29.9960000  0  6G05G16G21G25G29G31
 -15244788.230 2  23357682.774 2 -11871170.48445  23357678.43645       464.429
 -13357234.875 6  21643833.863 6 -10322831.36847  21643827.19047      4649.336
 -36296406.137 7  20038801.989 7 -28262444.97049  20038795.49049      2599.326
 -47273045.793 5  22580234.854 5 -36824652.49847  22580232.89947     -1596.924
 -47417342.500 7  20682644.711 7 -36930210.99049  20682639.50249      -574.971
 -37011843.047 7  21184633.317 7 -28354717.83948  21184627.25748      -887.432
 15  1  3  3  0  0.0000000  0  6G05G16G21G25G29G31
 -15258458.707 1  24554250.945 1 -11881822.82443  24554248.31043       446.821
 -13496625.496 6  22816478.538 6 -10431447.43147  22816472.65447      4643.437
 -36374169.395 7  21223173.938 7 -28323039.69649  21223167.84549      2584.985
 -47225044.605 5  23788539.020 5 -36787248.98647  23788537.27647     -1602.974
 -47400013.137 7  21885112.242 7 -36916707.59848  21885106.99148      -580.273
 -36985043.285 7  22388902.973 7 -28333834.90948  22388897.28648      -899.209
 15  1  3  3  0 30.0000000  0  6G05G16G21G25G29G31
 -15271606.012 2  24551749.114 2 -11892067.46545  24551742.78145       429.683
 -13635839.605 6  22789986.937 6 -10539925.93147  22789980.23347      4637.515
 -36451503.453 7  21208457.766 7 -28383300.00149  21208450.78349      2570.762
 -47176867.016 5  23797706.924 5 -36749708.01747  23797704.65047     -1608.799
 -47382524.051 7  21888440.303 7 -36903079.75348  21888435.05948      -585.503
 -36957894.035 7  22394069.314 7 -28312679.67048  22394063.34248      -910.610
 15  1  3  3  1  0.0000000  0  6G05G16G21G25G29G31
 -15284231.273 2  24549346.704 2 -11901905.35245  24549343.05345       411.875
 -13774875.465 6  22763529.226 6 -10648265.57847  22763523.05247      4631.372
 -36528408.090 7  21193823.319 7 -28443225.66949  21193817.08549      2556.206
 -47128514.234 5  23806908.187 5 -36712030.55547  23806906.11847     -1614.829
 -47364876.363 7  21891798.590 7 -36889328.30748  21891793.66548      -591.016
 -36930397.270 7  22399301.777 7 -28291253.61148  22399296.48248      -922.417
 15  1  3  3  1 30.0000000  0  6G05G16G21G25G29G31
 -15296338.598 1  24547042.776 1 -11911339.65643  24547039.11443       395.117
 -13913733.633 5  22737105.328 5 -10756466.73747  22737099.17647      4625.684
 -36604886.168 7  21179270.018 7 -28502818.96349  21179263.81849      2542.178
 -47079990.477 5  23816141.936 5 -36674219.84247  23816140.55647     -1620.220
 -47347073.281 7  21895186.426 7 -36875455.79748  21895181.83048      -595.854
 -36902558.629 7  22404599.307 7 -28269561.18348  22404593.60448      -933.481
 15  1  3  3  2  0.0000000  0  6G05G16G21G25G29G31
 -15307923.684 2  24544838.290 2 -11920366.91045  24544833.94645       377.427
 -14052406.914 6  22710716.614 6 -10864523.81647  22710710.21947      4619.145
 -36680932.660 7  21164798.824 7 -28562075.95649  21164792.47549      2527.637
 -47031291.707 5  23825408.987 5 -36636272.75947  23825408.14347     -1626.182
 -47329110.426 7  21898604.583 7 -36861458.78748  21898599.39048      -601.519
 -36874375.539 7  22409962.388 7 -28247600.32948  22409957.03548      -945.176
 15  1  3  3  2 30.0000000  0  6G16G18G21G25G29G31
 -14190896.633 6  22684362.879 6 -10972437.87447  22684356.71747      4613.667
   -619881.559 1  24467365.310 1                                      4653.657
 -36756550.199 7  21150409.265 7 -28620998.70549  21150403.13149      2513.838
 -46982422.660 5  23834708.481 5 -36598192.98147  23834706.78447     -1631.480
 -47310992.176 7  21902052.356 7 -36847340.66448  21902047.18348      -606.211
 -36845854.063 7  22415389.866 7 -28225375.80248  22415384.23448      -956.011
 15  1  3  3  3  0.0000000  0  6G16G18G21G25G29G31
 -14329202.164 6  22658044.218 6 -11080208.40647  22658037.96547      4606.729
   -759480.156 1  24440800.542 1                                      4653.018
 -36831740.527 7  21136100.985 7 -28679588.55849  21136094.45549      2498.794
 -46933386.398 5  23844039.757 5 -36559982.91347  23844037.86347     -1637.598
 -47292720.984 7  21905529.236 7 -36833103.37948  21905524.13848      -611.929
 -36816998.316 7  22420880.960 7 -28202890.82648  22420875.82648      -967.788
 15  1  3  3  3 30.0000000  0  7G05G16G18G21G25G29G31
 -15339576.285 1  24538814.593 1 -11945031.34444  24538809.91744       325.879
 -14467316.328 6  22631761.990 6 -11187829.83247  22631755.08947      4600.518
   -899064.105 1  24414238.459 1                                      4652.607
 -36906497.836 7  21121875.129 7 -28737840.99249  21121868.96849      2484.741
 -46884178.453 6  23853403.700 6 -36521639.07447  23853401.58547     -1643.120
 -47274292.441 7  21909036.024 7 -36818743.48548  21909030.75748      -616.909
 -36787805.254 7  22426436.220 7 -28180142.98548  22426430.94248      -978.667
 15  1  3  3  4  0.0000000  0  7G05G16G18G21G25G29G31
 -15349092.418 1  24537003.777 1                                       309.185
 -14605237.992 6  22605516.397 6 -11295301.25148  22605509.72748      4594.629
  -1038632.754 2  24387679.427 2                                      4652.271
 -36980823.664 7  21107731.389 7 -28795757.21249  21107724.74149      2470.786
 -46834801.504 6  23862799.840 6 -36483163.55547  23862796.82147     -1648.140
 -47255707.973 7  21912572.564 7 -36804262.09348  21912566.74348      -621.519
 -36758278.977 7  22432054.895 7 -28157135.51448  22432049.02248      -989.194
 15  1  3  3  4 30.0000000  0  7G05G16G18G21G25G29G31
 -15358100.496 1  24535289.710 1                                       291.416
 -14742972.859 6  22579306.353 6 -11402627.12148  22579300.21348      4587.739
  -1178191.102 3  24361122.367 3  -3685722.30545  24361116.90845      4651.435
 -37054725.340 7  21093668.359 7 -28853342.92649  21093662.14749      2456.021
 -46785264.297 6  23872226.514 6 -36444563.14147  23872223.61647     -1654.224
 -47236976.297 7  21916137.145 7 -36789665.99748  21916132.24648      -627.134
 -36728429.563 7  22437735.039 7 -28133876.23148  22437729.18048     -1000.645
 15  1  3  3  5  0.0000000  0  7G05G16G18G21G25G29G31
 -15366593.344 2  24533673.697 2                                       274.897
 -14880510.813 6  22553133.781 6 -11509799.54648  22553127.78148      4581.865
  -1317727.730 2  24334569.231 2  -3794452.17245  24334563.04345      4651.548
 -37128194.836 7  21079687.559 7 -28910591.87449  21079681.25849      2442.266
 -46735560.145 6  23881684.963 6 -36405832.63247  23881682.66247     -1659.038
 -47218090.035 7  21919731.044 7 -36774949.43148  21919726.70048      -631.548
 -36698251.422 7  22443477.758 7 -28110360.79748  22443472.08048     -1010.825
 15  1  3  3  5 30.0000000  0  7G05G16G18G21G25G29G31
 -15374582.289 1  24532153.421 1                                       257.690
 -15017859.645 6  22526997.212 6 -11616824.61148  22526991.25648      4574.922
  -1457250.168 2  24308018.865 2  -3903170.96944  24308012.49644      4650.142
 -37201242.254 7  21065787.089 7 -28967511.92849  21065781.18149      2427.676
 -46685700.285 5  23891172.987 5 -36366980.80947  23891171.55847     -1664.770
 -47199059.863 7  21923352.390 7 -36760120.74548  21923346.81048      -636.929
 -36667757.176 7  22449280.630 7 -28086599.06248  22449274.72348     -1021.929
 15  1  3  3  6  0.0000000  0  7G05G16G18G21G25G29G31
 -15382052.863 2  24530731.767 2                                       240.234
 -15155001.648 6  22500899.981 6 -11723688.50748  22500893.48548      4567.969
  -1596740.074 3  24281474.812 3  -4011864.41045  24281468.46345      4649.155
 -37273851.762 7  21051969.948 7 -29024090.75649  21051963.52149      2413.071
 -46635670.332 5  23900693.393 5 -36327996.40947  23900692.12247     -1670.498
 -47179870.867 7  21927004.024 7 -36745168.28848  21926998.42148      -642.231
 -36636934.039 7  22455146.064 7 -28062581.03748  22455140.55948     -1032.759
 15  1  3  3  6 30.0000000  0  7G05G16G18G21G25G29G31
 -15389017.734 2  24529406.592 2                                       223.862
 -15291945.832 6  22474840.349 6 -11830398.24548  22474834.25548      4561.728
  -1736206.445 4  24254935.334 4  -4120539.45946  24254929.61046      4648.643
 -37346034.426 7  21038234.035 7 -29080336.96949  21038227.64549      2399.229
 -46585483.152 5  23910243.692 5 -36288889.52647  23910242.45847     -1675.254
 -47160535.848 7  21930683.342 7 -36730102.06148  21930678.52248      -646.782
 -36605796.148 7  22461071.395 7 -28038317.74248  22461065.41948     -1042.910
 15  1  3  3  7  0.0000000  0  7G05G16G18G21G25G29G31
 -15395474.773 1  24528177.926 1                                       206.895
 -15428686.605 6  22448819.395 6 -11936949.49448  22448813.18048      4554.766
  -1875642.910 5  24228401.598 5  -4229191.24045  24228395.45245      4647.363
 -37417786.867 7  21024580.004 7 -29136247.95449  21024574.11649      2384.678
 -46535136.230 6  23919824.422 6 -36249658.18447  23919822.96447     -1680.806
 -47141051.313 7  21934391.143 7 -36714919.32248  21934386.55948      -651.831
 -36574342.328 7  22467056.847 7 -28013808.28548  22467051.38148     -1053.560
 15  1  3  3  7 30.0000000  0  7G05G16G18G21G25G29G31
 -15401426.145 2  24527045.531 2                                       189.795
 -15565223.324 6  22422837.251 6 -12043341.72848  22422830.82848      4547.632
  -2015047.648 5  24201873.832 5  -4337818.30946  24201869.45346      4646.138
 -37489110.234 7  21011007.611 7 -29191824.59249  21011001.24449      2370.127
 -46484631.934 5  23929435.099 5 -36210304.20547  23929432.78347     -1686.250
 -47121419.094 6  21938127.098 6 -36699621.49648  21938121.79048      -656.973
 -36542576.355 7  22473101.717 7 -27989055.58548  22473095.51948     -1064.258
 15  1  3  3  8  0.0000000  0  7G05G16G18G21G25G29G31
 -15406871.434 2  24526009.502 2                                       172.861
 -15701551.578 6  22396894.777 6 -12149571.51848  22396888.67448      4540.635
  -2154416.180 5  24175352.849 5  -4446417.13846  24175348.19346      4644.780
 -37560002.695 7  20997517.223 7 -29247065.45449  20997510.64549      2355.684
 -46433969.906 5  23939075.778 5 -36170827.29447  23939073.57847     -1691.494
 -47101638.375 7  21941891.241 7 -36684207.96148  21941885.84848      -661.963
 -36510498.906 7  22479205.866 7 -27964060.18348  22479199.75548     -1074.590
 15  1  3  3  8 30.0000000  0  8G05G16G18G21G25G27G29G31
 -15411810.469 1  24525069.552 1                                       156.104
 -15837667.777 6  22370992.653 6 -12255636.08048  22370986.38048      4533.608
  -2293744.195 4  24148839.525 4  -4554984.45346  24148835.47746      4643.462
 -37630462.613 7  20984109.142 7 -29301969.27749  20984102.91349      2341.338
 -46383149.832 5  23948746.532 5 -36131227.25347  23948744.12247     -1696.699
    -42028.445 1  24212497.858 1                                      4669.282
 -47081708.090 7  21945683.841 7 -36668677.89548  21945679.12948      -666.929
 -36478111.188 7  22485369.062 7 -27938823.00748  22485362.53448     -1084.858
 15  1  3  3  9  0.0000000  0  8G05G16G18G21G25G27G29G31
 -15416245.684 2  24524225.456 2                                       138.750
 -15973570.828 6  22345131.122 6 -12361534.55648  22345124.71548      4525.894
  -2433029.961 5  24122334.284 5  -4663518.77646  24122328.65046      4641.421
 -37700491.047 7  20970783.157 7 -29356536.88649  20970776.86249      2326.479
 -46332174.090 5  23958446.889 5 -36091505.93247  23958444.83447     -1702.427
   -182066.500 1  24185848.362 1                                      4666.011
 -47061630.383 7  21949504.502 7 -36653032.93948  21949499.04848      -672.368
 -36445416.598 7  22491590.664 7 -27913346.73048  22491583.87648     -1095.503
 15  1  3  3  9 30.0000000  0  7G05G16G18G21G25G29G31
 -15420170.629 1  24523478.790 1                                       122.285
 -16109251.480 6  22319311.915 6 -12467259.71548  22319305.65648      4518.955
  -2572263.801 5  24095839.022 5  -4772012.67446  24095834.19646      4640.254
 -37770081.051 7  20957540.621 7 -29410762.84749  20957534.44249      2312.412
 -46281036.766 5  23968177.993 5 -36051658.67847  23968175.71847     -1707.241
 -47041398.859 7  21953354.443 7 -36637268.11448  21953348.45248      -676.929
 -36412411.016 7  22497871.427 7 -27887628.10548  22497865.22848     -1105.366
 15  1  3  3 10  0.0000000  0  8G05G16G18G21G25G27G29G31
 -15423605.441 1  24522825.394 1                                       106.226
 -16244725.785 7  22293532.014 7 -12572824.10248  22293525.83748      4512.217
  -2711461.465 5  24069350.602 5  -4880478.40046  24069345.61546      4639.146
 -37839250.973 7  20944378.028 7 -29464661.47449  20944371.52149      2298.574
 -46229757.430 5  23977936.144 5 -36011700.74647  23977933.53647     -1711.733
   -144551.758 1  24132598.370 1                                      4661.494
 -47021031.875 6  21957230.184 6 -36621397.77148  21957224.67148      -681.284
 -36379115.410 7  22504207.374 7 -27861683.48648  22504201.27848     -1114.775
 15  1  3  3 10 30.0000000  0  7G05G16G18G21G25G29G31
 -15426542.266 1  24522266.685 1                                        89.639
 -16379982.125 7  22267793.610 7 -12678218.63948  22267787.49848      4504.878
  -2850610.734 5  24042871.332 5  -4988906.36546  24042866.58146      4637.529
 -37907991.504 7  20931297.117 7 -29518225.50849  20931290.94049      2284.185
 -46178328.188 4  23987722.813 4 -35971625.99747  23987720.54747     -1716.909
 -47000521.313 6  21961133.205 6 -36605415.52448  21961128.89148      -686.021
 -36345522.945 7  22510599.815 7 -27835507.56048  22510593.01348     -1124.717
 15  1  3  3 11  0.0000000  0  7G05G16G18G21G25G29G31
 -15428983.160 1  24521802.063 1                                        72.856
 -16515019.512 7  22242096.879 7 -12783442.56848  22242090.62648      4497.695
  -2989709.672 5  24016401.713 5  -5097295.16846  24016397.06346      4635.908
 -37976303.133 6  20918297.796 6 -29571455.33249  20918291.56949      2269.976
 -46126751.219 4  23997537.600 4 -35931436.14347  23997536.02247     -1721.641
 -46979868.504 6  21965063.331 6 -36589322.45248  21965058.29848      -690.728
 -36311637.188 7  22517048.055 7 -27809103.07448  22517041.92248     -1134.331
 15  1  3  3 11 30.0000000  0  8G05G16G18G21G25G27G29G31
 -15430922.086 1  24521432.851 1                                        56.074
 -16649827.824 7  22216443.714 7 -12888488.00248  22216437.42748      4489.741
  -3128747.891 5  23989943.613 5  -5205636.59346  23989938.20046      4633.506
 -38044178.895 7  20905381.441 7 -29624345.53649  20905375.65549      2255.264
 -46075020.051 5  24007381.716 5 -35891126.16447  24007380.16247     -1726.890
   -107031.613 1  24052830.741 1                                      4653.452
 -46959066.598 6  21969021.817 6 -36573113.18348  21969016.18648      -695.918
 -36277453.309 7  22523553.033 7 -27782466.30148  22523547.14748     -1144.419
 15  1  3  3 12  0.0000000  0  7G05G16G18G21G25G29G31
 -15432371.398 1  24521157.115 1                                        39.858
 -16784415.949 7  22190832.457 7 -12993361.87348  22190825.88248      4482.290
  -3267733.801 5  23963495.413 5  -5313937.29746  23963488.95546      4631.660
 -38111629.930 7  20892545.950 7 -29676904.76949  20892540.19949      2241.006
 -46023147.172 5  24017252.774 5 -35850705.72747  24017251.40447     -1731.607
 -46938127.344 6  21973006.404 6 -36556796.89848  21973001.87248      -700.562
 -36242984.953 7  22530112.143 7 -27755607.86048  22530106.57248     -1153.926
 15  1  3  3 12 30.0000000  0  8G05G16G18G21G25G27G29G31
 -15433323.488 1  24520975.996 1                                        23.726
 -16918772.605 7  22165265.252 7 -13098055.36548  22165258.29448      4474.668
  -3406655.648 6  23937059.489 6  -5422188.07446  23937052.75646      4629.639
 -38178646.914 6  20879793.060 6 -29729125.78749  20879786.46549      2226.646
 -45971124.734 5  24027152.380 5 -35810168.78147  24027150.83147     -1736.567
   -106930.215 1  23999729.467 1                                      4648.115
 -46917042.520 6  21977018.726 6 -36540367.17548  21977014.14548      -705.313
 -36208225.430 7  22536726.657 7 -27728522.52848  22536720.99448     -1163.545
 15  1  3  3 13  0.0000000  0  8G05G16G18G21G25G27G29G31
 -15433786.742 1  24520887.930 1                                         6.943
 -17052903.250 7  22139741.062 7 -13202572.74648  22139734.55948      4466.851
  -3545517.844 5  23910634.873 5  -5530392.35746  23910628.58646      4627.402
 -38245237.465 7  20867121.275 7 -29781014.52449  20867115.00049      2212.168
 -45918961.359 5  24037078.817 5 -35769522.05547  24037077.35347     -1741.533
   -246337.293 2  23973200.613 2                                      4645.239
 -46895819.961 6  21981057.262 6 -36523830.14448  21981052.28648      -710.068
 -36173185.223 7  22543394.582 7 -27701218.48048  22543388.89848     -1173.057
 15  1  3  3 13 30.0000000  0  8G05G16G18G21G25G27G29G31
 -15433751.227 1  24520894.892 1                                        -9.634
 -17186793.715 7  22114262.572 7 -13306902.96848  22114255.84548      4458.892
  -3684306.113 5  23884224.341 5  -5638539.07846  23884217.99046      4624.873
 -38311390.441 6  20854532.752 6 -29832562.28949  20854526.38849      2197.700
 -45866647.078 5  24047033.914 5 -35728757.64747  24047031.98047     -1746.260
   -385654.445 1  23946688.900 1                                      4642.153
 -46874448.535 6  21985124.131 6 -36507177.10348  21985118.73148      -714.917
 -36137855.363 7  22550117.652 7 -27673688.74548  22550112.04948     -1182.559
 15  1  3  3 13 59.9990000  0  8G05G16G18G21G25G27G29G31
 -15433223.605 1  24520995.687 1                                       -25.635
 -17320442.000 7  22088830.135 7 -13411044.47748  22088823.75448      4451.025
  -3823017.410 6  23857828.457 6  -5746625.75746  23857823.20346      4622.485
 -38377107.852 6  20842027.142 6 -29883770.65149  20842020.84349      2183.320
 -45814189.172 5  24057016.367 5 -35687881.36646  24057014.96546     -1751.084
   -524880.770 1  23920194.347 1                                      4639.517
 -46852934.145 6  21989218.187 6 -36490412.67048  21989212.91948      -719.629
 -36102243.965 7  22556894.312 7 -27645939.61648  22556889.09448     -1191.807
 15  1  3  3 14 29.9990000  0  7G16G18G21G25G27G29G31
 -17453854.734 7  22063442.533 7 -13515002.43448  22063435.88448      4443.389
  -3961658.961 5  23831445.761 5  -5854658.14046  23831441.12246      4620.410
 -38442394.727 6  20829603.496 6 -29934643.53649  20829596.75849      2169.321
 -45761585.758 4  24067026.469 4 -35646891.71446  24067024.25146     -1755.542
   -664025.289 2  23893715.955 2                                      4637.207
 -46831276.473 7  21993339.479 7 -36473536.56948  21993334.07348      -724.009
 -36066351.676 7  22563724.453 7 -27617971.61148  22563718.74748     -1200.737
 15  1  3  3 14 59.9990000  0  7G16G18G21G25G27G29G31
 -17587035.598 7  22038099.052 7 -13618779.71848  22038092.66648      4435.254
  -4100232.730 6  23805075.953 6  -5962637.70246  23805071.10046      4617.730
 -38507258.613 7  20817260.338 7 -29985186.81549  20817253.55949      2154.854
 -45708849.652 4  24077061.803 4 -35605798.62246  24077060.37846     -1760.322
   -803092.457 2  23867251.998 2                                      4633.921
 -46809486.531 7  21997485.975 7 -36456557.41548  21997480.70048      -728.716
 -36030191.922 7  22570605.482 7 -27589795.20248  22570600.49348     -1209.976
 15  1  3  3 15 29.9990000  0  7G16G18G21G25G27G29G31
 -17719977.496 7  22012801.052 7 -13722370.80348  22012794.66848      4427.471
  -4238731.852 6  23778720.370 6  -6070559.11346  23778715.67946      4615.474
 -38571695.824 7  20804998.340 7 -30035397.61649  20804991.54749      2140.874
 -45655978.004 5  24087122.971 5 -35564599.94646  24087121.14346     -1764.644
   -942077.559 1  23840803.386 1                                      4631.690
 -46787560.906 7  22001658.306 7 -36439472.53148  22001653.51648      -733.052
 -35993763.449 7  22577537.636 7 -27561409.39148  22577532.66448     -1218.682
 15  1  3  3 15 59.9990000  0  7G16G18G21G25G27G29G31
 -17852678.414 7  21987548.887 7 -13825774.10148  21987542.82348      4419.702
  -4377153.625 6  23752379.503 6  -6178420.19146  23752374.77946      4613.125
 -38635705.855 7  20792817.627 7 -30085275.55549  20792811.04249      2126.929
 -45602972.277 4  24097209.604 4 -35523296.80446  24097207.78846     -1768.574
  -1080980.051 3  23814371.001 3                                      4628.960
 -46765500.172 7  22005856.370 7 -36422282.36348  22005850.95848      -737.275
 -35957069.168 6  22584520.347 6 -27532816.46048  22584515.08248     -1227.153
 15  1  3  3 16 29.9990000  0  7G16G18G21G25G27G29G31
 -17985126.984 7  21962344.727 7 -13928980.76548  21962338.47848      4410.610
  -4515486.070 6  23726055.645 6  -6286211.69846  23726049.95046      4609.453
 -38699280.809 7  20780719.712 7 -30134814.46449  20780712.89049      2111.821
 -45549824.621 5  24107323.202 5 -35481882.99146  24107320.90546     -1774.141
  -1219790.363 2  23787956.085 2                                      4625.425
 -46743295.621 7  22010081.789 7 -36404980.14348  22010076.66648      -742.676
 -35920102.820 6  22591554.826 6 -27504011.52048  22591550.05548     -1236.880
 15  1  3  3 16 59.9990000  0  7G16G18G21G25G27G29G31
 -18117325.895 7  21937188.078 7 -14031992.89348  21937181.49848      4402.612
  -4653731.234 6  23699748.470 6  -6393935.21246  23699742.49946      4606.865
 -38762425.379 7  20768703.680 7 -30184018.02749  20768697.46349      2097.793
 -45496541.262 5  24117462.670 5 -35440363.49646  24117460.66446     -1778.193
  -1358512.520 1  23761557.840 1                                      4622.837
 -46720952.977 7  22014333.470 7 -36387570.30248  22014328.12548      -746.973
 -35882871.250 6  22598639.749 6 -27474999.92148  22598634.55948     -1245.288
 15  1  3  3 17 29.9990000  0  7G16G18G21G25G27G29G31
 -18249281.074 7  21912077.809 7 -14134815.10048  21912071.38948      4394.243
  -4791894.648 6  23673456.908 6  -6501594.99446  23673450.84246      4603.979
 -38825147.770 6  20756767.993 6 -30232892.60949  20756761.62749      2083.613
 -45443131.781 4  24127626.183 4 -35398745.68446  24127623.79746     -1782.593
  -1497154.227 1  23735174.675 1                                      4619.717
 -46698481.012 7  22018609.788 7 -36370059.68048  22018603.92148      -751.294
 -35845385.938 7  22605772.943 7 -27445790.59648  22605767.46848     -1253.823
 15  1  3  3 17 59.9990000  0  7G16G18G21G25G27G29G31
 -18380981.301 7  21887016.056 7 -14237438.63348  21887009.99348      4385.683
  -4929963.918 6  23647183.255 6  -6609181.42447  23647177.09247      4600.727
 -38887439.270 6  20744914.293 6 -30281431.43049  20744907.77449      2069.170
 -45389587.930 5  24137815.325 5 -35357023.24146  24137812.44246     -1787.041
  -1635705.449 3  23708809.427 3                                      4616.943
 -46675870.922 7  22022912.353 7 -36352441.46048  22022907.67248      -755.986
 -35807639.938 7  22612955.737 7 -27416378.13248  22612951.02348     -1262.539
 15  1  3  3 18 29.9990000  0  7G16G18G21G25G27G29G31
 -18512415.824 7  21862004.868 7 -14339855.14848  21861998.80048      4377.051
  -5067928.996 6  23620929.419 6  -6716686.67747  23620923.88547      4597.329
 -38949291.734 6  20733144.117 6 -30329628.14049  20733138.38349      2054.756
 -45335903.371 5  24148031.264 5 -35315191.08146  24148028.09446     -1791.480
  -1774157.805 3  23682462.929 3                                      4613.716
 -46653115.324 7  22027242.612 7 -36334709.86648  22027238.41548      -760.620
 -35769628.289 6  22620189.091 6 -27386758.67648  22620183.89448     -1271.187
 15  1  3  3 18 59.9990000  0  7G16G18G21G25G27G29G31
 -18643595.457 7  21837042.199 7 -14442073.03148  21837035.65648      4368.291
  -5205799.520 6  23594693.553 6  -6824118.21747  23594687.54247      4593.979
 -39010718.457 7  20721454.992 7 -30377493.12649  20721448.55649      2040.332
 -45282092.371 4  24158271.133 4 -35273260.42546  24158268.16446     -1795.811
  -1912523.527 2  23656132.616 2                                      4610.527
 -46630227.766 7  22031597.992 7 -36316875.42948  22031593.34948      -765.190
 -35731366.352 6  22627470.087 6 -27356944.20348  22627464.88448     -1279.648
 15  1  3  3 19 29.9990000  0  7G16G18G21G25G27G29G31
 -18774520.098 7  21812128.070 7 -14544092.23348  21812121.48648      4360.059
  -5343575.020 6  23568475.707 6  -6931475.76147  23568469.78747      4590.991
 -39071721.801 7  20709846.437 7 -30425028.18749  20709840.06449      2026.582
 -45228158.289 4  24168534.408 4 -35231233.84646  24168531.55446     -1799.609
  -2050804.078 2  23629818.615 2                                      4608.316
 -46607211.277 7  22035977.853 7 -36298940.50648  22035972.47748      -769.204
 -35692859.254 6  22634797.748 6 -27326938.67048  22634792.37048     -1287.510
 15  1  3  3 19 59.9990000  0  7G16G18G21G25G27G29G31
 -18905186.832 7  21787263.036 7 -14645910.45048  21787256.30248      4351.440
  -5481252.188 6  23542276.564 6  -7038756.65847  23542270.68047      4587.744
 -39132301.730 6  20698318.457 6 -30472233.31549  20698311.98949      2012.554
 -45174102.188 4  24178820.924 4 -35189112.19446  24178818.43446     -1803.687
  -2188998.559 3  23603521.108 3  -2115361.27344  23603520.95144      4605.205
 -46584065.859 7  22040382.268 7 -36280905.15348  22040377.48748      -773.418
 -35654109.191 6  22642171.680 6 -27296743.84548  22642165.81648     -1295.430
 15  1  3  3 20 29.9990000  0  7G16G18G21G25G27G29G31
 -19035592.449 7  21762447.683 7 -14747525.23048  21762441.17348      4342.021
  -5618827.281 6  23516096.870 6  -7145958.00847  23516091.18247      4583.657
 -39192458.152 7  20686871.076 7 -30519108.44849  20686864.59649      1997.729
 -45119924.309 4  24189130.569 4 -35146895.68246  24189128.28246     -1808.428
  -2327105.254 1  23577240.212 1  -2222976.85244  23577237.98744      4601.768
 -46560790.801 7  22044811.375 7 -36262768.78248  22044806.86048      -778.374
 -35615117.938 6  22649591.496 6 -27266361.04748  22649585.28048     -1304.160
 15  1  3  3 20 59.9990000  0  7G16G18G21G25G27G29G31
 -19165728.773 7  21737683.584 7 -14848930.14548  21737677.19448      4333.472
  -5756291.477 6  23489938.286 6  -7253072.94847  23489932.81147      4580.405
 -39252184.918 7  20675505.468 7 -30565648.78749  20675499.10949      1983.872
 -45065620.359 3  24199464.211 3 -35104580.88246  24199461.48946     -1812.109
  -2465117.809 2  23550977.281 2  -2330519.11343  23550973.74143      4598.745
 -46537381.043 7  22049266.132 7 -36244527.43848  22049260.80448      -782.476
 -35575882.293 6  22657057.812 6 -27235787.83648  22657052.01648     -1311.763
 15  1  3  3 21 29.9990000  0  7G16G18G21G25G27G29G31
 -19295593.461 7  21712971.173 7 -14950123.41248  21712964.64048      4324.375
  -5893641.867 6  23463801.381 6  -7360099.24147  23463796.02947      4576.660
 -39311481.453 7  20664221.740 7 -30611853.87449  20664214.98249      1969.541
 -45011190.979 4  24209821.766 4 -35062168.47246  24209818.97846     -1816.226
  -2603035.023 2  23524732.705 2  -2437987.06344  23524727.90844      4595.903
 -46513836.551 7  22053746.559 7 -36226181.11048  22053741.87448      -786.904
 -35536404.453 6  22664570.195 6 -27205025.89448  22664564.89348     -1319.790
 15  1  3  3 21 59.9990000  0  7G16G18G21G25G27G29G31
 -19425185.184 7  21688310.675 7 -15051103.96248  21688303.81448      4315.220
  -6030876.387 6  23437686.493 6  -7467035.22747  23437681.65047      4572.534
 -39370349.586 7  20653019.517 7 -30657725.13649  20653013.02949      1955.200
 -44956638.512 3  24220202.815 3 -35019660.03545  24220200.91345     -1820.469
  -2740857.215 2  23498506.174 2  -2545380.89544  23498501.39744      4592.524
 -46490159.020 7  22058252.221 7 -36207731.09948  22058247.08648      -791.318
 -35496688.516 6  22672127.865 6 -27174078.42548  22672122.69948     -1327.734
 15  1  3  3 22 29.9990000  0  7G16G18G21G25G27G29G31
 -19554496.555 7  21663703.516 7 -15151866.06648  21663697.10148      4305.918
  -6167987.949 6  23411594.993 6  -7573875.40847  23411589.92147      4568.496
 -39428785.234 7  20641899.590 7 -30703259.40149  20641892.62249      1940.840
 -44901960.348 2  24230607.755 2 -34977053.62145  24230605.77045     -1824.517
  -2878579.730 2  23472298.549 2  -2652697.18445  23472295.31645      4589.390
 -46466344.598 7  22062784.003 7 -36189174.44448  22062777.73448      -795.815
 -35456732.488 6  22679731.231 6 -27142943.87948  22679725.58748     -1335.547
 15  1  3  3 22 59.9990000  0  7G16G18G21G25G27G29G31
 -19683538.855 7  21639147.574 7 -15252418.50748  21639140.96648      4296.611
  -6304987.172 6  23385524.906 6  -7680628.04247  23385519.70247      4564.414
 -39486802.082 7  20630859.349 7 -30748467.32349  20630852.89249      1926.562
 -44847170.762 2  24241033.929 2 -34934360.44145  24241032.81545     -1828.555
  -3016214.922 2  23446107.448 2  -2759945.40645  23446103.23645      4586.099
 -46442407.094 7  22067339.253 7 -36170521.86948  22067333.46848      -800.381
 -35416552.359 6  22687377.259 6 -27111634.69348  22687372.22248     -1343.389
 15  1  3  3 23 29.9990000  0  7G16G18G21G25G27G29G31
 -19812300.930 7  21614644.952 7 -15352752.57948  21614638.66748      4287.519
  -6441862.145 6  23359478.506 6  -7787283.87247  23359472.29347      4560.596
 -39544391.492 7  20619900.432 7 -30793342.19349  20619893.72649      1912.710
 -44792262.262 2  24251482.696 2 -34891574.57445  24251480.54845     -1832.051
  -3153753.133 2  23419934.869 2  -2867117.99245  23419930.85845      4583.267
 -46418338.012 7  22071919.460 7 -36151766.74948  22071914.78448      -804.336
 -35376141.855 6  22695067.132 6 -27080146.00448  22695061.65948     -1350.669
 15  1  3  3 23 59.9990000  0  7G16G18G21G25G27G29G31
 -19940779.918 7  21590196.187 7 -15452866.06548  21590190.00748      4278.057
  -6578609.262 6  23333456.441 6  -7893840.07047  23333450.46947      4556.294
 -39601553.148 7  20609022.927 7 -30837883.73749  20609016.74349      1898.418
 -44737235.531 2  24261953.940 2 -34848696.57445  24261954.41745     -1835.977
  -3291193.273 2  23393780.922 2  -2974214.11344  23393775.49744      4579.990
 -46394137.164 7  22076524.731 7 -36132908.98748  22076519.05848      -808.652
 -35335503.063 6  22702800.436 6 -27048479.43648  22702794.64648     -1358.115
 15  1  3  3 24 29.9990000  0  7G16G18G21G25G27G29G31
 -20068978.848 7  21565800.721 7 -15552761.31548  21565794.15748      4268.486
  -6715231.117 6  23307458.192 6  -8000298.62047  23307452.43847      4551.777
 -39658292.887 7  20598225.716 7 -30882096.51649  20598219.36449      1884.126
 -44682097.180 1  24272446.351 1 -34805731.64145  24272445.99245     -1839.756
  -3428539.777 1  23367644.386 1  -3081237.44945  23367641.45645      4576.343
 -46369810.891 7  22081153.885 7 -36113953.47248  22081148.59848      -813.154
 -35294644.363 6  22710575.567 6 -27016641.48748  22710569.45948     -1365.674
 15  1  3  3 24 59.9990000  0  7G16G18G21G25G27G29G31
 -20196893.938 7  21541459.298 7 -15652435.40448  21541452.87148      4259.238
  -6851724.375 6  23281484.325 6  -8106657.01547  23281478.74247      4547.768
 -39714610.129 7  20587508.906 7 -30925980.07449  20587502.08649      1870.347
 -44626847.621 2  24282959.886 2 -34762680.00445  24282959.27445     -1843.232
  -3565791.129 1  23341526.606 1  -3188186.57045  23341520.45245      4573.613
 -46345358.074 7  22085807.163 7 -36094899.34648  22085801.97248      -817.056
 -35253567.520 6  22718392.230 6 -26984633.59148  22718386.19548     -1372.671
 15  1  3  3 25 29.9990000  0  7G16G18G21G25G27G29G31
 -20324525.859 7  21517171.770 7 -15751888.84648  21517165.40148      4249.565
  -6988088.148 6  23255535.069 6  -8212914.49747  23255529.71847      4543.145
 -39770507.207 7  20576872.018 7 -30969536.23649  20576865.07849      1856.118
 -44571490.746 1  24293493.894 1 -34719544.81345  24293493.75845     -1847.153
  -3702949.320 1  23315426.554 1  -3295062.98045  23315423.86645      4570.083
 -46320782.078 7  22090483.843 7 -36075749.25248  22090479.20348      -821.357
 -35212277.316 6  22726249.515 6 -26952459.41948  22726243.41848     -1379.966
 15  1  3  3 25 59.9990000  0  7G16G18G21G25G27G29G31
 -20451874.102 7  21492938.213 7 -15851121.23848  21492932.18548      4240.142
  -7124322.133 6  23229610.600 6  -8319070.87947  23229604.71747      4538.862
 -39825987.516 7  20566314.436 7 -31012767.64049  20566307.96849      1842.314
 -44516030.504 2  24304047.551 2 -34676329.00845  24304046.58745     -1850.288
  -3840015.977 1  23289343.374 1  -3401868.15645  23289338.58145      4567.456
 -46296085.754 6  22095183.344 6 -36056505.38848  22095178.41948      -825.234
 -35170778.895 6  22734146.445 6 -26920123.01048  22734139.90148     -1386.802
 15  1  3  3 26 29.9990000  0  7G16G18G21G25G27G29G31
 -20578928.063 7  21468760.632 7 -15950124.31348  21468754.34648      4230.166
  -7260414.938 6  23203713.039 6  -8425117.18447  23203706.75847      4534.019
 -39881042.840 7  20555837.755 7 -31055667.89249  20555831.29549      1828.105
 -44460459.352 3  24314622.305 3 -34633026.82845  24314620.60345     -1854.282
  -3976981.824 1  23263279.604 1  -3508594.79345  23263275.17045      4563.721
 -46271260.992 6  22099907.311 6 -36037161.46348  22099903.28048      -829.673
 -35129066.551 6  22742084.078 6 -26887619.91248  22742078.17848     -1393.921
 15  1  3  3 26 59.9990000  0  7G16G18G21G25G27G29G31
 -20705692.016 7  21444638.258 7 -16048901.41048  21444631.81948      4220.600
  -7396370.566 6  23177841.601 6  -8531056.63147  23177835.12447      4529.507
 -39935680.152 7  20545440.615 7 -31098242.41949  20545433.76649      1814.180
 -44404785.375 1  24325216.652 1 -34589644.48044  24325215.24544     -1857.588
  -4113852.805 1  23237234.050 1  -3615247.46145  23237231.35445      4560.366
 -46246314.582 6  22104654.462 6 -36017722.70948  22104649.32448      -833.564
 -35087149.852 6  22750060.568 6 -26854957.55948  22750054.45248     -1400.649
 15  1  3  3 27 29.9990000  0  7G16G18G21G25G27G29G31
 -20832165.652 7  21420571.132 7 -16147452.29748  21420564.63248      4210.786
  -7532187.512 6  23151996.500 6  -8636888.01547  23151990.50447      4524.727
 -39989901.531 7  20535122.633 7 -31140492.83649  20535115.89949      1800.337
 -44349011.941 1  24335829.982 1 -34546184.66844  24335828.13844     -1860.967
  -4250630.066 1  23211205.642 1  -3721827.13745  23211204.35245      4557.441
 -46221249.113 7  22109424.316 7 -35998191.18848  22109418.90948      -837.637
 -35045033.105 6  22758075.165 6 -26822139.32247  22758069.14747     -1407.334
 15  1  3  3 27 59.9990000  0  7G16G18G21G25G27G29G31
 -20958337.063 7  21396561.511 7 -16245767.68048  21396555.38048      4200.957
  -7667854.215 6  23126179.990 6  -8742602.31147  23126174.10447      4520.039
 -40043698.703 7  20524885.364 7 -31182412.71449  20524878.67549      1786.504
 -44293130.871 3  24346464.013 3 -34502641.00444  24346460.13444     -1864.175
  -4387303.738 2  23185197.518 2  -3828326.06345  23185191.83045      4554.531
 -46196055.707 6  22114218.508 6 -35978559.98548  22114214.03948      -841.553
 -35002709.586 6  22766129.078 6 -26789159.98147  22766123.85147     -1413.940
 15  1  3  3 28 29.9990000  0  7G16G18G21G25G27G29G31
 -21084213.070 7  21372608.111 7 -16343852.88948  21372601.49348      4191.050
  -7803376.957 6  23100390.851 6  -8848204.46447  23100385.17247      4515.083
 -40097080.832 7  20514727.079 7 -31224009.16849  20514720.29449      1772.588
 -44237153.145 1  24357116.340 1 -34459021.93844  24357115.78844     -1867.573
  -4523882.609 2  23159207.500 2  -3934751.08245  23159203.98945      4551.089
 -46170744.363 6  22119035.086 6 -35958836.89148  22119031.13448      -845.566
 -34960191.645 6  22774220.020 6 -26756029.13647  22774214.09147     -1420.337
 15  1  3  3 28 59.9980000  0  7G16G18G21G25G27G29G31
 -21209793.582 7  21348710.974 7 -16441707.83748  21348704.23848      4181.196
  -7938754.523 6  23074629.321 6  -8953693.48147  23074623.34747      4510.322
 -40150052.566 7  20504646.901 7 -31265285.84449  20504640.00949      1758.945
 -44181088.113 2  24367785.323 2 -34415334.95344  24367782.02344     -1870.361
  -4660367.461 1  23133234.937 1  -4041102.89545  23133233.06245      4548.242
 -46145322.527 6  22123872.715 6 -35939027.71348  22123866.91548      -849.399
 -34917489.516 6  22782345.990 6 -26722754.76648  22782340.55748     -1426.606
 15  1  3  3 29 29.9980000  0  7G16G18G21G25G27G29G31
 -21335072.660 7  21324871.181 7 -16539327.88348  21324864.74148      4170.766
  -8073981.387 6  23048896.524 6  -9059065.02747  23048890.62847      4504.912
 -40202606.813 7  20494646.167 7 -31306237.20349  20494639.68449      1744.692
 -44124921.301 2  24378473.990 2 -34371568.57444  24378469.98744     -1874.219
  -4796754.723 3  23107281.257 3  -4147378.66646  23107277.33546      4544.502
 -46119777.031 7  22128733.912 7 -35919122.15648  22128729.06848      -853.662
 -34874591.605 6  22790509.215 6 -26689327.83547  22790504.17147     -1433.228
 15  1  3  3 29 59.9980000  0  7G16G18G21G25G27G29G31
 -21460040.621 7  21301090.558 7 -16636705.51148  21301083.68948      4160.478
  -8209047.074 5  23023194.373 5  -9164311.04447  23023189.67947      4499.497
 -40254738.719 7  20484725.796 7 -31346859.45749  20484719.44549      1730.767
 -44068653.063 1  24389181.662 1 -34327723.20744  24389178.55944     -1877.207
  -4933036.176 3  23081348.006 3  -4253571.93746  23081344.66346      4541.040
 -46094105.969 6  22133619.003 6 -35899118.75148  22133614.27148      -857.715
 -34831498.188 6  22798709.595 6 -26655748.54147  22798704.28147     -1439.551
 15  1  3  3 30 29.9980000  0  7G16G18G21G25G27G29G31
 -21584700.148 7  21277368.629 7 -16733842.79248  21277362.62948      4150.132
  -8343954.262 6  22997522.399 6  -9269433.50447  22997516.70147      4494.209
 -40306454.508 7  20474884.596 7 -31387157.46849  20474878.25749      1716.953
 -44012290.145 1  24399907.469 1 -34283804.07843  24399903.60843     -1880.415
  -5069216.570 2  23055433.705 2  -4359686.44746  23055431.97146      4537.617
 -46068315.293 7  22138526.851 7 -35879022.12248  22138522.08648      -861.631
 -34788217.754 6  22806945.595 6 -26622023.56147  22806939.75747     -1445.727
 15  1  3  3 30 59.9980000  0  6G16G18G21G27G29G31
 -21709052.281 7  21253705.182 7 -16830740.55548  21253699.06748      4139.922
  -8478702.891 5  22971880.566 5  -9374432.42647  22971875.49647      4488.931
 -40357757.398 7  20465121.966 7 -31427133.75349  20465115.61049      1703.140
  -5205298.098 2  23029538.158 2  -4465724.03046  23029534.65346      4534.365
 -46042408.383 7  22143456.782 7 -35858834.93748  22143452.01348      -865.498
 -34744755.855 6  22815216.113 6 -26588157.16447  22815210.84347     -1451.704
 15  1  3  3 31 29.9980000  0  6G16G18G21G27G29G31
 -21833093.891 7  21230100.823 7 -16927396.34248  21230094.32848      4129.653
  -8613289.395 6  22946269.594 6  -9479304.99147  22946264.89947      4483.623
 -40408648.230 7  20455437.893 7 -31466789.16149  20455431.47249      1689.600
  -5341279.500 4  23003661.915 4  -4571683.52046  23003658.67746      4531.001
 -46016384.957 7  22148408.895 7 -35838556.96148  22148403.79348      -869.229
 -34701114.496 6  22823520.796 6 -26554150.89947  22823514.55047     -1457.529
 15  1  3  3 31 59.9980000  0  6G16G18G21G27G29G31
 -21956819.977 7  21206556.514 7 -17023806.29648  21206549.89748      4119.150
  -8747708.211 5  22920690.491 5  -9584046.92547  22920685.01747      4478.125
 -40459122.750 7  20445832.940 7 -31506119.94849  20445826.36849      1675.879
  -5477157.234 4  22977805.232 4  -4677562.24746  22977802.86246      4527.949
 -45990242.523 7  22153383.650 7 -35818186.27648  22153378.41748      -873.066
 -34657293.957 6  22831859.573 6 -26520005.06247  22831852.92347     -1463.286
 15  1  3  3 32 29.9980000  0  6G16G18G21G27G29G31
 -22080228.262 7  21183072.699 7 -17119968.60448  21183066.44748      4108.393
  -8881957.113 6  22895143.757 6  -9688656.45647  22895138.19747      4472.275
 -40509183.090 7  20436306.778 7 -31545127.99749  20436300.81149      1661.938
  -5612931.008 4  22951968.193 4  -4783359.91246  22951965.04746      4524.277
 -45963982.227 7  22158380.873 7 -35797723.71648  22158375.79348      -877.202
 -34613297.410 6  22840231.822 6 -26485722.05447  22840226.09447     -1469.321
 15  1  3  3 32 59.9980000  0  6G16G18G21G27G29G31
 -22203315.531 7  21159649.953 7 -17215880.77048  21159643.21448      4097.417
  -9016032.328 5  22869630.038 5  -9793130.66347  22869623.87247      4466.221
 -40558828.742 7  20426859.495 7 -31583812.92049  20426853.12249      1647.915
  -5748599.227 4  22926151.329 4  -4889075.42846  22926148.08946      4520.513
 -45937603.461 6  22163400.619 6 -35777168.86148  22163395.52948      -881.323
 -34569126.313 6  22848637.285 6 -26451303.03247  22848631.63747     -1475.313
 15  1  3  3 33 29.9980000  0  6G16G18G21G27G29G31
 -22326079.883 7  21136288.661 7 -17311541.29348  21136282.07748      4086.943
  -9149931.754 6  22844149.788 6  -9897467.85747  22844144.11147      4460.591
 -40608060.668 7  20417490.966 7 -31622175.45649  20417484.26149      1634.365
  -5884161.980 5  22900354.727 5  -4994708.71546  22900349.95546      4517.173
 -45911107.359 6  22168442.668 6 -35756522.56648  22168436.89048      -885.020
 -34524784.320 6  22857075.314 6 -26416750.85947  22857070.14647     -1480.635
 15  1  3  3 33 59.9980000  0  6G16G18G21G27G29G31
 -22448525.563 7  21112988.018 7 -17406953.50448  21112981.35648      4076.333
  -9283658.504 6  22818702.355 6 -10001670.54747  22818695.96647      4454.683
 -40656885.895 7  20408199.843 7 -31660221.07749  20408193.40349      1620.796
  -6019624.555 4  22874577.075 4  -5100263.91246  22874573.77146      4513.945
 -45884500.406 6  22173505.776 6 -35735789.90648  22173501.68548      -888.701
 -34480280.398 6  22865544.189 6 -26382072.49847  22865537.65147     -1486.035
 15  1  3  3 34 29.9980000  0  6G16G18G21G27G29G31
 -22570644.070 7  21089749.635 7 -17502110.78348  21089743.46248      4064.854
  -9417204.262 5  22793289.384 5 -10105732.16447  22793283.55547      4448.076
 -40705299.137 7  20398987.113 7 -31697945.67949  20398980.96349      1606.621
  -6154980.555 4  22848819.485 4  -5205736.09546  22848817.10846      4509.673
 -45857777.313 6  22178590.987 6 -35714966.73148  22178586.27348      -892.988
 -34435611.105 6  22874044.531 6 -26347265.27347  22874038.65947     -1491.997
 15  1  3  3 34 59.9980000  0  7G16G18G21G25G27G29G31
 -22692420.652 7  21066576.296 7 -17597001.61248  21066570.18148      4053.560
  -9550553.973 5  22767913.763 5 -10209641.01347  22767907.66347      4441.753
 -40753288.938 7  20389854.930 7 -31735340.32149  20389848.33349      1592.705
     75796.953 1  24497198.146 1                                     -1906.811
  -6290216.973 4  22823084.839 4  -5311115.09947  22823080.34247      4505.864
 -45830926.043 6  22183700.602 6 -35694043.68348  22183695.12548      -897.075
 -34390767.168 6  22882578.123 6 -26312321.96047  22882573.02747     -1497.515
 15  1  3  3 35 29.9980000  0  7G16G18G21G25G27G29G31
 -22813857.832 7  21043467.554 7 -17691627.98148  21043461.60848      4042.481
  -9683709.113 5  22742575.195 5 -10313398.24347  22742570.02447      4435.508
 -40800860.457 7  20380802.350 7 -31772409.04649  20380795.52349      1578.999
    133041.148 1  24508090.889 1                                     -1909.438
  -6425337.684 4  22797372.208 4  -5416403.97346  22797369.29846      4502.368
 -45803951.664 6  22188833.660 6 -35673024.70848  22188828.95248      -900.942
 -34345755.758 6  22891143.563 6 -26277248.14647  22891138.35747     -1502.876
 15  1  3  3 35 59.9980000  0  6G16G18G21G27G29G31
 -22934964.207 7  21020421.782 7 -17785996.59848  21020415.92548      4031.587
  -9816677.258 5  22717272.244 5 -10417009.81347  22717266.57147      4429.346
 -40848024.680 7  20371827.309 7 -31809160.38149  20371820.56649      1565.601
  -6560352.414 4  22771679.551 4  -5521610.23647  22771676.78047      4499.063
 -45776865.152 6  22193988.094 6 -35651918.38248  22193984.54448      -904.478
 -34300590.281 6  22899738.271 6 -26242054.28647  22899733.17547     -1507.915
 15  1  3  3 36 29.9980000  0  6G16G18G21G27G29G31
 -23055741.203 7  20997438.680 7 -17880108.54348  20997432.53648      4020.220
  -9949461.020 6  22692004.423 6 -10520477.65947  22691998.67347      4422.817
 -40894787.207 7  20362928.723 7 -31845598.71149  20362922.33249      1551.904
  -6695265.379 5  22746006.506 5  -5626737.21547  22746002.04247      4495.244
 -45749671.734 6  22199162.828 6 -35630728.72448  22199157.41948      -908.442
 -34255278.086 6  22908360.883 6 -26206746.08947  22908355.48447     -1513.013
 15  1  3  3 36 59.9980000  0  6G16G18G21G27G29G31
 -23176170.297 7  20974521.785 7 -17973949.38348  20974515.27648      4008.721
 -10082040.520 5  22666775.405 5 -10623786.33647  22666770.38547      4416.113
 -40941131.625 7  20354109.668 7 -31881711.24449  20354103.26749      1538.047
  -6830059.301 5  22720356.288 5  -5731771.37747  22720352.50047      4491.357
 -45722355.359 6  22204361.004 6 -35609443.27348  22204355.55548      -912.378
 -34209805.277 6  22917014.082 6 -26171312.74047  22917009.20047     -1518.228
 15  1  3  3 37 29.9980000  0  6G16G18G21G27G29G31
 -23296259.590 7  20951669.570 7 -18067525.46748  20951663.28248      3997.363
 -10214423.754 5  22641583.676 5 -10726942.08647  22641577.73947      4409.585
 -40987069.723 7  20345367.931 7 -31917507.16749  20345361.36949      1524.644
  -6964743.977 5  22694726.538 5  -5836720.44547  22694722.81447      4487.798
 -45694926.777 6  22209580.529 6 -35588070.39748  22209575.09148      -916.064
 -34164185.414 6  22925695.293 6 -26135764.81147  22925690.01647     -1522.930
 15  1  3  3 37 59.9980000  0  6G16G18G21G27G29G31
 -23416017.391 7  20928880.436 7 -18160843.21648  20928873.77748      3986.543
 -10346618.672 5  22616427.733 5 -10829951.09947  22616421.98547      4403.413
 -41032612.898 7  20336701.368 7 -31952995.33949  20336694.43749      1511.616
  -7099329.363 6  22669115.833 6  -5941592.15047  22669110.89847      4484.541
 -45667397.125 7  22214819.313 7 -35566618.73848  22214814.14448      -919.253
 -34118432.113 6  22934401.862 6 -26100112.89347  22934396.68947     -1527.139
 15  1  3  3 38 29.9980000  0  6G16G18G21G27G29G31
 -23535430.609 7  20906156.861 7 -18253892.47548  20906150.17548      3974.492
 -10478611.055 5  22591310.414 5 -10932802.31947  22591304.23547      4396.138
 -41077750.047 7  20328112.089 7 -31988167.13649  20328105.56149      1497.578
  -7233803.512 6  22643526.417 6  -6046377.17447  22643522.22347      4480.366
 -45639755.422 6  22220079.421 6 -35545079.77348  22220074.87248      -923.481
 -34072536.426 6  22943135.521 6 -26064350.01247  22943130.22447     -1532.427
 15  1  3  3 38 59.9980000  0  6G16G18G21G27G29G31
 -23654494.141 7  20883499.835 7 -18346669.25648  20883493.66748      3963.052
 -10610396.359 6  22566232.525 6 -11035492.15247  22566226.37947      4389.409
 -41122480.516 7  20319600.168 7 -32023022.06049  20319593.72549      1484.321
  -7368163.746 5  22617958.389 5  -6151073.43447  22617955.63947      4476.826
 -45612000.781 6  22225360.962 6 -35523452.78148  22225356.35148      -926.987
 -34026498.891 6  22951896.205 6 -26028476.64047  22951891.15747     -1536.826
 15  1  3  3 39 29.9980000  0  6G16G18G21G27G29G31
 -23773206.320 7  20860909.673 7 -18439172.25748  20860903.37548      3951.001
 -10741971.848 6  22541194.609 6 -11138018.51447  22541188.25847      4382.153
 -41166804.582 7  20311165.570 7 -32057560.28649  20311159.27149      1470.606
  -7502409.582 6  22592412.191 6  -6255680.58347  22592408.85347      4472.744
 -45584133.047 6  22230664.023 6 -35501737.72648  22230658.62748      -930.889
 -33980323.113 6  22960683.154 6 -25992495.51847  22960677.20147     -1541.572
 15  1  3  3 39 59.9980000  0  6G16G18G21G27G29G31
 -23891568.438 7  20838386.103 7 -18531402.46148  20838379.99748      3939.756
 -10873338.352 6  22516196.452 6 -11240382.00647  22516190.94147      4375.615
 -41210726.809 7  20302807.437 7 -32091785.39749  20302800.86449      1457.632
  -7636544.035 6  22566887.418 6  -6360200.89247  22566884.59747      4469.453
 -45556156.516 6  22235987.754 6 -35479937.84748  22235983.30748      -934.268
 -33934015.168 6  22969495.298 6 -25956411.40947  22969489.76247     -1545.615
 15  1  3  3 40 29.9980000  0  6G16G18G21G27G29G31
 -24009575.465 7  20815930.067 7 -18623355.98648  20815924.12748      3927.451
 -11004490.750 6  22491239.015 6 -11342578.66347  22491233.45847      4367.901
 -41254245.180 7  20294526.168 7 -32125695.81049  20294519.54349      1443.701
  -7770563.695 6  22541384.160 6  -6464631.76347  22541382.43547      4465.181
 -45528068.770 6  22241332.668 6 -35458051.32448  22241328.44448      -938.242
 -33887575.066 6  22978332.566 6 -25920224.32147  22978326.77547     -1550.312
 15  1  3  3 40 59.9980000  0  7G16G18G21G22G27G29G31
 -24127223.242 7  20793542.382 7 -18715029.58248  20793536.11548      3915.830
 -11135424.719 6  22466323.123 6 -11444605.12547  22466317.91047      4361.021
 -41297359.313 7  20286321.838 7 -32159291.23349  20286315.14849      1430.732
    -84981.703 4  24389845.462 4    -41868.47946  24389837.83546      5069.922
  -7904466.277 6  22515903.155 6  -6568971.46347  22515900.21747      4461.763
 -45499868.793 6  22246698.921 6 -35436077.35448  22246694.28948      -941.641
 -33841004.168 6  22987194.735 6 -25883935.34047  22987189.95347     -1554.150
 15  1  3  3 41 29.9980000  0  7G16G18G21G22G27G29G31
 -24244509.371 7  20771223.543 7 -18806421.35248  20771217.32648      3903.594
 -11266137.219 6  22441449.312 6 -11546459.02647  22441443.92847      4353.491
 -41340069.859 7  20278194.288 7 -32192572.18049  20278187.69949      1416.992
   -237113.219 4  24360895.529 4   -160412.51546  24360887.88446      5072.446
  -8038251.035 6  22490444.914 6  -6673219.30048  22490440.43548      4457.578
 -45471556.461 6  22252086.599 6 -35414015.81748  22252081.81548      -945.503
 -33794305.430 6  22996081.213 6 -25847546.72947  22996075.74047     -1558.662
 15  1  3  3 41 59.9980000  0  7G16G18G21G22G27G29G31
 -24361427.121 7  20748974.836 7 -18897526.09848  20748968.54148      3891.201
 -11396620.941 6  22416619.050 6 -11648134.63247  22416613.15247      4345.610
 -41382372.477 7  20270144.353 7 -32225535.25849  20270137.72049      1403.345
   -389321.691 5  24331931.196 5   -279016.54546  24331923.08546      5074.844
  -8171912.574 6  22465009.986 6  -6777371.09247  22465006.55347      4453.438
 -45443128.266 6  22257496.306 6 -35391864.00848  22257491.67148      -949.429
 -33747476.293 6  23004992.485 6 -25811056.47547  23004988.22847     -1562.983
 15  1  3  3 42 29.9980000  0  7G16G18G21G22G27G29G31
 -24477973.547 7  20726796.778 7 -18988341.48848  20726790.12348      3878.853
 -11526872.066 6  22391833.066 6 -11749628.98847  22391827.64147      4338.013
 -41424267.066 7  20262172.052 7 -32258180.38949  20262165.43649      1389.819
   -541603.375 5  24302952.936 5   -397677.56946  24302945.53046      5077.402
  -8305449.012 6  22439598.651 6  -6881425.47348  22439596.11848      4449.287
 -45414583.418 6  22262928.203 6 -35369621.29548  22262923.33448      -953.291
 -33700518.422 6  23013928.242 6 -25774465.95047  23013923.52147     -1567.187
 15  1  3  3 42 59.9980000  0  7G16G18G21G22G27G29G31
 -24594146.926 7  20704689.711 7 -19078866.19148  20704683.45348      3866.719
 -11656889.172 6  22367091.606 6 -11850941.01047  22367085.92047      4330.488
 -41465756.117 7  20254276.933 7 -32290509.52249  20254270.42249      1376.665
   -693957.449 4  24273960.958 4   -516395.08746  24273953.84146      5080.122
  -8438861.246 6  22414211.167 6  -6985383.03848  22414208.31048      4445.493
 -45385923.539 6  22268382.007 6 -35347288.96648  22268377.59648      -956.738
 -33653436.355 6  23022887.629 6 -25737778.64247  23022882.79747     -1570.952
 15  1  3  3 43 29.9980000  0  7G16G18G21G22G27G29G31
 -24709954.523 7  20682652.263 7 -19169105.87549  20682646.34749      3853.823
 -11786679.129 6  22342393.401 6 -11952076.03847  22342387.37047      4322.202
 -41506849.230 7  20246457.160 7 -32322530.12849  20246450.53949      1362.944
   -846390.641 5  24244954.045 5   -635174.20546  24244947.49546      5082.051
  -8572157.875 6  22388845.682 6  -7089250.52648  22388842.61248      4440.991
 -45357158.234 6  22273855.884 6 -35324874.49548  22273851.94448      -960.874
 -33606242.391 6  23031868.331 6 -25701004.15247  23031863.83047     -1575.210
 15  1  3  3 43 59.9970000  0  7G16G18G21G22G27G29G31
 -24825386.895 7  20660686.208 7 -19259053.17148  20660679.97248      3841.441
 -11916231.488 6  22317740.421 6 -12053025.94547  22317734.63547      4314.424
 -41547542.898 7  20238713.411 7 -32354239.46949  20238706.60149      1349.678
   -998892.000 5  24215934.092 5   -754006.45746  24215927.39646      5084.561
  -8705330.195 6  22363503.718 6  -7193021.13748  22363501.11348      4437.041
 -45328285.328 6  22279350.264 6 -35302376.15648  22279345.31748      -964.468
 -33558937.395 6  23040870.170 6 -25664143.11447  23040865.51247     -1578.945
 15  1  3  3 44 29.9970000  0  7G16G18G21G22G27G29G31
 -24940450.527 7  20638790.312 7 -19348713.13649  20638784.10049      3829.185
 -12045553.184 6  22293131.351 6 -12153796.07247  22293124.65247      4306.729
 -41587841.746 7  20231044.773 7 -32385641.17249  20231038.28049      1336.636
  -1151470.223 5  24186899.574 5   -872898.59646  24186891.57446      5087.046
  -8838387.660 6  22338183.682 6  -7296702.25148  22338181.36448      4433.198
 -45299304.602 6  22284865.159 6 -35279793.77648  22284861.10448      -967.842
 -33511521.898 6  23049893.048 6 -25627195.99647  23049888.43547     -1582.324
 15  1  3  3 44 59.9970000  0  7G16G18G21G22G27G29G31
 -25055132.789 7  20616967.013 7 -19438075.94249  20616961.13049      3816.567
 -12174630.617 6  22268568.744 6 -12254375.87747  22268562.37447      4298.730
 -41627738.426 7  20223452.691 7 -32416729.49149  20223446.16749      1323.477
  -1304110.887 5  24157853.313 5   -991839.38046  24157844.62646      5089.199
  -8971318.516 6  22312887.764 6  -7400284.71948  22312885.51848      4429.155
 -45270210.949 6  22290401.517 6 -35257123.40647  22290397.09347      -971.411
 -33463993.316 6  23058937.450 6 -25590160.75847  23058931.62147     -1585.991
 15  1  3  3 45 29.9970000  0  7G16G18G21G22G27G29G31
 -25169434.926 7  20595216.073 7 -19527142.53549  20595209.90149      3803.955
 -12303464.848 6  22244052.365 6 -12354766.16547  22244046.65647      4290.669
 -41667237.723 7  20215936.228 7 -32447508.16149  20215929.57749      1310.225
  -1456815.391 5  24128794.688 5  -1110829.87746  24128787.04946      5091.328
  -9104125.750 6  22287615.325 6  -7503770.86248  22287612.58348      4425.078
 -45241008.484 6  22295958.549 6 -35234368.25047  22295954.47547      -974.966
 -33416358.398 6  23068002.056 6 -25553042.64447  23067996.66747     -1589.355
 15  1  3  3 45 59.9970000  0  7G16G18G21G22G27G29G31
 -25283350.199 7  20573538.725 7 -19615907.68849  20573532.44649      3790.810
 -12432048.773 6  22219583.635 6 -12454961.44447  22219577.89347      4282.002
 -41706336.156 7  20208496.040 7 -32477974.46749  20208489.73249      1296.650
  -1609576.738 5  24099725.035 5  -1229864.68346  24099718.16546      5092.940
  -9236804.230 6  22262367.469 6  -7607156.66948  22262363.54248      4420.542
 -45211693.039 6  22301537.088 6 -35211525.08848  22301533.51748      -978.936
 -33368615.527 6  23077087.223 6 -25515840.43047  23077082.23547     -1593.149
 15  1  3  3 46 29.9970000  0  7G16G18G21G22G27G29G31
 -25396877.051 7  20551935.298 7 -19704370.17149  20551929.01649      3777.881
 -12560380.613 6  22195162.879 6 -12554960.25947  22195157.34847      4273.647
 -41745035.332 7  20201131.824 7 -32508129.67149  20201125.65049      1283.442
  -1762393.461 5  24070644.824 5  -1348942.68446  24070637.06546      5094.922
  -9369354.105 6  22237144.069 6  -7710442.26348  22237141.03748      4416.416
 -45182265.980 6  22307136.859 6 -35188594.93748  22307132.59148      -982.661
 -33320768.441 6  23086192.266 6 -25478556.97747  23086186.81647     -1596.475
 15  1  3  3 46 59.9970000  0  7G16G18G21G22G27G29G31
 -25510020.070 7  20530404.904 7 -19792533.53948  20530398.61948      3764.863
 -12688464.707 6  22170789.298 6 -12654766.03647  22170783.03947      4265.108
 -41783342.832 7  20193842.149 7 -32537979.67349  20193835.75549      1270.259
  -1915269.582 5  24041553.256 5  -1468066.99446  24041546.24446      5096.728
  -9501781.336 6  22211943.915 6  -7813632.31448  22211941.83248      4411.963
 -45152734.328 6  22312756.546 6 -35165583.31848  22312752.50648      -986.343
 -33272826.566 6  23095315.291 6 -25441199.69847  23095310.91347     -1599.766
 15  1  3  3 47 29.9970000  0  7G16G18G21G22G27G29G31
 -25622772.793 7  20508948.744 7 -19880392.81249  20508942.68749      3751.982
 -12816293.609 6  22146464.262 6 -12754372.94747  22146458.12847      4256.743
 -41821255.176 7  20186627.690 7 -32567521.75449  20186620.93549      1257.207
  -2068198.324 5  24012451.631 5  -1587232.24646  24012444.52446      5098.535
  -9634081.066 6  22186768.113 6  -7916723.00948  22186765.24848      4407.983
 -45123094.172 6  22318396.866 6 -35142487.11548  22318392.18848      -989.707
 -33224788.305 6  23104456.681 6 -25403767.30447  23104451.66547     -1602.715
 15  1  3  3 47 59.9970000  0  7G16G18G21G22G27G29G31
 -25735132.043 7  20487567.461 7 -19967945.46749  20487561.05149      3738.599
 -12943863.699 6  22122188.447 6 -12853778.22247  22122182.83147      4247.866
 -41858772.215 7  20179488.457 7 -32596755.79949  20179482.19849      1243.838
  -2221175.840 4  23983340.672 4  -1706435.45746  23983333.24546      5099.878
  -9766251.328 6  22161617.055 6  -8019712.78748  22161613.39248      4403.423
 -45093344.824 6  22324057.983 6 -35119305.85447  22324052.94747      -993.579
 -33176655.227 6  23113616.141 6 -25366261.03947  23113611.15947     -1606.216
 15  1  3  3 48 29.9970000  0  7G16G18G21G22G27G29G31
 -25847092.160 7  20466262.141 7 -20055187.12649  20466255.80949      3725.210
 -13071169.242 6  22097962.976 6 -12952977.33947  22097957.21147      4238.950
 -41895891.730 7  20172424.848 7 -32625680.10449  20172418.71349      1230.566
  -2374196.543 2  23954221.668 2  -1825672.40146  23954213.23246      5101.245
  -9898288.324 6  22136491.193 6  -8122598.73948  22136487.37048      4398.911
 -45063483.512 6  22329740.415 6 -35096037.35747  22329736.02547      -997.422
 -33128427.016 6  23122793.730 6 -25328680.62247  23122787.98547     -1609.307
 15  1  3  3 48 59.9970000  0  7G16G18G21G22G27G29G31
 -25958656.027 7  20445032.237 7 -20142120.00449  20445025.77449      3712.397
 -13198212.832 6  22073787.367 6 -13051972.34047  22073781.56547      4230.586
 -41932619.961 7  20165435.689 7 -32654299.50749  20165429.06449      1217.993
  -2527263.160 4  23925094.153 4  -1944945.09846  23925085.79346      5103.228
 -10030196.613 6  22111389.823 6  -8225384.41448  22111386.66848      4395.083
 -45033515.531 6  22335443.162 6 -35072685.69247  22335438.97247     -1000.479
 -33080111.664 6  23131987.895 6 -25291032.31247  23131981.95247     -1611.675
 15  1  3  3 49 29.9970000  0  7G16G18G21G22G27G29G31
 -26069825.441 7  20423877.407 7 -20228745.52549  20423870.77449      3698.984
 -13324995.918 6  22049661.365 6 -13150764.33547  22049654.97547      4221.724
 -41968961.320 7  20158520.159 7 -32682617.44549  20158514.10349      1204.912
  -2680376.766 4  23895957.480 4  -2064254.39846  23895948.81746      5104.541
 -10161979.406 6  22086312.502 6  -8328072.28848  22086309.10148      4390.649
 -45003445.395 6  22341165.399 6 -35049254.45047  22341160.08747     -1004.063
 -33031715.895 6  23141197.347 6 -25253321.35147  23141191.69347     -1614.439
 15  1  3  3 49 59.9970000  0  7G16G18G21G22G27G29G31
 -26180594.871 7  20402798.678 7 -20315059.36049  20402792.88049      3685.088
 -13451512.738 6  22025586.057 6 -13249348.85247  22025580.20747      4212.183
 -42004914.168 7  20151678.573 7 -32710632.63849  20151672.46449      1191.431
  -2833532.066 5  23866812.860 5  -2183596.18946  23866804.12346      5105.229
 -10293632.848 6  22061259.758 6  -8430659.35848  22061256.53548      4385.630
 -44973270.746 6  22346907.513 6 -35025741.74947  22346902.56447     -1008.091
 -32983239.082 6  23150422.216 6 -25215547.23547  23150416.26347     -1617.837
 15  1  3  3 50 29.9970000  0  7G16G18G21G22G27G29G31
 -26290956.086 7  20381797.643 7 -20401055.10449  20381791.70649      3671.885
 -13577753.961 6  22001563.160 6 -13347718.64247  22001556.53347      4203.379
 -42040473.078 7  20144911.900 7 -32738340.87849  20144905.25949      1178.779
  -2986719.910 5  23837662.080 5  -2302963.35246  23837653.69546      5106.787
 -10425149.867 6  22036232.729 6  -8533140.14847  22036229.72447      4381.675
 -44942985.438 6  22352670.643 6 -35002142.79947  22352666.43747     -1011.392
 -32934678.000 6  23159663.120 6 -25177707.47447  23159657.80447     -1619.971
 15  1  3  3 50 59.9970000  0  7G16G18G21G22G27G29G31
 -26400910.852 7  20360873.956 7 -20486734.14749  20360868.09549      3658.237
 -13703721.418 6  21977592.349 6 -13445875.07247  21977586.31647      4194.150
 -42075642.875 7  20138219.262 7 -32765745.91449  20138213.12249      1165.713
  -3139941.773 4  23808504.917 4  -2422356.99146  23808495.56046      5107.774
 -10556533.793 6  22011231.239 6  -8635517.21648  22011227.36648      4377.065
 -44912593.574 6  22358454.049 6 -34978460.86647  22358450.08647     -1014.946
 -32886039.332 5  23168918.721 5 -25139807.20447  23168913.81247     -1622.769
 15  1  3  3 51 29.9970000  0  7G16G18G21G22G27G29G31
 -26510458.324 7  20340027.762 7 -20572095.81749  20340021.96749      3644.834
 -13829413.531 6  21953673.879 6 -13543816.96447  21953667.73947      4185.215
 -42110426.117 7  20131600.216 7 -32792849.74249  20131593.81949      1153.096
  -3293196.586 5  23779341.623 5  -2541776.38246  23779331.10546      5109.101
 -10687785.230 6  21986255.071 6  -8737791.03148  21986251.51348      4372.900
 -44882096.922 6  22364257.370 6 -34954697.25747  22364253.12647     -1018.198
 -32837326.750 5  23178188.380 5 -25101849.35947  23178184.15747     -1624.824
 15  1  3  3 51 59.9970000  0  7G16G18G21G22G27G29G31
 -26619592.898 7  20319260.131 7 -20657135.74349  20319254.23749      3631.250
 -13954825.066 6  21929808.781 6 -13641540.21147  21929803.20647      4176.021
 -42144820.461 7  20125055.194 7 -32819650.51949  20125048.66849      1140.356
  -3446478.824 4  23750173.104 4  -2661217.06646  23750163.78346      5110.259
 -10818900.535 6  21961304.601 6  -8839958.79848  21961301.81748      4368.604
 -44851493.277 6  22370081.073 6 -34930850.29047  22370075.93547     -1021.616
 -32788540.648 5  23187472.014 5 -25063834.24447  23187468.43447     -1627.041
 15  1  3  3 52 29.9970000  0  7G16G18G21G22G27G29G31
 -26728314.293 7  20298571.134 7 -20741853.71849  20298564.72849      3617.305
 -14079954.852 6  21905997.321 6 -13739043.93147  21905992.12147      4166.426
 -42178828.598 7  20118583.665 7 -32846150.37049  20118577.26549      1127.349
  -3599787.148 5  23720999.513 5  -2780678.17946  23720991.18046      5110.855
 -10949880.547 6  21936379.786 6  -8942021.14248  21936376.69448      4364.014
 -44820784.434 6  22375924.780 6 -34906921.35547  22375918.82747     -1025.190
 -32739685.191 5  23196768.866 5 -25025765.06247  23196764.38347     -1629.414
 15  1  3  3 52 59.9970000  0  7G16G18G21G22G27G29G31
 -26836618.332 7  20277961.566 7 -20826246.47349  20277955.42949      3603.398
 -14204798.500 6  21882240.332 6 -13836324.70047  21882235.03747      4156.836
 -42212449.695 7  20112185.780 7 -32872348.62649  20112179.35849      1114.399
  -3753117.441 4  23691821.851 4  -2900156.32446  23691812.88846      5111.660
 -11080722.750 6  21911481.453 6  -9043976.05848  21911476.91948      4359.331
 -44789968.941 6  22381788.810 6 -34882909.29947  22381785.26347     -1028.769
 -32690761.316 5  23206078.761 5 -24987642.58547  23206073.49147     -1631.787
 15  1  3  3 53 29.9970000  0  7G16G18G21G22G27G29G31
 -26944507.316 7  20257430.991 7 -20910315.81049  20257424.69849      3589.287
 -14329357.781 6  21858537.499 6 -13933383.86348  21858531.90248      4147.144
 -42245689.297 7  20105860.485 7 -32898249.61649  20105853.91549      1101.611
  -3906471.727 5  23662639.905 5  -3019653.21546  23662630.81546      5112.095
 -11211431.023 6  21886608.622 6  -9145826.62248  21886605.21148      4354.624
 -44759051.719 6  22387672.233 6 -34858817.98647  22387667.72747     -1032.314
 -32641776.152 5  23215400.349 5 -24949472.35947  23215394.67247     -1633.950
 15  1  3  3 53 59.9970000  0  7G16G18G21G22G27G29G31
 -27051977.934 7  20236980.017 7 -20994059.14049  20236973.83549      3575.254
 -14453629.461 6  21834889.413 6 -14030218.92847  21834883.40247      4137.476
 -42278547.789 7  20099607.706 7 -32923853.63749  20099601.77449      1088.823
  -4059845.902 5  23633454.075 5  -3139165.51046  23633446.30646      5112.612
 -11342003.281 6  21861761.458 6  -9247571.21048  21861759.12148      4350.049
 -44728032.027 6  22393575.138 6 -34834646.82247  22393569.87647     -1035.811
 -32592731.258 6  23224733.341 6 -24911255.57547  23224727.76647     -1635.898
 15  1  3  3 54 29.9970000  0  7G16G18G21G22G27G29G31
 -27159026.629 7  20216609.309 7 -21077473.70249  20216603.48149      3561.538
 -14577608.797 6  21811296.969 6 -14126826.18548  21811291.88648      4127.949
 -42311023.879 7  20093427.736 7 -32949159.67049  20093420.85249      1076.436
  -4213235.957 5  23604264.942 5  -3258690.28246  23604257.93546      5113.413
 -11472437.184 6  21836940.596 6  -9349208.03848  21836937.97048      4345.772
 -44696908.273 6  22399497.835 6 -34810394.55047  22399492.94347     -1038.931
 -32543627.660 5  23234077.511 5 -24872993.06947  23234070.81647     -1637.441
 15  1  3  3 54 59.9970000  0  7G16G18G21G22G27G29G31
 -27265652.090 7  20196319.136 7 -21160558.47649  20196312.76149      3547.007
 -14701294.488 7  21787760.369 7 -14223204.60248  21787754.58648      4117.866
 -42343119.957 7  20087320.089 7 -32974169.59849  20087313.35849      1063.467
  -4366640.258 5  23575073.148 5  -3378226.09746  23575065.51846      5113.647
 -11602733.188 7  21812146.160 7  -9450737.38248  21812143.25748      4340.830
 -44665682.098 6  22405440.029 6 -34786062.46947  22405434.29647     -1042.666
 -32494469.410 5  23243432.053 5 -24834687.97247  23243427.14047     -1639.570
 15  1  3  3 55 29.9970000  0  7G16G18G21G22G27G29G31
 -27371852.852 7  20176109.800 7 -21243312.31649  20176103.85249      3532.720
 -14824685.090 6  21764279.879 6 -14319353.10948  21764274.39648      4107.896
 -42374837.758 7  20081284.407 7 -32998884.76449  20081278.31249      1050.806
  -4520057.332 5  23545878.931 5  -3497771.92146  23545871.60246      5113.916
 -11732891.457 6  21787377.954 6  -9552159.38348  21787373.54348      4336.182
 -44634354.766 7  22411401.478 7 -34761651.58247  22411396.44747     -1046.064
 -32445260.008 5  23252796.301 5 -24796342.99446  23252791.39546     -1641.260
 15  1  3  3 55 59.9970000  0  7G16G18G21G22G27G29G31
 -27477626.133 7  20155981.800 7 -21325733.04949  20155975.65149      3518.721
 -14947776.977 6  21740856.230 6 -14415268.85248  21740850.43348      4098.106
 -42406177.707 7  20075320.596 7 -33023305.50449  20075314.36149      1038.384
  -4673483.438 5  23516682.833 5  -3617324.72646  23516675.62046      5114.263
 -11862910.258 6  21762636.149 6  -9653472.70348  21762632.75148      4331.597
 -44602925.688 6  22417382.285 6 -34737161.40847  22417377.41347     -1049.272
 -32396001.309 5  23262169.915 5 -24757959.60647  23262164.32547     -1642.759
 15  1  3  3 56 29.9970000  0  7G16G18G21G22G27G29G31
 -27582975.582 7  20135934.478 7 -21407823.53449  20135927.96349      3504.463
 -15070573.336 6  21717488.830 6 -14510954.30948  21717482.98148      4088.145
 -42437146.000 7  20069427.516 7 -33047436.64249  20069420.86649      1026.020
  -4826921.590 4  23487484.479 4  -3736886.88946  23487476.54846      5114.717
 -11992794.441 7  21737919.925 7  -9754681.18148  21737916.39148      4327.065
 -44571400.953 6  22423381.250 6 -34712596.67147  22423376.05047     -1052.456
 -32346701.605 5  23271551.324 5 -24719544.29047  23271545.48147     -1644.038
 15  1  3  3 56 59.9970000  0  7G16G18G21G22G27G29G31
 -27687894.703 7  20115969.058 7 -21489578.68849  20115962.76449      3490.137
 -15193067.945 7  21694178.870 7 -14606404.64648  21694173.16248      4078.027
 -42467740.488 7  20063605.604 7 -33071276.49749  20063598.97149      1013.530
  -4980365.125 5  23458285.200 5  -3856453.36946  23458276.64746      5114.805
 -12122539.586 7  21713230.268 7  -9855781.27448  21713226.85348      4322.456
 -44539777.125 6  22429399.112 6 -34687954.77547  22429393.62947     -1055.840
 -32297359.996 4  23280940.685 4 -24681096.27547  23280935.56347     -1645.478
 15  1  3  3 57 29.9970000  0  7G16G18G21G22G27G29G31
 -27792382.215 7  20096085.750 7 -21570997.53349  20096079.79349      3475.698
 -15315258.434 6  21670926.775 6 -14701618.01248  21670921.26748      4067.920
 -42497962.238 7  20057854.616 7 -33094825.91449  20057848.02949      1001.186
  -5133812.352 5  23429085.125 5  -3976022.59846  23429077.86746      5114.985
 -12252145.242 6  21688567.175 6  -9956772.66848  21688563.07348      4317.847
 -44508054.965 6  22435435.661 6 -34663236.26247  22435430.71847     -1058.979
 -32247979.289 5  23290337.498 5 -24642617.80247  23290332.85147     -1646.611
 15  1  3  3 57 59.9970000  0  7G16G18G21G22G27G29G31
 -27896442.203 8  20076283.821 8 -21652083.22249  20076277.41649      3461.836
 -15437149.059 7  21647731.799 7 -14796597.70048  21647726.08448      4058.340
 -42527819.148 7  20052173.051 7 -33118091.04249  20052166.58349       989.561
  -5287267.293 4  23399883.416 4  -4095597.88346  23399875.62946      5115.566
 -12381617.668 6  21663929.347 6 -10057660.27648  21663925.86448      4313.848
 -44476241.672 6  22441489.519 6 -34638446.64847  22441484.69947     -1061.606
 -32198569.297 5  23299739.921 5 -24604116.54947  23299735.53047     -1647.163
 15  1  3  3 58 29.9970000  0  7G16G18G21G22G27G29G31
 -28000078.223 8  20056562.586 8 -21732838.56749  20056556.41349      3447.334
 -15558742.988 7  21624593.230 7 -14891346.19448  21624587.98148      4048.057
 -42557317.832 7  20046559.618 7 -33141077.02749  20046553.16849       977.202
  -5440732.270 5  23370680.045 5  -4215181.00746  23370672.70046      5115.498
 -12510961.156 6  21639316.045 6 -10158447.40748  21639312.30648      4309.185
 -44444342.695 6  22447559.679 6 -34613590.31947  22447554.56447     -1064.839
 -32149138.020 5  23309146.381 5 -24565598.67047  23309141.30547     -1648.154
 15  1  3  3 58 59.9970000  0  7G16G18G21G22G27G29G31
 -28103270.340 7  20036925.801 7 -21813248.01849  20036919.70149      3432.598
 -15680019.773 6  21601514.987 6 -14985847.59348  21601509.67648      4037.588
 -42586441.293 7  20041017.582 7 -33163770.63749  20041011.39949       964.800
  -5594187.188 5  23341478.393 5  -4334756.24246  23341472.44746      5115.132
 -12640157.160 6  21614730.887 6 -10259119.60248  21614727.31748      4304.370
 -44412340.465 6  22453649.473 6 -34588653.55247  22453645.16847     -1068.140
 -32099669.953 5  23318559.894 5 -24527052.14847  23318555.66047     -1649.224
 15  1  3  3 59 29.9960000  0  7G16G18G21G22G27G29G31
 -28206022.164 7  20017372.778 7 -21893314.36749  20017366.69349      3417.730
 -15800981.277 6  21578496.764 6 -15080103.29548  21578490.94448      4026.831
 -42615198.223 7  20035545.303 7 -33186178.63049  20035538.47449       952.412
  -5747632.523 5  23312278.522 5  -4454324.04546  23312270.67246      5114.775
 -12769209.215 6  21590173.116 6 -10359679.64448  21590169.41248      4299.497
 -44380245.297 6  22459756.982 6 -34563644.34847  22459752.35047     -1071.592
 -32050178.258 5  23327977.906 5 -24488487.20947  23327973.99447     -1650.347
 15  1  3  4  0  0.0000000  0  7G16G18G21G22G27G29G31
 -28308335.313 8  21197073.048 8 -21973038.89549  21197067.59249      3403.135
 -15921631.266 7  22754707.679 7 -15174116.25548  22754702.07748      4016.416
 -42643589.727 7  21229312.428 7 -33208301.87549  21229305.88949       940.386
  -5901074.297 5  24482249.480 5  -4573889.10246  24482242.57546      5114.707
 -12898123.156 6  22764811.376 6 -10460132.06048  22764808.46748      4294.873
 -44348053.375 5  23665052.738 5 -34538559.75247  23665047.97647     -1074.619
 -32000660.582 5  24536570.664 5 -24449902.02347  24536566.12447     -1650.918
 15  1  3  4  0 30.0000000  0  7G16G18G21G22G27G29G31
 -28410205.750 7  21177687.728 7 -22052418.45449  21177681.49249      3388.491
 -16041964.391 7  22731809.049 7 -15267882.30748  22731803.38248      4005.981
 -42671617.230 7  21223978.989 7 -33230141.49049  21223972.85549       928.394
  -6054505.840 6  24453052.334 6  -4693446.12346  24453046.77446      5114.424
 -13026895.156 6  22740306.807 6 -10560473.87748  22740302.95748      4290.220
 -44315767.148 6  23671196.629 6 -34513401.66947  23671192.13647     -1077.588
 -31951122.012 5  24545997.619 5 -24411300.53247  24545992.23547     -1651.313
 15  1  3  4  1  0.0000000  0  7G16G18G21G22G27G29G31
 -28511633.898 7  21158386.595 7 -22131453.38049  21158380.13549      3373.442
 -16161980.449 7  22708970.737 7 -15361401.29548  22708965.14948      3995.049
 -42699284.141 7  21218714.149 7 -33251700.12749  21218707.60349       916.123
  -6207926.547 6  24423857.126 6  -4812994.72746  24423851.71946      5113.726
 -13155526.621 6  22715829.080 6 -10660706.17348  22715825.15648      4285.220
 -44283389.020 6  23677358.005 6 -34488172.02047  23677352.91147     -1080.986
 -31901567.598 5  24555427.610 5 -24372686.72447  24555422.84247     -1652.158
 15  1  3  4  1 30.0000000  0  7G16G18G21G22G27G29G31
 -28612614.094 7  21139170.713 7 -22210139.24349  21139164.59649      3358.330
 -16281673.348 6  22686193.855 6 -15454668.45948  22686188.46548      3984.131
 -42726587.648 7  21213518.448 7 -33272975.58549  21213511.71249       903.892
  -6361330.156 5  24394665.225 5  -4932530.00746  24394658.57046      5112.974
 -13284013.129 6  22691378.947 6 -10760825.49448  22691375.79548      4280.234
 -44250915.992 6  23683537.362 6 -34462868.34647  23683532.99047     -1084.170
 -31851996.441 4  24564860.718 4 -24334059.88546  24564854.76346     -1652.681
 15  1  3  4  2  0.0000000  0  7G16G18G21G22G27G29G31
 -28713148.336 7  21120039.686 7 -22288477.61749  21120033.14149      3343.491
 -16401044.766 6  22663478.150 6 -15547685.13648  22663472.66048      3973.491
 -42753533.113 7  21208390.884 7 -33293972.04749  21208384.22949       892.070
  -6514718.020 5  24365476.472 5  -5052053.03746  24365469.63846      5112.393
 -13412358.055 6  22666955.618 6 -10860834.49948  22666952.09448      4275.605
 -44218352.414 5  23689733.964 5 -34437494.16847  23689730.75447     -1087.080
 -31802415.340 5  24574295.721 5 -24295425.24846  24574291.07046     -1652.964
 15  1  3  4  2 30.0000000  0  7G16G18G21G22G27G29G31
 -28813230.797 7  21100994.605 7 -22366463.94049  21100988.73349      3328.476
 -16520088.559 7  22640824.842 7 -15640446.51548  22640819.07948      3962.617
 -42780118.027 7  21203331.957 7 -33314687.56549  21203325.37049       880.098
  -6668083.914 6  24336291.904 6  -5171558.93246  24336286.03046      5111.729
 -13540556.879 6  22642560.009 6 -10960729.68048  22642556.61448      4270.840
 -44185695.000 5  23695948.423 5 -34412046.84647  23695943.59047     -1090.122
 -31752823.254 5  24583732.792 5 -24256782.10547  24583727.84847     -1653.257
 15  1  3  4  3  0.0000000  0  7G16G18G21G22G27G29G31
 -28912866.023 7  21082034.612 7 -22444101.78249  21082028.67949      3313.643
 -16638808.816 7  22618233.149 7 -15732955.81748  22618226.63748      3951.831
 -42806350.301 7  21198340.139 7 -33335128.29749  21198333.40549       868.491
  -6821431.887 5  24307110.636 5  -5291050.86046  24307104.65746      5111.177
 -13668615.418 6  22618191.211 6 -11060515.53448  22618187.66748      4266.201
 -44152950.633 5  23702179.476 5 -34386531.82747  23702175.10247     -1092.969
 -31703229.520 5  24593170.186 5 -24218137.61946  24593165.52046     -1653.223
 15  1  3  4  3 30.0000000  0  7G16G18G21G22G27G29G31
 -29012049.969 7  21063160.504 7 -22521387.96349  21063154.49549      3298.745
 -16757201.180 7  22595703.919 7 -15825209.58148  22595698.09648      3941.113
 -42832228.703 7  21193415.646 7 -33355293.27649  21193408.98449       856.968
  -6974757.367 5  24277933.755 5  -5410525.29447  24277927.22447      5110.532
 -13796531.004 6  22593849.728 6 -11160189.96848  22593846.10948      4261.704
 -44120117.699 5  23708427.380 5 -34360947.71247  23708423.23847     -1095.762
 -31653634.922 5  24602607.752 5 -24179492.51546  24602603.25446     -1652.964
 15  1  3  4  4  0.0000000  0  7G16G18G21G22G27G29G31
 -29110789.328 7  21044371.026 7 -22598327.73249  21044365.00449      3283.867
 -16875272.156 7  22573235.842 7 -15917212.93148  22573229.28348      3930.249
 -42857763.461 7  21188556.545 7 -33375190.49049  21188550.44649       845.386
  -7128066.328 5  24248760.030 5  -5529986.84746  24248753.72946      5109.946
 -13924311.719 6  22569533.869 6 -11259759.32048  22569530.42748      4257.109
 -44087205.527 5  23714690.383 5 -34335301.88847  23714685.22647     -1098.506
 -31604050.996 5  24612043.289 5 -24140855.71247  24612038.64547     -1652.583
 15  1  3  4  4 30.0000000  0  7G16G18G21G22G27G29G31
 -29209075.828 7  21025667.743 7 -22674914.61949  21025661.33049      3268.574
 -16993013.332 7  22550830.521 7 -16008959.28148  22550824.37148      3919.107
 -42882949.656 7  21183763.760 7 -33394816.10849  21183757.25749       833.691
  -7281349.762 5  24219591.146 5  -5649428.43146  24219584.45546      5108.940
 -14051950.586 6  22545244.917 6 -11359218.17648  22545241.96448      4252.144
 -44054208.086 6  23720969.622 6 -34309589.61947  23720964.85847     -1101.357
 -31554474.125 5  24621477.457 5 -24102224.39546  24621472.86546     -1652.432
 15  1  3  4  5  0.0000000  0  7G16G18G21G22G27G29G31
 -29306904.965 7  21007051.509 7 -22751145.12149  21007045.15749      3253.208
 -17110419.461 7  22528488.882 7 -16100444.56448  22528482.80148      3907.808
 -42907785.523 7  21179037.650 7 -33414168.73549  21179031.02349       821.909
  -7434602.398 6  24190428.177 6  -5768846.10747  24190421.65847      5107.847
 -14179443.781 6  22520983.707 6 -11458563.50748  22520980.11748      4247.187
 -44021122.809 6  23727265.572 6 -34283808.89947  23727261.52347     -1104.395
 -31504903.922 5  24630910.365 5 -24063598.29546  24630905.87046     -1652.197
 15  1  3  4  5 30.0000000  0  7G16G18G21G22G27G29G31
 -29404282.238 7  20988521.228 7 -22827023.51249  20988514.58749      3238.252
 -17227495.645 7  22506210.001 7 -16191672.73748  22506203.95648      3896.821
 -42932279.543 7  21174376.607 7 -33433254.97449  21174369.48349       810.537
  -7587829.320 6  24161270.070 6  -5888243.68246  24161264.02646      5106.846
 -14306798.230 6  22496748.982 6 -11557800.72048  22496745.08448      4242.583
 -43987957.832 6  23733576.682 6 -34257966.05247  23733573.10147     -1106.958
 -31455350.715 5  24640339.924 5 -24024985.42646  24640335.02446     -1651.567
 15  1  3  4  6  0.0000000  0  7G16G18G21G22G27G29G31
 -29501201.723 8  20970078.054 8 -22902545.18249  20970071.60549      3223.218
 -17344235.793 7  22483995.017 7 -16282639.07548  22483989.64348      3885.947
 -42956429.375 7  21169781.054 7 -33452073.02049  21169775.14949       799.517
  -7741023.781 5  24132118.102 5  -6007616.03447  24132111.12547      5106.333
 -14434009.359 6  22472541.544 6 -11656926.25248  22472538.25548      4238.262
 -43954709.371 6  23739903.674 6 -34232058.19647  23739899.66647     -1109.380
 -31405813.531 5  24649766.476 5 -23986384.99446  24649762.44746     -1650.640
 15  1  3  4  6 30.0000000  0  7G16G18G21G22G27G29G31
 -29597670.895 7  20951720.572 7 -22977715.96049  20951714.31749      3208.032
 -17460646.828 7  22461842.691 7 -16373348.96948  22461836.97548      3874.878
 -42980245.504 7  21165248.983 7 -33470631.02749  21165242.59849       788.286
  -7894192.531 6  24102971.065 6  -6126968.32647  24102965.12347      5105.078
 -14561085.773 6  22448359.718 6 -11755946.81448  22448356.58448      4233.623
 -43921387.738 6  23746244.590 6 -34206093.32547  23746240.64647     -1111.992
 -31356304.395 5  24659187.764 5 -23947806.45346  24659182.10146     -1649.873
 15  1  3  4  7  0.0000000  0  7G16G18G21G22G27G29G31
 -29693683.605 7  20933449.954 7 -23052531.07749  20933443.58649      3192.656
 -17576721.734 7  22439754.359 7 -16463796.94948  22439748.54148      3863.403
 -43003724.227 7  21160781.107 7 -33488926.14849  21160774.68749       776.904
  -8047327.867 6  24073830.317 6  -6246294.56247  24073824.69647      5103.804
 -14688021.648 6  22424204.614 6 -11854857.88448  22424201.33648      4228.711
 -43887987.789 5  23752600.437 5 -34180067.41247  23752596.13647     -1114.727
 -31306820.816 5  24668604.234 5 -23909247.83446  24668599.47246     -1649.180
 15  1  3  4  7 30.0000000  0  7G16G18G21G22G27G29G31
 -29789235.125 7  20915267.091 7 -23126986.79149  20915260.21949      3177.510
 -17692456.750 7  22417730.702 7 -16553980.05548  22417724.74148      3852.383
 -43026865.477 7  21156377.447 7 -33506958.29549  21156371.24649       765.981
  -8200426.027 6  24044696.622 6  -6365591.83347  24044691.24547      5102.813
 -14814814.914 6  22400076.677 6 -11953657.82348  22400073.35048      4224.238
 -43854508.656 5  23758971.318 5 -34153979.81747  23758966.62547     -1117.041
 -31257364.578 5  24678015.527 5 -23870710.50846  24678010.34146     -1647.905
 15  1  3  4  8  0.0000000  0  7G16G18G21G22G27G29G31
 -29884322.012 7  20897172.645 7 -23201080.47249  20897166.27349      3162.002
 -17807847.156 7  22395772.623 7 -16643894.64948  22395766.58548      3840.815
 -43049668.500 7  21152038.163 7 -33524726.88649  21152031.79449       754.731
  -8353481.840 5  24015571.060 5  -6484856.08147  24015565.24347      5101.397
 -14941462.570 7  22375976.465 7 -12052344.30148  22375972.83748      4219.414
 -43820948.605 5  23765357.565 5 -34127829.10447  23765353.19447     -1119.834
 -31207935.473 5  24687421.633 5 -23832194.39046  24687415.57946     -1646.899
 15  1  3  4  8 30.0000000  0  7G16G18G21G22G27G29G31
 -29978946.633 7  20879166.173 7 -23274813.94749  20879159.74349      3146.226
 -17922895.469 7  22373879.624 7 -16733542.67148  22373873.89748      3829.023
 -43072138.461 7  21147762.272 7 -33542235.95949  21147755.76849       743.272
  -8506497.602 6  23986453.183 6  -6604089.14647  23986446.90247      5099.575
 -15067968.301 6  22351903.225 6 -12150920.18148  22351899.27148      4214.350
 -43787312.738 5  23771758.303 5 -34101619.36947  23771753.88847     -1122.568
 -31158541.277 5  24696821.050 5 -23793705.40346  24696814.79646     -1646.118
 15  1  3  4  9  0.0000000  0  7G16G18G21G22G27G29G31
 -30073104.277 7  20861248.576 7 -23348183.54349  20861242.39749      3130.615
 -18037595.789 7  22352052.844 7 -16822919.53748  22352046.76948      3817.397
 -43094273.465 7  21143550.121 7 -33559484.02049  21143543.14849       732.109
  -8659466.977 5  23957344.146 5  -6723286.05547  23957338.72747      5098.022
 -15194327.961 6  22327857.733 6 -12249382.23148  22327853.88348      4209.404
 -43753597.539 5  23778174.105 5 -34075347.80347  23778169.71647     -1125.361
 -31109180.566 5  24706214.072 5 -23755242.50846  24706208.52746     -1644.829
 15  1  3  4  9 30.0000000  0  7G16G18G21G22G27G29G31
 -30166796.832 7  20843419.502 7 -23421190.72349  20843413.45349      3115.234
 -18151950.289 7  22330291.908 7 -16912026.92348  22330285.43748      3805.864
 -43116078.707 7  21139400.744 7 -33576475.11949  21139394.46949       721.191
  -8812391.387 5  23928243.609 5  -6842447.90747  23928237.59447      5096.543
 -15320544.926 7  22303839.435 7 -12347733.10248  22303835.80048      4204.785
 -43719807.461 5  23784604.186 5 -34049017.91947  23784600.71947     -1127.642
 -31059860.395 5  24715599.332 5 -23716811.17846  24715593.98046     -1643.457
 15  1  3  4 10  0.0000000  0  7G16G18G21G22G27G29G31
 -30260018.789 7  20825679.968 7 -23493831.21449  20825673.39449      3099.404
 -18265953.230 7  22308597.863 7 -17000860.36648  22308592.13148      3794.165
 -43137552.273 7  21135314.463 7 -33593207.77249  21135308.08349       710.195
  -8965264.598 4  23899152.843 4  -6961569.91247  23899146.11547      5094.761
 -15446614.945 7  22279849.112 7 -12445969.46048  22279845.57348      4199.785
 -43685939.656 4  23791048.977 4 -34022627.46847  23791045.50747     -1130.244
 -31010580.074 6  24724977.021 6 -23678410.93646  24724970.88646     -1642.051
 15  1  3  4 10 30.0000000  0  7G16G18G21G22G27G29G31
 -30352773.398 7  20808029.344 7 -23566107.52349  20808022.89549      3083.926
 -18379607.020 7  22286970.277 7 -17089421.76248  22286964.15748      3782.559
 -43158699.953 7  21131290.195 7 -33609686.49849  21131283.68849       699.404
  -9118089.070 5  23870071.348 5  -7080653.90147  23870065.49247      5093.071
 -15572542.121 7  22255886.006 7 -12544094.50848  22255882.82548      4195.059
 -43651999.551 5  23797507.520 5 -33996180.65847  23797503.38147     -1132.598
 -30961347.199 6  24734345.742 6 -23640047.67746  24734340.38646     -1640.288
 15  1  3  4 11  0.0000000  0  7G16G18G21G22G27G29G31
 -30445056.016 7  20790468.526 7 -23638016.04949  20790462.34549      3067.925
 -18492906.902 7  22265410.033 7 -17177707.37348  22265404.43148      3770.474
 -43179520.598 7  21127328.159 7 -33625910.36749  21127321.59149       688.359
  -9270859.340 5  23841000.127 5  -7199695.66947  23840993.76747      5091.177
 -15698322.766 7  22231950.760 7 -12642105.39648  22231947.46048      4190.083
 -43617984.465 5  23803980.319 5 -33969675.43947  23803975.71847     -1135.303
 -30912161.898 6  24743705.402 6 -23601721.52146  24743699.95946     -1638.901
