     2.11           OBSERVATION DATA    G (GPS)             RINEX VERSION / TYPE
teqc  2013Mar15                         20150104 00:41:37UTCPGM / RUN BY / DATE
Automatic           ASI - Telespazio                        OBSERVER / AGENCY
22774               TRIMBLE 4000SSI     Nav 7.29 Sig 3.07   REC # / TYPE / VERS
27655               TRM29659.00     NONE                    ANT # / TYPE
Linux2.4.20-8|i386|gcc|Win32-MinGW32|=                      COMMENT
     2              OBSERVATION DATA                        COMMENT
DAT2RIN 2.51 TRS    ASI - Telespazio    03JAN15 23:59:47 GMTCOMMENT
----------------------------------------------------------- COMMENT
Offset from BOTTOM OF ANTENNA to PHASE CENTER is 110.0 mm   COMMENT
----------------------------------------------------------- COMMENT
MEDI                                                        MARKER NAME
12711M003                                                   MARKER NUMBER
  4461405.3327   919593.3197  4449500.2118                  APPROX POSITION XYZ
        0.0000        0.0000        0.0000                  ANTENNA: DELTA H/E/N
*** Above antenna height is from mark to BOTTOM OF ANTENNA. COMMENT
     1     1                                                WAVELENGTH FACT L1/2
     5    L1    C1    L2    P2    D1                        # / TYPES OF OBSERV
    30.0000                                                 INTERVAL
  2015     1     3     0     0    0.0000000     GPS         TIME OF FIRST OBS
                                                            END OF HEADER
 15  1  3  0  0  0.0000000  0  8G02G06G12G14G24G25G29G31
 -14255380.329 6  22731960.369 6  -1155353.23046  22731959.47346      -102.841
  -2660613.722 4  24564577.056 4   2586266.31745  24564580.07245     -2328.373
 -20420029.971 8  21493730.268 8 -15287156.86547  21493730.82747     -1820.577
 -14468535.953 6  22887405.881 6 -10408778.51046  22887406.54646     -1501.680
  -8601407.107 5  23303481.061 5  -6549659.04546  23303485.03446     -3382.767
 -25083663.820 8  20623706.596 8 -19027982.62647  20623710.20447       441.339
 -21607278.079 7  21166967.726 7 -16485669.40247  21166969.16047      2078.114
  -9892711.133 6  23412726.879 6  -7395800.88646  23412726.84046      2977.927
 15  1  3  0  0 30.0000000  0  8G02G06G12G14G24G25G29G31
 -14252034.307 6  22732597.077 6  -1152745.93346  22732596.65546      -120.213
  -2590543.787 3  24577910.905 3   2640866.24645  24577915.11745     -2342.924
 -20365294.767 7  21504146.053 7 -15244506.07147  21504146.74947     -1828.439
 -14423240.717 6  22896025.272 6 -10373483.52646  22896026.29146     -1517.988
  -8499810.725 5  23322814.213 5  -6470493.04546  23322817.83146     -3390.302
 -25096746.542 8  20621217.039 8 -19038176.95847  20621220.63047       430.836
 -21669408.280 7  21155144.719 7 -16534082.53747  21155146.00247      2063.900
  -9981936.904 6  23395747.773 6  -7465327.44446  23395748.30346      2970.432
 15  1  3  0  1  0.0000000  0  8G02G06G12G14G24G25G29G31
 -14248166.974 6  22733332.985 6  -1149732.42146  22733332.03746      -137.609
  -2520038.805 3  24591327.459 3   2695805.25545  24591331.25445     -2357.402
 -20310324.373 7  21514606.593 7 -15201672.01847  21514607.10047     -1836.257
 -14377457.743 6  22904737.459 6 -10337808.49546  22904737.84246     -1534.204
  -8397988.762 5  23342190.269 5  -6391151.28546  23342193.83146     -3397.814
 -25109513.854 8  20618787.510 8 -19048125.51247  20618791.07947       420.313
 -21731111.770 7  21143402.931 7 -16582163.16447  21143404.16347      2049.657
 -10070936.861 6  23378811.653 6  -7534678.05746  23378811.79046      2962.875
 15  1  3  0  1 30.0000000  0  8G02G06G12G14G24G25G29G31
 -14243778.080 6  22734168.142 6  -1146312.49346  22734167.77546      -154.984
  -2449101.139 3  24604826.415 3   2751081.26045  24604833.70645     -2371.773
 -20255118.733 8  21525111.894 8 -15158654.65347  21525112.54047     -1844.102
 -14331188.896 6  22913542.169 6 -10301754.86746  22913543.45746     -1550.385
  -8295942.900 5  23361608.961 5  -6311635.06346  23361612.32046     -3405.270
 -25121965.438 8  20616418.056 8 -19057828.04847  20616421.69147       409.787
 -21792387.332 7  21131742.582 7 -16629910.34747  21131744.01847      2035.376
 -10159708.316 6  23361918.999 6  -7603850.62146  23361920.06346      2955.211
 15  1  3  0  2  0.0000000  0  8G02G06G12G14G24G25G29G31
 -14238867.506 6  22735102.567 6  -1142486.05846  22735101.68246      -172.387
  -2377732.978 3  24618407.347 3   2806692.83845  24618411.57245     -2386.113
 -20199677.880 8  21535661.961 8 -15115453.99747  21535662.65447     -1851.944
 -14284436.234 6  22922438.895 6 -10265324.24545  22922440.97345     -1566.463
  -8193675.070 5  23381069.865 5  -6231945.85046  23381074.32046     -3412.624
 -25134100.902 8  20614108.757 8 -19067284.25447  20614112.56747       399.241
 -21853234.220 7  21120163.806 7 -16677323.49047  21120164.86347      2021.068
 -10248248.916 6  23345070.267 6  -7672843.28546  23345070.04246      2947.490
 15  1  3  0  2 30.0000000  0  8G02G06G12G14G24G25G29G31
 -14233435.354 6  22736136.258 6  -1138253.21546  22736135.46146      -189.752
  -2305936.677 3  24632069.692 3   2862638.02445  24632073.91045     -2400.303
 -20144002.657 7  21546256.638 7 -15072070.72847  21546257.05247     -1859.732
 -14237202.142 6  22931427.266 6 -10228518.46945  22931429.16645     -1582.475
  -8091186.893 5  23400572.740 5  -6152084.95245  23400577.05345     -3419.891
 -25145919.886 8  20611859.677 8 -19076493.84747  20611863.31447       388.686
 -21913651.412 7  21108666.796 7 -16724401.80747  21108667.91447      2006.734
 -10336556.592 6  23328265.861 6  -7741654.44846  23328266.57046      2939.677
 15  1  3  0  3  0.0000000  0  8G02G06G12G14G24G25G29G31
 -14227481.548 6  22737269.207 6  -1133613.87246  22737268.24346      -207.160
  -2233714.429 3  24645813.210 3   2918915.12645  24645818.87945     -2414.471
 -20088093.931 7  21556895.732 7 -15028505.50347  21556896.29047     -1867.520
 -14189488.744 6  22940506.839 6 -10191339.21746  22940508.59546     -1598.395
  -7988480.873 5  23420117.054 5  -6072054.31346  23420120.79646     -3427.176
 -25157422.066 8  20609670.879 8 -19085456.58347  20609674.60647       378.125
 -21973638.298 7  21097251.653 7 -16771144.83247  21097253.04147      1992.376
 -10424629.037 6  23311506.230 6  -7810282.30646  23311506.78846      2931.799
 15  1  3  0  3 30.0000000  0  8G02G06G12G14G24G25G29G31
 -14221006.018 6  22738501.459 6  -1128567.99646  22738500.83446      -224.549
  -2161068.557 3  24659637.224 3   2975522.23445  24659639.20745     -2428.573
 -20031952.469 7  21567579.135 7 -14984758.93747  21567579.63347     -1875.262
 -14141298.069 6  22949677.214 6 -10153788.07245  22949678.22845     -1614.288
  -7885558.695 5  23439702.477 5  -5991855.23445  23439707.39245     -3434.308
 -25168607.059 8  20607542.442 8 -19094172.16947  20607546.22747       367.547
 -22033193.961 7  21085918.572 7 -16817551.82647  21085919.58847      1977.991
 -10512463.773 6  23294791.846 6  -7878724.95446  23294792.95146      2923.838
 15  1  3  0  4  0.0000000  0  8G02G06G12G14G24G25G29G31
 -14214008.720 6  22739832.989 6  -1123115.53846  22739832.26746      -241.943
  -2088001.408 3  24673541.468 3   3032457.64545  24673547.76945     -2442.531
 -19975577.901 7  21578306.879 7 -14940830.70547  21578307.41847     -1883.025
 -14092632.476 5  22958937.945 5 -10115866.81945  22958938.36145     -1630.069
  -7782422.340 5  23459328.703 5  -5911489.23046  23459332.41546     -3441.430
 -25179474.533 8  20605474.433 8 -19102640.32847  20605478.18247       356.950
 -22092317.571 7  21074667.720 7 -16863622.16647  21074668.87447      1963.587
 -10600058.920 6  23278123.035 6  -7946980.91246  23278123.77546      2915.824
 15  1  3  0  4 30.0000000  0  8G02G06G12G14G24G25G29G31
 -14206489.956 6  22741263.773 6  -1117256.74846  22741263.79846      -259.310
  -2014515.339 2  24687525.440 2   3089719.57745  24687527.05045     -2456.444
 -19918971.037 7  21589078.816 7 -14896721.48347  21589079.03947     -1890.749
 -14043494.232 5  22968288.668 5 -10077577.30546  22968289.95846     -1645.810
  -7679073.582 5  23478995.346 5  -5830957.75346  23478999.88146     -3448.457
 -25190024.098 8  20603466.915 8 -19110860.76947  20603470.64747       346.349
 -22151008.802 7  21063499.165 7 -16909355.58747  21063500.35047      1949.143
 -10687411.923 6  23261500.306 6  -8015048.15246  23261500.36346      2907.700
 15  1  3  0  5  0.0000000  0  8G02G06G12G14G24G25G29G31
 -14198449.736 6  22742793.784 6  -1110991.63446  22742793.00446      -276.701
  -1940612.526 3  24701588.618 3   3147306.12545  24701593.62145     -2470.365
 -19862132.274 7  21599894.873 7 -14852431.55047  21599895.37747     -1898.488
 -13993885.183 6  22977728.969 6 -10038920.91945  22977730.55945     -1661.446
  -7575514.802 5  23498701.951 5  -5750262.61546  23498706.05946     -3455.440
 -25200255.415 8  20601519.945 8 -19118833.22247  20601523.73347       335.739
 -22209266.210 7  21052413.154 7 -16954750.95647  21052414.24547      1934.679
 -10774520.378 6  23244924.129 6  -8082924.85046  23244924.41446      2899.507
 15  1  3  0  5 30.0000000  0  8G02G06G12G14G24G25G29G31
 -14189888.158 6  22744422.999 6  -1104320.26146  22744422.27946      -294.078
  -1866295.351 3  24715730.685 3   3205215.65345  24715728.95145     -2484.117
 -19805062.111 7  21610754.978 7 -14807961.31547  21610755.27147     -1906.181
 -13943807.928 5  22987258.357 5  -9999899.68345  22987258.88945     -1677.052
  -7471747.398 5  23518448.234 5  -5669404.92346  23518453.06646     -3462.346
 -25210168.129 8  20599633.609 8 -19126557.42047  20599637.26247       325.108
 -22267089.301 8  21041409.782 8 -16999807.90247  21041410.67847      1920.190
 -10861381.609 6  23228394.969 6  -8150608.91446  23228396.10546      2891.242
 15  1  3  0  6  0.0000000  0  8G02G06G12G14G24G25G29G31
 -14180805.119 6  22746151.437 6  -1097242.56646  22746150.56846      -311.491
  -1791566.224 3  24729951.200 3   3263446.10545  24729955.05145     -2497.784
 -19747761.118 7  21621658.998 7 -14763311.20647  21621659.54247     -1913.879
 -13893264.520 5  22996876.448 5  -9960515.23545  22996878.32245     -1692.496
  -7367773.854 5  23538233.757 5  -5588386.60546  23538238.30346     -3469.185
 -25219761.864 8  20597807.970 8 -19134033.05547  20597811.63547       314.470
 -22324477.143 8  21030489.243 8 -17044525.69347  21030490.25147      1905.666
 -10947994.155 6  23211913.129 6  -8218099.20846  23211913.33446      2882.896
 15  1  3  0  6 30.0000000  0  8G02G06G12G14G24G25G29G31
 -14171200.841 6  22747979.081 6  -1089758.70946  22747978.24446      -328.809
  -1716427.460 3  24744249.570 3   3321995.83745  24744256.26145     -2511.417
 -19690229.618 7  21632606.889 7 -14718481.48047  21632607.66247     -1921.558
 -13842257.472 5  23006582.782 5  -9920769.51745  23006584.23245     -1707.949
  -7263596.041 5  23558058.159 5  -5507209.07846  23558061.87046     -3476.017
 -25229036.298 8  20596043.099 8 -19141259.89147  20596046.94747       303.822
 -22381429.293 8  21019651.607 8 -17088903.98047  21019652.68147      1891.135
 -11034355.319 6  23195479.107 6  -8285393.58446  23195479.26146      2874.475
 15  1  3  0  7  0.0000000  0  8G02G06G12G14G24G25G29G31
 -14161075.857 6  22749905.797 6  -1081869.10546  22749904.66546      -346.186
  -1640881.393 3  24758625.508 3   3380862.91345  24758628.20945     -2524.964
 -19632467.957 7  21643598.581 7 -14673472.40947  21643599.18147     -1929.210
 -13790788.931 5  23016376.906 5  -9880664.16345  23016378.23245     -1723.301
  -7159215.656 5  23577921.102 5  -5425873.75645  23577924.40045     -3482.726
 -25237991.070 8  20594339.065 8 -19148237.63747  20594342.93447       293.162
 -22437944.847 8  21008897.052 8 -17132942.07047  21008898.38147      1876.564
 -11120462.806 6  23179093.394 6  -8352490.32146  23179094.44046      2865.991
 15  1  3  0  7 30.0000000  0  8G02G06G12G14G24G25G29G31
 -14150430.199 6  22751931.593 6  -1073573.78646  22751930.74246      -363.541
  -1564930.412 3  24773078.531 3   3440045.49645  24773081.38745     -2538.408
 -19574476.691 7  21654633.955 7 -14628284.42947  21654634.41547     -1936.869
 -13738861.217 5  23026258.415 5  -9840201.03845  23026258.57445     -1738.569
  -7054634.560 5  23597822.239 5  -5344381.99045  23597825.42545     -3489.368
 -25246625.785 8  20592695.936 8 -19154965.99647  20592699.75947       282.494
 -22494023.009 8  20998225.738 8 -17176639.32447  20998226.95547      1861.974
 -11206314.194 6  23162756.399 6  -8419387.48946  23162757.33446      2857.390
 15  1  3  0  8  0.0000000  0  8G02G06G12G14G24G25G29G31
 -14139263.688 6  22754056.493 6  -1064872.60146  22754055.75146      -380.886
  -1488576.953 4  24787608.162 4   3499541.73645  24787611.91245     -2551.784
 -19516257.031 7  21665712.793 7 -14582918.47547  21665713.14547     -1944.451
 -13686476.438 5  23036226.940 5  -9799381.76545  23036228.44645     -1753.748
  -6949855.298 5  23617761.103 5  -5262735.86045  23617765.06745     -3495.947
 -25254940.151 8  20591113.767 8 -19161444.72147  20591117.54247       271.796
 -22549663.317 8  20987637.731 8 -17219995.40547  20987638.91747      1847.379
 -11291907.052 6  23146468.596 6  -8486083.22546  23146469.54546      2848.772
 15  1  3  0  8 30.0000000  0  8G02G06G12G14G24G25G29G31
 -14127576.751 6  22756280.431 6  -1055765.89146  22756279.63746      -398.235
  -1411823.444 4  24802213.920 4   3559349.71645  24802215.26645     -2565.104
 -19457808.884 7  21676835.114 7 -14537374.47747  21676835.78347     -1952.092
 -13633637.163 5  23046281.928 5  -9758208.31745  23046283.04645     -1768.857
  -6844879.727 5  23637737.319 5  -5180936.71745  23637741.44645     -3502.418
 -25262933.768 8  20589592.648 8 -19167673.51947  20589596.51247       261.114
 -22604865.119 8  20977133.165 8 -17263009.78947  20977134.23047      1832.736
 -11377239.627 6  23130230.304 6  -8552576.11746  23130230.39046      2840.031
 15  1  3  0  9  0.0000000  0  8G02G06G12G14G24G25G29G31
 -14115369.622 6  22758603.378 6  -1046253.83346  22758603.06646      -415.566
  -1334672.227 5  24816895.283 5   3619467.51745  24816899.31245     -2578.294
 -19399131.943 7  21688000.973 7 -14491652.19747  21688001.71947     -1959.701
 -13580345.762 5  23056422.947 5  -9716682.54445  23056424.97345     -1783.905
  -6739709.888 5  23657750.504 5  -5098986.22145  23657753.83145     -3508.889
 -25270606.296 8  20588132.622 8 -19173652.11347  20588136.19947       250.388
 -22659627.679 8  20966712.193 8 -17305681.90547  20966713.23647      1818.083
 -11462308.670 6  23114042.196 6  -8618863.69046  23114043.15846      2831.233
 15  1  3  0  9 30.0000000  0  8G02G06G12G14G24G25G29G31
 -14102642.740 6  22761025.227 6  -1036336.78546  22761024.49446      -432.891
  -1257125.699 4  24831651.914 4   3679893.43845  24831652.82445     -2591.460
 -19340227.435 7  21699210.132 7 -14445752.59947  21699210.65647     -1967.269
 -13526604.334 6  23066649.663 6  -9674806.13545  23066650.82845     -1798.880
  -6634347.452 5  23677800.336 5  -5016885.62445  23677804.82145     -3515.259
 -25277957.381 8  20586733.766 8 -19179380.23547  20586737.29547       239.676
 -22713950.232 8  20956374.965 8 -17348011.16347  20956376.04847      1803.405
 -11547112.677 6  23097904.535 6  -8684944.72946  23097905.79946      2822.350
 15  1  3  0 10  0.0000000  0  8G02G06G12G14G24G25G29G31
 -14089396.138 6  22763545.973 6  -1026014.75446  22763545.37746      -450.225
  -1179186.325 5  24846483.295 5   3740625.51245  24846488.21845     -2604.496
 -19281095.754 7  21710462.526 7 -14399675.97847  21710463.52947     -1974.839
 -13472415.673 5  23076961.487 5  -9632581.24545  23076963.11345     -1813.709
  -6528794.699 5  23697886.349 5  -4934636.72245  23697889.65345     -3521.575
 -25284986.677 8  20585396.141 8 -19184857.61847  20585399.76947       228.937
 -22767831.934 8  20946121.602 8 -17389996.89547  20946122.79447      1788.704
 -11631649.200 6  23081817.767 6  -8750817.32746  23081818.13646      2813.389
 15  1  3  0 10 30.0000000  0  8G02G06G12G14G24G25G29G31
 -14075630.208 6  22766165.538 6  -1015288.05046  22766164.30146      -467.525
  -1100856.464 5  24861388.992 5   3801661.81145  24861396.14945     -2617.482
 -19221737.370 7  21721758.052 7 -14353422.71047  21721758.88747     -1982.375
 -13417782.183 5  23087357.929 5  -9590009.69245  23087359.25045     -1828.519
  -6423053.662 5  23718008.195 5  -4852241.14145  23718012.33545     -3527.819
 -25291693.817 8  20584119.822 8 -19190083.96547  20584123.52947       218.187
 -22821272.373 8  20935952.227 8 -17431638.78947  20935953.28247      1773.988
 -11715915.686 6  23065782.378 6  -8816479.51746  23065783.30646      2804.363
 15  1  3  0 11  0.0000000  0  8G02G06G12G14G24G25G29G31
 -14061345.279 6  22768883.862 6  -1004156.94246  22768883.28646      -484.806
  -1022138.654 5  24876368.467 5   3863000.30745  24876372.23845     -2630.373
 -19162152.969 7  21733096.576 7 -14306993.31747  21733097.00947     -1989.909
 -13362705.853 5  23097838.614 5  -9547093.08645  23097839.27945     -1843.222
  -6317125.662 5  23738165.654 5  -4769699.86345  23738169.44545     -3534.012
 -25298078.449 8  20582904.865 8 -19195059.00347  20582908.68847       207.432
 -22874270.656 8  20925866.972 8 -17472936.14447  20925867.96947      1759.243
 -11799909.597 6  23049798.869 6  -8881929.32746  23049799.66346      2795.218
 15  1  3  0 11 30.0000000  0  8G02G06G12G14G24G25G29G31
 -14046541.928 6  22771700.849 6   -992621.85646  22771700.39146      -502.088
   -943035.237 5  24891421.355 5   3924639.47345  24891430.88945     -2643.185
 -19102342.295 7  21744478.180 7 -14260387.61047  21744479.20947     -1997.455
 -13307189.184 5  23108403.105 5  -9503833.37445  23108403.62345     -1857.879
  -6211013.637 5  23758358.146 5  -4687015.17345  23758362.12645     -3540.134
 -25304140.240 8  20581751.344 8 -19199782.48447  20581755.05947       196.675
 -22926826.522 8  20915865.929 8 -17513888.76147  20915867.15447      1744.484
 -11883628.784 6  23033867.619 6  -8947165.05846  23033868.82446      2786.036
 15  1  3  0 12  0.0000000  0  8G02G06G12G14G24G25G29G31
 -14031220.142 6  22774616.464 6   -980682.80046  22774615.37846      -519.370
   -863548.771 5  24906547.140 5   3986576.96145  24906547.94245     -2655.911
 -19042306.157 7  21755902.701 7 -14213606.22547  21755903.36347     -2004.957
 -13251234.760 5  23119050.893 5  -9460232.55046  23119051.82346     -1872.409
  -6104719.453 5  23778585.245 5  -4604188.57245  23778587.57545     -3546.131
 -25309878.824 8  20580659.335 8 -19204254.11547  20580663.15847       185.898
 -22978939.306 8  20905949.197 8 -17554496.12047  20905950.21747      1729.700
 -11967071.076 6  23017989.112 6  -9012185.03546  23017989.77946      2776.765
 15  1  3  0 12 30.0000000  0  8G02G06G12G14G24G25G29G31
 -14015380.506 6  22777630.632 6   -968340.22346  22777630.12146      -536.614
   -783681.665 4  24921745.310 4   4048811.03745  24921749.33545     -2668.545
 -18982045.472 7  21767369.940 7 -14166649.85547  21767370.68247     -2012.448
 -13194845.293 5  23129781.514 5  -9416292.71945  23129783.62645     -1886.868
  -5998244.838 5  23798846.692 5  -4521221.32845  23798850.78445     -3552.144
 -25315293.844 8  20579628.898 8 -19208473.60847  20579632.55847       175.109
 -23030608.508 8  20896116.860 8 -17594757.82947  20896117.94847      1714.907
 -12050233.822 6  23002163.788 6  -9076987.17446  23002164.30546      2767.411
 15  1  3  0 13  0.0000000  0  8G02G06G12G14G24G25G29G31
 -13999023.201 6  22780743.317 6   -955594.26246  22780742.32846      -553.866
   -703436.360 4  24937015.468 4   4111339.90345  24937019.98845     -2681.119
 -18921560.066 7  21778879.942 7 -14119518.38647  21778880.81047     -2019.876
 -13138023.008 5  23140594.486 5  -9372015.64245  23140595.77845     -1901.246
  -5891591.981 5  23819142.022 5  -4438115.20845  23819146.95545     -3558.045
 -25320384.971 8  20578660.093 8 -19212440.72847  20578663.88247       164.301
 -23081833.543 8  20886369.047 8 -17634673.44047  20886370.12647      1700.104
 -12133114.941 6  22986392.017 6  -9141569.86746  22986392.73546      2757.991
 15  1  3  0 13 30.0000000  0  8G02G06G12G14G24G25G29G31
 -13982148.833 6  22783954.422 6   -942445.39846  22783953.85546      -571.101
   -622815.332 4  24952357.121 4   4174161.53645  24952363.92845     -2693.612
 -18860851.314 7  21790432.422 7 -14072212.89647  21790433.06547     -2027.342
 -13080770.412 5  23151489.317 5  -9327403.23945  23151490.16045     -1915.572
  -5784762.981 5  23839470.973 5  -4354871.89845  23839473.77645     -3563.871
 -25325151.848 8  20577752.995 8 -19216155.18147  20577756.56147       153.481
 -23132614.017 8  20876705.846 8 -17674242.63147  20876706.93247      1685.255
 -12215712.429 6  22970674.227 6  -9205931.55346  22970675.19546      2748.491
 15  1  3  0 14  0.0000000  0  8G02G06G12G14G24G25G29G31
 -13964757.650 6  22787263.844 6   -928893.82746  22787263.24946      -588.316
   -541821.115 4  24967769.821 4   4237273.86245  24967773.01745     -2705.999
 -18799918.730 7  21802027.512 7 -14024732.96847  21802027.98147     -2034.826
 -13023089.833 5  23162465.569 5  -9282457.36545  23162467.30145     -1929.797
  -5677759.349 5  23859833.040 5  -4271492.42945  23859838.88945     -3569.673
 -25329594.119 8  20576907.660 8 -19219616.70147  20576911.40447       142.660
 -23182949.092 8  20867127.399 8 -17713464.76047  20867128.43847      1670.401
 -12298023.633 6  22955010.927 6  -9270070.13946  22955011.23346      2738.908
 15  1  3  0 14 30.0000000  0  8G02G06G12G14G24G25G29G31
 -13946850.487 6  22790671.468 6   -914940.19146  22790670.75646      -605.511
   -460456.190 3  24983253.051 3   4300675.13245  24983256.44345     -2718.290
 -18738762.492 7  21813665.166 7 -13977078.77247  21813665.96047     -2042.264
 -12964983.924 5  23173522.719 5  -9237180.03745  23173523.83245     -1943.923
  -5570583.458 5  23880227.994 5  -4187978.80145  23880232.64145     -3575.374
 -25333711.438 8  20576124.172 8 -19222825.00247  20576127.95347       131.822
 -23232838.166 8  20857633.818 8 -17752339.35647  20857634.70547      1655.514
 -12380045.961 6  22939402.622 6  -9333983.64246  22939402.85746      2729.222
 15  1  3  0 15  0.0000000  0  8G02G06G12G14G24G25G29G31
 -13928427.521 6  22794177.237 6   -900584.64446  22794176.76946      -622.691
   -378723.019 3  24998806.320 3   4364363.39445  24998808.44245     -2730.556
 -18677383.478 7  21825345.205 7 -13929250.98947  21825345.93047     -2049.648
 -12906455.498 5  23184660.298 5  -9191573.51245  23184660.95745     -1957.972
  -5463237.682 5  23900655.271 5  -4104332.74745  23900660.36345     -3581.010
 -25337503.491 8  20575402.564 8 -19225779.85147  20575406.18247       120.972
 -23282280.705 8  20848225.220 8 -17790866.00047  20848226.58247      1640.648
 -12461776.888 6  22923849.755 6  -9397670.07546  22923850.15646      2719.496
 15  1  3  0 15 30.0000000  0  8G02G06G12G14G24G25G29G31
 -13909489.311 6  22797781.047 6   -885827.60046  22797780.34146      -639.863
   -296624.185 3  25014429.162 3   4428336.47445  25014431.70745     -2742.680
 -18615783.053 7  21837067.382 7 -13881250.68347  21837068.56747     -2057.051
 -12847506.752 5  23195877.898 5  -9145639.44045  23195878.54745     -1971.933
  -5355723.656 5  23921114.557 5  -4020555.62845  23921119.04745     -3586.598
 -25340969.878 8  20574742.932 8 -19228480.93347  20574746.75947       110.117
 -23331276.645 8  20838901.592 8 -17829044.64847  20838902.45147      1625.741
 -12543214.461 6  22908352.706 6  -9461127.92646  22908352.92646      2709.674
 15  1  3  0 16  0.0000000  0  8G02G06G12G14G24G25G29G31
 -13890036.131 6  22801482.841 6   -870669.26946  22801481.73446      -657.020
   -214162.065 2  25030121.071 2   4492592.71045  25030126.78445     -2754.732
 -18553960.499 7  21848831.844 7 -13833077.27547  21848832.67547     -2064.446
 -12788140.072 5  23207175.016 5  -9099379.71545  23207177.24145     -1985.812
  -5248043.670 5  23941605.402 5  -3936649.16345  23941610.10745     -3592.095
 -25344110.277 8  20574145.331 8 -19230928.00047  20574149.08447        99.253
 -23379825.299 8  20829663.083 8 -17866874.76047  20829664.18847      1610.821
 -12624356.385 6  22892911.895 6  -9524355.39546  22892913.00146      2699.778
 15  1  3  0 16 30.0000000  0  8G02G06G12G14G24G25G29G31
 -13870068.784 6  22805282.504 6   -855110.29446  22805281.47346      -674.134
   -131339.285 2  25045881.674 2   4557129.97945  25045884.61045     -2766.736
 -18491916.286 7  21860638.499 7 -13784731.15247  21860639.45947     -2071.825
 -12728358.354 5  23218551.104 5  -9052796.58345  23218552.98145     -1999.615
  -5140199.775 5  23962127.421 5  -3852614.97045  23962130.39745     -3597.506
 -25346924.371 8  20573609.817 8 -19233120.80647  20573613.70547        88.350
 -23427926.179 8  20820509.777 8 -17904355.95447  20820510.65447      1595.893
 -12705200.438 6  22877527.780 6  -9587350.75546  22877528.01246      2689.809
 15  1  3  0 17  0.0000000  0  8G02G06G12G14G24G25G29G31
 -13849587.867 6  22809179.912 6   -839151.13246  22809179.08946      -691.253
    -48158.283 2  25061710.484 2   4621946.27145  25061715.92045     -2778.660
 -18429651.313 7  21872487.141 7 -13736213.01446  21872487.88346     -2079.175
 -12668164.228 5  23230005.706 5  -9005892.08845  23230007.53345     -2013.327
  -5032193.958 5  23982680.245 5  -3768454.60745  23982685.44045     -3602.840
 -25349411.793 8  20573136.473 8 -19235059.05947  20573140.37347        77.453
 -23475578.833 8  20811441.775 8 -17941487.89447  20811442.97847      1580.938
 -12785743.964 6  22862200.836 6  -9650111.92546  22862201.16546      2679.745
 15  1  3  0 17 30.0000000  0  8G02G06G12G14G24G25G29G31
 -13828593.845 6  22813174.934 6   -822792.15846  22813174.14646      -708.351
     35378.298 3  25077607.025 3   4687039.74945  25077611.15345     -2790.458
 -18367165.879 7  21884377.738 7 -13687523.08546  21884378.38746     -2086.520
 -12607560.274 5  23241538.289 5  -8958668.26945  23241540.26745     -2026.939
  -4924027.830 5  24003263.573 5  -3684169.31245  24003268.20245     -3608.180
 -25351572.178 8  20572725.378 8 -19236742.47847  20572729.18247        66.559
 -23522782.704 8  20802459.175 8 -17978270.11947  20802460.09047      1565.984
 -12865984.701 6  22846931.519 6  -9712637.17146  22846932.20346      2669.617
 15  1  3  0 18  0.0000000  0  8G02G06G12G14G24G25G29G31
 -13807087.334 6  22817267.502 6   -806033.83846  22817266.72246      -725.426
    119267.950 2  25093570.750 2   4752408.36245  25093575.16145     -2802.174
 -18304460.635 7  21896310.165 7 -13638661.86646  21896310.74546     -2093.843
 -12546549.157 5  23253148.349 5  -8911127.16445  23253149.94845     -2040.467
  -4815703.884 5  24023876.962 5  -3599761.08645  24023883.49145     -3613.400
 -25353405.224 8  20572376.577 8 -19238170.83047  20572380.45247        55.636
 -23569537.593 8  20793562.012 8 -18014702.48947  20793563.07747      1550.998
 -12945920.414 6  22831720.241 6  -9774924.73346  22831720.89546      2659.404
 15  1  3  0 18 30.0000000  0  8G02G06G12G14G24G25G29G31
 -13785068.890 6  22821457.476 6   -788876.60746  22821456.59946      -742.474
    203508.237 1  25109601.007 1   4818049.92144  25109607.36644     -2813.813
 -18241536.120 7  21908284.323 7 -13589629.79746  21908284.92546     -2101.120
 -12485133.311 5  23264835.387 5  -8863270.68245  23264837.16845     -2053.908
  -4707224.122 5  24044520.004 5  -3515231.41445  24044524.13945     -3618.568
 -25354910.575 8  20572090.128 8 -19239343.83647  20572093.78447        44.707
 -23615842.951 8  20784750.385 8 -18050784.57647  20784751.41547      1536.019
 -13025548.745 6  22816567.478 6  -9836972.77346  22816567.89246      2649.130
 15  1  3  0 19  0.0000000  0  8G02G06G12G14G24G25G29G31
 -13762539.412 6  22825744.698 6   -771321.17446  22825743.45346      -759.474
    288096.504 1  25125697.679 1   4883962.82944  25125704.23544     -2825.399
 -18178392.579 7  21920300.157 7 -13540427.05746  21920301.12346     -2108.442
 -12423315.344 5  23276598.941 5  -8815100.87945  23276600.53245     -2067.282
  -4598590.621 5  24065192.194 5  -3430581.92845  24065199.21145     -3623.628
 -25356087.886 8  20571866.101 8 -19240261.22247  20571870.01147        33.778
 -23661698.399 8  20776024.383 8 -18086516.08447  20776025.48147      1521.005
 -13104867.328 6  22801473.665 6  -9898779.44146  22801474.10246      2638.756
 15  1  3  0 19 30.0000000  0  7G02G12G14G24G25G29G31
 -13739499.458 6  22830129.070 6   -753367.96246  22830128.44046      -776.520
 -18115029.687 7  21932357.724 7 -13491053.39246  21932358.32446     -2115.734
 -12361098.059 5  23288438.498 5  -8766619.88745  23288440.24245     -2080.536
  -4489805.443 5  24085893.402 5  -3345814.25645  24085895.81645     -3628.688
 -25356936.813 8  20571704.556 8 -19240922.73147  20571708.31747        22.818
 -23707103.546 8  20767384.065 8 -18121896.70747  20767385.17347      1505.989
 -13183873.636 6  22786439.260 6  -9960342.79046  22786439.53846      2628.307
 15  1  3  0 20  0.0000000  0  8G02G06G12G14G24G25G29G31
 -13715949.216 6  22834610.515 6   -735017.11646  22834609.46046      -793.507
     65405.879 1  25158087.688 1                                     -2848.246
 -18051448.767 7  21944456.792 7 -13441509.82846  21944457.58046     -2122.993
 -12298484.095 5  23300353.617 5  -8717829.83145  23300355.82045     -2093.724
  -4380870.561 5  24106623.054 5  -3260929.96145  24106627.23645     -3633.639
 -25357457.058 8  20571605.552 8 -19241328.11747  20571609.18547        11.870
 -23752058.243 8  20758829.453 8 -18156926.33647  20758830.47747      1490.981
 -13262565.453 6  22771464.695 6 -10021661.06546  22771464.87446      2617.796
 15  1  3  0 20 30.0000000  0  8G02G06G12G14G24G25G29G31
 -13691889.649 6  22839188.892 6   -716269.40046  22839187.91946      -810.459
    151022.821 2  25174380.028 2                                     -2859.517
 -17987650.101 7  21956597.292 7 -13391796.60346  21956597.87446     -2130.243
 -12235475.905 5  23312343.699 5  -8668732.55545  23312345.70345     -2106.816
  -4271788.393 5  24127380.676 5  -3175930.87445  24127387.93445     -3638.505
 -25357648.224 8  20571569.181 8 -19241477.07947  20571572.88647          .892
 -23796562.048 8  20750360.656 8 -18191604.61847  20750361.58747      1475.926
 -13340940.449 6  22756550.437 6 -10082732.48946  22756550.44346      2607.197
 15  1  3  0 21  0.0000000  0  8G02G06G12G14G24G25G29G31
 -13667321.693 6  22843864.027 6   -697125.54146  22843862.96846      -827.391
    236977.528 2  25190736.662 2     40215.43545  25190740.87845     -2870.766
 -17923634.180 7  21968779.144 7 -13341914.07946  21968779.74546     -2137.484
 -12172076.248 5  23324408.272 5  -8619330.24945  23324408.74045     -2119.817
  -4162560.513 5  24148166.049 5  -3090818.24045  24148173.40745     -3643.333
 -25357510.011 8  20571595.479 8 -19241369.38347  20571598.99747       -10.095
 -23840614.385 8  20741977.777 8 -18225931.10147  20741978.78347      1460.884
 -13418996.393 6  22741696.875 6 -10143555.29946  22741697.44246      2596.515
 15  1  3  0 21 30.0000000  0  8G02G06G12G14G24G25G29G31
 -13642245.870 6  22848635.787 6   -677585.94946  22848635.41146      -844.329
    323267.484 2  25207157.076 2    107454.29145  25207158.54945     -2881.884
 -17859401.114 7  21981002.302 7 -13291862.35446  21981003.26646     -2144.707
 -12108287.970 5  23336546.819 5  -8569625.14045  23336549.37145     -2132.721
  -4053189.128 4  24168978.684 4  -3005593.79545  24168982.57945     -3648.057
 -25357042.087 8  20571684.524 8 -19241004.76947  20571687.89547       -21.104
 -23884215.002 8  20733680.856 8 -18259905.59947  20733681.84347      1445.816
 -13496730.812 6  22726904.494 6 -10204127.55646  22726905.76446      2585.760
 15  1  3  0 22  0.0000000  0  8G02G06G12G14G24G25G29G31
 -13616663.056 6  22853504.048 6   -657651.27346  22853503.92346      -861.204
    409890.023 2  25223640.718 2    174952.45245  25223645.45545     -2892.933
 -17794951.799 7  21993266.599 7 -13241642.11946  21993267.67246     -2151.896
 -12044113.767 5  23348758.793 5  -8519619.26145  23348759.12545     -2145.546
  -3943676.938 4  24189818.154 4  -2920259.61045  24189822.08945     -3652.739
 -25356244.145 8  20571836.367 8 -19240383.00147  20571839.80247       -32.103
 -23927363.760 8  20725469.927 8 -18293527.99747  20725470.98447      1430.754
 -13574141.417 6  22712173.744 6 -10264447.49846  22712173.96546      2574.937
 15  1  3  0 22 30.0000000  0  8G02G06G12G14G24G25G29G31
 -13590573.935 6  22858468.655 6   -637322.09046  22858467.35946      -878.085
    496842.552 3  25240187.338 3    242707.61445  25240190.27145     -2903.903
 -17730286.464 7  22005572.017 7 -13191253.55346  22005572.70346     -2159.116
 -11979556.292 5  23361043.667 5  -8469314.86245  23361044.36845     -2158.269
  -3834025.369 4  24210684.106 4  -2834816.87845  24210690.86645     -3657.351
 -25355115.792 8  20572051.089 8 -19239503.76947  20572054.80247       -43.125
 -23970060.265 8  20717345.046 8 -18326797.99747  20717346.16947      1415.671
 -13651225.881 6  22697505.065 6 -10324513.32146  22697505.18746      2564.016
 15  1  3  0 23  0.0000000  0  8G02G06G12G14G24G25G29G31
 -13563979.241 6  22863529.461 6   -616598.94746  22863528.69846      -894.901
    584122.558 4  25256796.237 4    310717.97245  25256799.56345     -2914.777
 -17665405.933 7  22017918.390 7 -13140697.32146  22017918.84346     -2166.274
 -11914618.054 5  23373401.015 5                                     -2170.902
  -3724236.393 4  24231576.288 4  -2749267.02145  24231581.17145     -3661.882
 -25353656.728 8  20572328.744 8 -19238366.83347  20572332.52047       -54.145
 -24012304.281 8  20709306.271 8 -18359715.40047  20709307.15147      1400.582
 -13727981.786 6  22682898.887 6 -10384323.10346  22682899.38046      2553.027
 15  1  3  0 23 30.0000000  0  8G02G06G12G14G24G25G29G31
 -13536879.727 6  22868686.326 6   -595482.45346  22868685.39146      -911.725
    671727.456 4  25273466.940 4    378981.58345  25273473.23445     -2925.544
 -17600309.939 7  22030305.756 7 -13089973.18846  22030306.27646     -2173.457
 -11849302.332 5  23385830.179 5                                     -2183.468
  -3614312.605 5  24252494.156 5  -2663612.15545  24252499.23845     -3666.331
 -25351866.649 8  20572669.394 8 -19236971.97547  20572673.13547       -65.195
 -24054095.521 8  20701353.669 8 -18392279.99847  20701354.65347      1385.498
 -13804406.913 6  22668355.665 6 -10443875.13446  22668356.27746      2541.963
 15  1  3  0 24  0.0000000  0  8G02G06G12G14G24G25G29G31
 -13509276.186 6  22873939.097 6   -573973.20146  22873937.27646      -928.507
    759654.647 3  25290198.923 3    447496.25545  25290203.41045     -2936.255
 -17534998.784 7  22042734.072 7 -13039081.39846  22042734.43646     -2180.602
 -11783611.596 5  23398330.723 5     20507.33845  23398332.96945     -2195.928
  -3504255.761 5  24273437.294 5  -2577853.59945  24273442.64145     -3670.730
 -25349745.183 8  20573073.098 8 -19235318.89047  20573076.70047       -76.246
 -24095433.842 8  20693487.251 8 -18424491.66847  20693488.00847      1370.384
 -13880498.860 6  22653875.853 6 -10503167.57146  22653876.14846      2530.826
 15  1  3  0 24 30.0000000  0  8G02G06G12G14G24G25G29G31
 -13481169.528 6  22879287.602 6   -552071.90246  22879287.00846      -945.253
    847901.456 4  25306991.718 4    516259.91745  25306994.58445     -2946.875
 -17469473.574 7  22055203.126 7 -12988022.81846  22055203.74146     -2187.742
 -11717548.459 5  23410902.115 5     71985.10445  23410904.33145     -2208.266
  -3394067.616 5  24294405.433 5  -2491992.71045  24294409.35945     -3675.114
 -25347292.016 8  20573539.920 8 -19233407.33747  20573543.66347       -87.299
 -24136318.729 8  20685707.113 8 -18456350.01947  20685707.93347      1355.268
 -13956255.239 6  22639459.881 6 -10562198.49846  22639460.50746      2519.598
 15  1  3  0 25  0.0000000  0  8G02G06G12G14G24G25G29G31
 -13452560.558 6  22884731.724 6   -529779.19946  22884730.36046      -961.976
    936465.232 5  25323844.938 5    585270.67245  25323848.31345     -2957.401
 -17403734.760 7  22067712.824 7 -12936797.79046  22067713.48746     -2194.842
 -11651115.721 5  23423543.863 5    123750.85345  23423543.22945     -2220.565
  -3283750.708 5  24315398.039 5  -2406031.50045  24315402.28345     -3679.374
 -25344506.843 8  20574069.919 8 -19231237.07547  20574073.62647       -98.387
 -24176749.981 8  20678013.298 8 -18487854.88747  20678014.30347      1340.139
 -14031673.885 6  22625108.188 6 -10620966.27646  22625109.01946      2508.298
 15  1  3  0 25 30.0000000  0  8G02G06G12G14G24G25G29G31
 -13423450.443 6  22890271.179 6   -507095.99346  22890270.24246      -978.681
   1025343.502 4  25340757.922 4    654526.46245  25340762.10545     -2967.801
 -17337782.868 7  22080263.070 7 -12885406.72246  22080264.33046     -2201.966
 -11584316.286 5  23436255.407 5    175802.33845  23436257.56345     -2232.725
  -3173307.171 5  24336414.790 5  -2319971.61145  24336419.29245     -3683.574
 -25341389.343 8  20574663.159 8 -19228807.86347  20574666.79447      -109.460
 -24216727.631 8  20670405.805 8 -18519006.29247  20670406.71047      1325.024
 -14106752.566 6  22610821.176 6 -10679469.13746  22610821.69546      2496.927
 15  1  3  0 26  0.0000000  0  8G02G06G12G14G24G25G29G31
 -13393840.053 6  22895905.861 6   -484022.96246  22895904.37146      -995.351
   1114533.606 5  25357730.229 5    724025.17545  25357734.99745     -2978.168
 -17271617.623 7  22092853.906 7 -12833849.40746  22092854.69046     -2209.044
 -11517153.133 5  23449036.102 5    228137.25445  23449037.89345     -2244.786
  -3062738.650 5  24357455.312 5  -2233814.30445  24357460.32345     -3687.659
 -25337939.145 8  20575319.702 8 -19226119.40047  20575323.45347      -120.550
 -24256251.261 8  20662884.701 8 -18549803.92447  20662885.48647      1309.880
 -14181488.599 6  22596599.392 6 -10737705.01046  22596599.74746      2485.464
 15  1  3  0 26 30.0000000  0  8G02G06G12G14G24G25G29G31
 -13363729.896 6  22901635.620 6   -460560.50046  22901633.92546     -1011.993
   1204032.972 5  25374761.376 5    793764.90545  25374765.80845     -2988.428
 -17205239.802 7  22105485.195 7 -12782126.44546  22105486.23846     -2216.134
 -11449628.833 5  23461885.556 5    280753.59945  23461887.99645     -2256.806
  -2952047.801 5  24378519.167 5  -2147561.74445  24378522.29245     -3691.689
 -25334155.975 8  20576039.614 8 -19223171.47447  20576043.41147      -131.661
 -24295320.650 8  20655450.042 8 -18580247.60047  20655451.03347      1294.734
 -14255879.591 6  22582443.276 6 -10795672.01546  22582443.63546      2473.937
 15  1  3  0 27  0.0000000  0  8G02G06G12G14G24G25G29G31
 -13333121.040 6  22907460.293 6   -436709.45246  22907458.95546     -1028.595
   1293838.859 5  25391850.875 5    863743.50845  25391854.49445     -2998.593
 -17138650.020 7  22118156.833 7 -12730238.34246  22118157.36946     -2223.201
 -11381745.877 5  23474803.270 5    333649.33745  23474804.92445     -2268.724
  -2841236.734 4  24399605.801 4  -2061215.45545  24399609.94845     -3695.706
 -25330039.518 8  20576822.953 8 -19219963.85547  20576826.73947      -142.779
 -24333935.647 8  20648101.851 8 -18610337.20347  20648102.68747      1279.591
 -14329923.764 6  22568353.121 6 -10853368.77346  22568353.68146      2462.324
 15  1  3  0 27 30.0000000  0  8G02G06G12G14G24G25G29G31
 -13302014.427 6  22913379.686 6   -412470.54046  22913378.66746     -1045.177
   1383948.726 4  25408998.343 4    933958.94544  25409011.90944     -3008.690
 -17071848.428 7  22130868.800 7 -12678185.16246  22130869.75946     -2230.246
 -11313507.464 5  23487788.602 5    386822.13745  23487789.80645     -2280.517
  -2730307.031 5  24420715.113 5  -1974776.76545  24420717.83345     -3699.610
 -25325589.432 8  20577669.787 8 -19216496.26047  20577673.39747      -153.904
 -24372096.555 8  20640840.059 8 -18640072.96847  20640840.91847      1264.443
 -14403618.539 6  22554329.473 6 -10910793.27346  22554330.17746      2450.638
 15  1  3  0 28  0.0000000  0  8G02G06G12G14G24G25G29G31
 -13270411.012 6  22919393.632 6   -387844.49346  22919393.07746     -1061.722
   1474359.986 5  25426203.185 5   1004409.22745  25426209.14345     -3018.723
 -17004835.599 7  22143620.933 7 -12625967.39646  22143621.61946     -2237.273
 -11244916.595 5  23500841.027 5    440269.53645  23500842.93945     -2292.210
  -2619261.128 3  24441846.345 3  -1888247.46545  24441850.40745     -3703.459
 -25320805.400 8  20578580.161 8 -19212768.45247  20578583.90947      -165.045
 -24409802.621 8  20633664.821 8 -18669454.31247  20633665.70547      1249.297
 -14476961.584 6  22540372.766 6 -10967943.69246  22540373.33846      2438.876
 15  1  3  0 28 30.0000000  0  8G02G06G12G14G24G25G29G31
 -13238311.909 6  22925501.898 6   -362832.20146  22925500.56746     -1078.239
   1565070.160 4  25443464.828 4   1075092.46743  25443466.24343     -3028.621
 -16937611.940 7  22156413.182 7 -12573585.33646  22156413.96946     -2244.305
 -11175975.722 5  23513960.061 5    493989.70345  23513962.24845     -2303.826
  -2508101.026 3  24462999.297 3  -1801629.16745  24463003.94945     -3707.226
 -25315687.120 8  20579554.144 8 -19208780.18047  20579557.72447      -176.194
 -24447054.039 8  20626576.112 8 -18698481.38747  20626576.99447      1234.132
 -14549950.562 6  22526483.398 6 -11024818.20646  22526483.80246      2427.037
 15  1  3  0 29  0.0000000  0  8G02G06G12G14G24G25G29G31
 -13205718.008 6  22931704.303 6   -337434.35546  22931702.74046     -1094.706
   1656076.294 3  25460782.672 3                                     -3038.455
 -16870178.139 7  22169245.444 7 -12521039.55246  22169246.12746     -2251.290
 -11106687.749 5  23527145.166 5    547980.30745  23527147.44645     -2315.345
  -2396828.877 3  24484173.646 3  -1714923.65245  24484180.53045     -3710.934
 -25310234.267 8  20580591.799 8 -19204531.20647  20580595.39047      -187.340
 -24483850.522 8  20619573.966 8 -18727153.96547  20619574.85447      1218.963
 -14622583.252 6  22512661.859 6 -11081415.10546  22512662.01446      2415.126
 15  1  3  0 29 30.0000000  0  8G02G06G12G14G24G25G29G31
 -13172630.393 6  22938000.638 6   -311651.81846  22938000.84346     -1111.138
   1747375.949 3  25478156.396 3                                     -3048.155
 -16802534.435 7  22182117.624 7 -12468330.19246  22182118.45446     -2258.288
 -11037055.825 5  23540395.689 5    602238.92945  23540398.15245     -2326.770
  -2285446.680 3  24505368.959 3  -1628132.38045  24505373.55145     -3714.555
 -25304446.554 8  20581693.167 8 -19200021.30647  20581696.87347      -198.498
 -24520192.148 8  20612658.374 8 -18755472.10747  20612659.29547      1203.804
 -14694857.292 6  22498908.563 6 -11137732.53446  22498908.81246      2403.120
 15  1  3  0 30  0.0000000  0  8G02G06G12G14G24G25G29G31
 -13139049.993 6  22944390.759 6   -285485.27146  22944389.94046     -1127.558
   1838966.581 3  25495585.519 3                                     -3057.854
 -16734681.166 7  22195029.677 7 -12415457.53546  22195030.73046     -2265.268
 -10967082.641 5  23553711.163 5    656763.44245  23553713.77345     -2338.095
  -2173956.283 3  24526584.797 3  -1541256.78545  24526589.27945     -3718.120
 -25298323.652 8  20582858.314 8 -19195250.21447  20582861.96047      -209.692
 -24556078.822 8  20605829.350 8 -18783435.74347  20605830.44447      1188.631
 -14766770.172 7  22485224.005 7 -11193768.54346  22485223.75446      2391.052
 15  1  3  0 30 30.0000000  0  7G02G12G14G24G25G29G31
 -13104978.014 6  22950874.456 6   -258935.67146  22950873.67346     -1143.921
 -16666618.793 7  22207981.526 7 -12362421.94646  22207982.19146     -2272.225
 -10896771.201 5  23567091.005 5    711551.57845  23567094.43045     -2349.339
  -2062360.496 3  24547820.765 3  -1454299.07145  24547824.21045     -3721.605
 -25291865.260 8  20584087.309 8 -19190217.70547  20584091.20847      -220.878
 -24591510.339 8  20599086.958 8 -18811044.70947  20599087.85647      1173.466
 -14838319.881 6  22471608.551 6 -11249521.56446  22471609.41346      2378.908
 15  1  3  0 31  0.0000000  0  7G02G12G14G24G25G29G31
 -13070415.340 6  22957451.517 6   -232003.72946  22957451.45646     -1160.269
 -16598347.793 7  22220973.075 7 -12309223.78846  22220973.87046     -2279.184
 -10826124.234 5  23580534.728 5    766601.15845  23580538.45345     -2360.463
  -1950660.761 3  24569076.544 3  -1367260.44844  24569070.31244     -3724.976
 -25285071.077 8  20585380.205 8 -19184923.54647  20585383.76247      -232.084
 -24626486.604 8  20592431.191 8 -18838298.93647  20592432.04447      1158.286
 -14909504.048 7  22458062.656 7 -11304989.74246  22458062.62546      2366.693
 15  1  3  0 31 30.0000000  0  7G02G12G14G24G25G29G31
 -13035362.990 6  22964121.757 6   -204690.21746  22964121.46846     -1176.539
 -16529868.683 7  22234004.231 7 -12255863.46646  22234005.30246     -2286.094
 -10755144.452 5  23594041.707 5    821910.08045  23594042.61045     -2371.491
  -1838859.673 3  24590351.614 3  -1280142.57345  24590354.01045     -3728.356
 -25277940.810 8  20586737.059 8 -19179367.49747  20586740.65447      -243.283
 -24661007.587 8  20585862.058 8 -18865198.39647  20585862.86747      1143.112
 -14980320.456 7  22444586.745 7 -11360171.35546  22444587.14546      2354.388
 15  1  3  0 32  0.0000000  0  7G02G12G14G24G25G29G31
 -12999822.321 6  22970884.912 6   -176996.19946  22970883.14346     -1192.819
 -16461182.186 7  22247074.858 7 -12202341.53446  22247076.07846     -2293.018
 -10683835.060 5  23607611.460 5    877475.78245  23607612.49545     -2382.438
  -1726959.154 4  24611645.614 4  -1192947.34345  24611650.17645     -3731.639
 -25270474.139 8  20588157.912 8 -19173549.31247  20588161.62747      -254.502
 -24695073.524 8  20579379.525 8 -18891743.27247  20579380.67647      1127.945
 -15050766.746 7  22431181.275 7 -11415064.57246  22431181.46846      2342.018
 15  1  3  0 32 30.0000000  0  7G02G12G14G24G25G29G31
 -12963794.178 6  22977740.851 6   -148922.31246  22977740.52746     -1209.059
 -16392287.906 7  22260185.030 7 -12148657.71146  22260185.93546     -2299.922
 -10612198.862 5  23621243.383 5    933296.18745  23621247.78545     -2393.288
  -1614960.903 4  24632958.253 4  -1105675.99045  24632964.67545     -3734.877
 -25262670.768 8  20589642.852 8 -19167468.77747  20589646.70647      -265.731
 -24728684.181 8  20572983.626 8 -18917933.38747  20572984.53747      1112.760
 -15120840.784 7  22417846.639 7 -11469667.71746  22417846.87646      2329.559
 15  1  3  0 33  0.0000000  0  7G02G12G14G24G25G29G31
 -12927279.763 6  22984689.306 6   -120469.52046  22984689.50446     -1225.233
 -16323186.760 7  22273334.542 7 -12094812.68246  22273335.67746     -2306.819
 -10540238.843 5  23634936.924 5    989368.92945  23634937.04945     -2404.036
  -1502867.663 4  24654288.901 4  -1018330.55145  24654293.05045     -3738.001
 -25254530.402 8  20591191.924 8 -19161125.63747  20591195.63847      -276.962
 -24761839.325 8  20566674.407 8 -18943768.55847  20566675.34547      1097.585
 -15190540.046 7  22404583.304 7 -11523978.82546  22404583.71846      2317.034
 15  1  3  0 33 30.0000000  0  7G02G12G14G24G25G29G31
 -12890280.334 6  22991730.089 6    -91638.80246  22991729.87046     -1241.385
 -16253879.061 7  22286523.372 7 -12040806.70246  22286524.16146     -2313.672
 -10467957.744 5  23648691.536 5   1045691.81145  23648692.19245     -2414.662
  -1390681.288 5  24675637.321 5   -930912.62045  24675641.97445     -3741.084
 -25246052.750 8  20592805.173 8 -19154519.67747  20592808.98247      -288.225
 -24794539.491 8  20560451.762 8 -18969249.20647  20560452.72247      1082.414
 -15259862.173 7  22391391.743 7 -11577996.06146  22391392.02846      2304.422
 15  1  3  0 34  0.0000000  0  7G02G12G14G24G25G29G31
 -12852797.026 6  22998862.940 6    -62431.03546  22998862.70846     -1257.504
 -16184365.691 7  22299751.357 7 -11986640.47446  22299752.29646     -2320.541
 -10395358.559 5  23662506.751 5   1102262.63445  23662508.05845     -2425.245
  -1278403.773 5  24697003.058 5   -843423.68145  24697006.00645     -3744.076
 -25237237.515 8  20594482.659 8 -19147650.66947  20594486.54347      -299.462
 -24826784.246 8  20554315.785 8 -18994374.97747  20554316.91247      1067.230
 -15328805.110 7  22378272.339 7 -11631717.83246  22378272.58746      2291.757
 15  1  3  0 34 30.0000000  0  7G02G12G14G24G25G29G31
 -12814831.057 6  23006087.636 6    -32847.16646  23006086.70246     -1273.568
 -16114647.016 7  22313018.395 7 -11932314.26646  22313019.07346     -2327.396
 -10322444.352 5  23676381.887 5   1159078.83845  23676382.42645     -2435.703
  -1166037.373 5  24718385.650 5   -755865.40345  24718390.72745     -3747.027
 -25228084.391 8  20596224.450 8 -19140518.37347  20596228.04847      -310.735
 -24858573.586 8  20548266.476 8 -19019145.88947  20548267.62247      1052.056
 -15397366.390 7  22365225.579 7 -11685142.20246  22365226.13846      2278.983
 15  1  3  0 35  0.0000000  0  7G02G12G14G24G25G29G31
 -12776383.302 6  23013403.999 6     -2887.89546  23013402.08646     -1289.608
 -16044722.999 7  22326324.490 7 -11877828.03346  22326324.92246     -2334.213
 -10249218.031 5  23690316.392 5   1216138.31945  23690317.86845     -2446.046
  -1053584.118 5  24739784.877 5   -668239.51745  24739791.79545     -3749.858
 -25218593.116 8  20598030.587 8 -19133122.58347  20598034.31547      -322.020
 -24889907.985 8  20542303.730 8 -19043562.30047  20542304.81247      1036.916
 -15465544.152 7  22352251.797 7 -11738267.73846  22352251.78546      2266.178
 15  1  3  0 35 30.0000000  0  7G02G12G14G24G25G29G31
 -12737455.360 6  23020811.727 6     27445.56146  23020810.79346     -1305.590
 -15974594.151 7  22339669.608 7 -11823182.19746  22339670.79046     -2341.037
 -10175682.380 5  23704309.788 5   1273438.80845  23704311.87745     -2456.313
   -941046.445 4  24761200.070 4   -580547.81145  24761203.17645     -3752.649
 -25208763.402 8  20599901.110 8 -19125463.06347  20599904.83547      -333.297
 -24920787.573 8  20536427.527 8 -19067624.31047  20536428.71947      1021.721
 -15533336.152 7  22339351.411 7 -11791092.66546  22339351.59746      2253.276
 15  1  3  0 36  0.0000000  0  7G02G12G14G24G25G29G31
 -12698048.357 6  23028310.626 6     58152.31946  23028310.04046     -1321.540
 -15904260.991 7  22353053.580 7 -11768377.15146  22353054.39146     -2347.863
 -10101840.523 5  23718361.442 5   1330977.88745  23718361.52445     -2466.467
   -828426.125 4  24782631.041 4   -492791.77945  24782635.59445     -3755.340
 -25198594.920 8  20601836.115 8 -19117539.58447  20601839.96547      -344.587
 -24951211.704 8  20530638.006 8 -19091331.42247  20530638.92247      1006.555
 -15600739.825 7  22326524.922 7 -11843615.01546  22326525.33346      2240.292
 15  1  3  0 36 30.0000000  0  7G02G12G14G24G25G29G31
 -12658163.518 6  23035900.442 6     89231.40346  23035899.67846     -1337.441
 -15833723.643 7  22366476.406 7 -11713413.02946  22366477.59146     -2354.636
 -10027695.473 5  23732470.777 5   1388753.22545  23732471.95945     -2476.521
   -715725.244 3  24804077.292 3   -404972.88645  24804081.90545     -3758.003
 -25188087.442 8  20603835.624 8 -19109351.94547  20603839.58047      -355.911
 -24981180.771 8  20524935.068 8 -19114683.93747  20524936.06947       991.382
 -15667752.654 7  22313772.810 7 -11895832.80746  22313773.24246      2227.220
 15  1  3  0 37  0.0000000  0  7G02G12G14G24G25G29G31
 -12617801.938 6  23043581.014 6    120681.98846  23043580.57146     -1353.312
 -15762983.137 7  22379937.889 7 -11658290.57046  22379938.66546     -2361.402
  -9953250.010 5  23746637.306 5   1446762.67645  23746638.43745     -2486.490
   -602945.988 2  24825538.393 2   -317092.98645  24825545.05745     -3760.593
 -25177240.674 8  20605899.709 8 -19100899.92547  20605903.45747      -367.220
 -25010695.411 8  20519318.608 8 -19137682.34948  20519319.62648       976.228
 -15734373.011 7  22301095.376 7 -11947744.77546  22301095.39346      2214.112
 15  1  3  0 37 30.0000000  0  7G02G12G14G24G25G29G31
 -12576965.115 6  23051352.030 6    152502.89946  23051351.37346     -1369.130
 -15692039.655 7  22393438.013 7 -11603009.95846  22393439.25746     -2368.165
  -9878507.086 5  23760860.435 5   1505003.91445  23760863.11945     -2496.359
   -490090.447 2  24847014.074 2   -229153.57645  24847020.06345     -3763.099
 -25166054.323 8  20608028.415 8 -19092183.29247  20608032.26547      -378.545
 -25039754.885 8  20513788.766 8 -19160326.08748  20513789.64748       961.058
 -15800598.368 7  22288493.118 7 -11999348.94146  22288493.42846      2200.897
 15  1  3  0 38  0.0000000  0  7G02G12G14G24G25G29G31
 -12535654.207 6  23059213.251 6    184693.20946  23059212.62146     -1384.916
 -15620893.744 7  22406976.663 7 -11547571.60046  22406977.29946     -2374.914
  -9803469.898 5  23775139.513 5   1563474.39945  23775140.89345     -2506.129
   -377161.152 2  24868503.793 2   -141156.81045  24868508.36145     -3765.529
 -25154528.109 8  20610221.789 8 -19083201.82547  20610225.48947      -389.870
 -25068359.661 8  20508345.456 8 -19182615.52048  20508346.52748       945.911
 -15866426.411 7  22275966.441 7 -12050643.51846  22275967.09546      2187.624
 15  1  3  0 38 30.0000000  0  7G02G12G14G24G25G29G31
 -12493870.477 6  23067164.441 6    217251.95446  23067162.84146     -1400.670
 -15549545.775 6  22420553.736 6 -11491975.81046  22420554.65046     -2381.635
  -9728141.293 5  23789474.090 5   1622171.94245  23789477.31245     -2515.775
   -264159.770 2  24890007.189 2    -53103.83645  24890010.76945     -3767.873
 -25142661.790 8  20612479.877 8 -19073955.35247  20612483.70847      -401.217
 -25096510.076 8  20502988.609 8 -19204550.90148  20502989.54948       930.764
 -15931855.145 7  22263515.756 7 -12101626.94246  22263516.06546      2174.278
 15  1  3  0 39  0.0000000  0  7G02G12G14G24G25G29G31
 -12451615.242 6  23075205.376 6    250178.10346  23075204.52146     -1416.354
 -15477996.187 6  22434169.188 6 -11436222.91446  22434170.55846     -2388.345
  -9652524.450 5  23803863.503 5   1681094.14845  23803863.04345     -2525.325
   -151088.365 2  24911524.033 2     35003.76045  24911529.85645     -3770.146
 -25130455.076 8  20614802.725 8 -19064443.62747  20614806.45247      -412.571
 -25124206.363 8  20497718.168 8 -19226132.42548  20497719.24248       915.634
 -15996882.324 7  22251141.500 7 -12152297.46546  22251141.60246      2160.846
 15  1  3  0 39 30.0000000  0  7G02G12G14G24G25G29G31
 -12408890.063 6  23083335.739 6    283470.45546  23083335.17546     -1431.996
 -15406245.472 7  22447822.907 7 -11380313.29946  22447824.38046     -2395.043
  -9576622.279 5  23818307.246 5   1740238.67845  23818309.71045     -2534.794
    -37949.192 3  24933053.695 3    123164.15345  24933058.73245     -3772.392
 -25117907.677 8  20617190.415 8 -19054666.43747  20617194.25847      -423.934
 -25151448.465 8  20492534.155 8 -19247360.02748  20492534.96848       900.503
 -16061505.622 7  22238844.087 7 -12202653.27746  22238844.62046      2147.360
 15  1  3  0 40  0.0000000  0  7G02G12G14G24G25G29G31
 -12365696.106 6  23091555.268 6    317128.07446  23091554.58346     -1447.605
 -15334293.945 7  22461514.854 7 -11324247.19746  22461515.66846     -2401.706
  -9500437.615 5  23832804.707 5   1799603.37745  23832807.44445     -2544.156
     75255.811 2  24954595.839 2    211375.77845  24954598.89145     -3774.593
 -25105019.385 8  20619642.979 8 -19044623.61747  20619646.73247      -435.300
 -25178236.300 8  20487436.601 8 -19268233.66548  20487437.51848       885.350
 -16125722.993 7  22226623.907 7 -12252692.77246  22226624.65046      2133.777
 15  1  3  0 40 30.0000000  0  7G02G12G14G24G25G29G31
 -12322034.447 6  23099863.796 6    351150.14046  23099863.85846     -1463.164
 -15262142.156 7  22475244.908 7 -11268025.05446  22475245.62246     -2408.398
  -9423973.616 5  23847355.346 5   1859185.67445  23847354.56345     -2553.409
    188524.361 3  24976150.180 3    299637.06245  24976159.13345     -3776.650
 -25091789.883 8  20622160.467 8 -19034314.91747  20622164.07447      -446.680
 -25204570.646 8  20482425.336 8 -19288753.92648  20482426.21748       870.246
 -16189531.999 7  22214481.448 7 -12302414.06946  22214482.12146      2120.123
 15  1  3  0 41  0.0000000  0  7G02G12G14G24G25G29G31
 -12277907.018 6  23108260.963 6    385535.15246  23108259.91546     -1478.663
 -15189790.686 6  22489012.924 6 -11211647.31346  22489013.70446     -2415.048
  -9347233.156 5  23861958.559 5   1918983.39245  23861960.80345     -2562.590
    301853.979 4  24997716.156 4    387945.84145  24997729.45345     -3778.670
 -25078218.945 8  20624742.935 8 -19023740.16647  20624746.80247      -458.052
 -25230451.077 8  20477500.452 8 -19308920.48348  20477501.45748       855.119
 -16252930.455 7  22202417.109 7 -12351815.45746  22202417.01146      2106.412
 15  1  3  0 41 30.0000000  0  7G02G12G14G24G25G29G31
 -12233315.050 6  23116746.525 6    420282.13746  23116745.21246     -1494.132
 -15117239.379 6  22502818.976 6 -11155113.85546  22502819.75446     -2421.703
  -9270219.519 5  23876613.817 5   1978994.05545  23876620.10045     -2571.644
    415243.119 4  25019293.500 4    476300.98345  25019295.18845     -3780.634
 -25064306.289 8  20627390.415 8 -19012899.13947  20627394.18547      -469.459
 -25255878.146 8  20472661.845 8 -19328733.78748  20472662.88148       840.015
 -16315916.428 7  22190431.285 7 -12400895.43846  22190431.95446      2092.626
 15  1  3  0 42  0.0000000  0  7G02G12G14G24G25G29G31
 -12188259.792 6  23125320.243 6    455390.11746  23125319.43146     -1509.547
 -15044489.178 6  22516662.886 6 -11098425.40546  22516664.23246     -2428.309
  -9192935.611 5  23891320.484 5   2039215.19845  23891324.16445     -2580.600
    528689.607 3  25040881.624 3    564700.87945  25040886.58745     -3782.480
 -25050051.707 8  20630102.970 8 -19001791.67947  20630106.70347      -480.857
 -25280852.175 8  20467909.449 8 -19348194.05548  20467910.54648       824.916
 -16378487.708 7  22178524.362 7 -12449652.27046  22178524.96846      2078.760
 15  1  3  0 42 30.0000000  0  8G02G12G14G21G24G25G29G31
 -12142742.840 6  23133981.829 6    490857.87046  23133981.33846     -1524.889
 -14971540.628 6  22530544.547 6 -11041582.39946  22530545.88346     -2434.927
  -9115384.417 5  23906078.002 5   2099644.70245  23906080.99045     -2589.454
    -70362.210 1  25278094.909 1                                      3350.710
    642191.162 3  25062480.251 3    653143.66745  25062483.44545     -3784.336
 -25035454.886 8  20632880.661 8 -18990417.53647  20632884.39647      -492.257
 -25305373.376 8  20463243.217 8 -19367301.48048  20463244.20948       809.828
 -16440642.104 7  22166696.759 7 -12498084.26746  22166697.31946      2064.832
 15  1  3  0 43  0.0000000  0  8G02G12G14G21G24G25G29G31
 -12096765.515 6  23142730.995 6    526684.34446  23142730.55446     -1540.241
 -14898393.624 6  22544463.978 6 -10984584.74646  22544464.87846     -2441.546
  -9037568.912 4  23920885.784 4   2160280.15945  23920887.56845     -2598.220
   -170883.292 1  25258966.354 1                                      3350.679
    755745.560 3  25084088.954 3    741627.64845  25084091.02445     -3785.971
 -25020515.602 8  20635723.531 8 -18978776.53847  20635727.19047      -503.677
 -25329441.912 8  20458663.126 8 -19386056.18048  20458664.19348       794.745
 -16502377.189 7  22154948.948 7 -12546189.51746  22154949.45546      2050.814
 15  1  3  0 43 30.0000000  0  7G02G12G14G24G25G29G31
 -12050329.156 6  23151567.537 6    562868.53246  23151566.21846     -1555.524
 -14825049.028 6  22558421.004 6 -10927433.14446  22558422.01746     -2448.111
  -8959492.262 5  23935743.350 5   2221119.03645  23935747.91445     -2606.842
    869350.891 3  25105707.340 3    830151.37445  25105708.64445     -3787.688
 -25005233.621 8  20638631.596 8 -18966868.50347  20638635.53747      -515.119
 -25353058.260 8  20454169.086 8 -19404458.52648  20454170.00448       779.674
 -16563691.230 7  22143281.268 7 -12593966.68146  22143281.55346      2036.757
 15  1  3  0 44  0.0000000  0  7G02G12G14G24G25G29G31
 -12003435.348 6  23160491.118 6    599409.14646  23160489.61546     -1570.742
 -14751507.354 6  22572415.540 6 -10870127.97046  22572416.41046     -2454.670
  -8881157.815 5  23950649.914 5   2282158.84145  23950653.69645     -2615.416
    983004.854 2  25127334.972 2    918712.88545  25127337.32145     -3789.272
 -24989608.707 8  20641604.917 8 -18954693.25347  20641608.88147      -526.548
 -25376222.360 7  20449761.107 7 -19422508.47448  20449761.78948       764.608
 -16624582.017 7  22131694.117 7 -12641414.04746  22131694.53646      2022.604
 15  1  3  0 44 30.0000000  0  7G02G12G14G24G25G29G31
 -11956085.623 6  23169501.484 6    636305.03346  23169501.17146     -1585.910
 -14677769.000 6  22586447.515 6 -10812669.53346  22586448.18946     -2461.216
  -8802568.125 4  23965605.006 4   2343397.50945  23965609.61845     -2623.891
   1096705.241 2  25148971.387 2   1007310.52745  25148978.61345     -3790.782
 -24973640.585 8  20644643.544 8 -18942250.56447  20644647.34447      -537.991
 -25398934.555 8  20445439.124 8 -19440206.28048  20445439.93048       749.530
 -16685047.136 7  22120187.979 7 -12688529.70446  22120188.60346      2008.377
 15  1  3  0 45  0.0000000  0  7G02G12G14G24G25G29G31
 -11908281.446 6  23178598.328 6    673555.03946  23178598.12646     -1601.038
 -14603834.055 6  22600516.903 6 -10755057.90346  22600518.31646     -2467.765
  -8723725.989 4  23980608.206 4   2404832.94345  23980608.56345     -2632.244
   1210450.445 2  25170616.360 2   1095943.09245  25170621.70445     -3792.228
 -24957329.036 8  20647747.538 8 -18929540.27547  20647751.28247      -549.444
 -25421194.906 7  20441203.116 7 -19457551.99748  20441203.90848       734.491
 -16745084.348 7  22108763.289 7 -12735311.94846  22108763.81746      1994.090
 15  1  3  0 45 30.0000000  0  8G02G12G14G21G24G25G29G31
 -11860024.285 6  23187781.362 6    711158.02746  23187780.58446     -1616.117
 -14529703.441 6  22614623.527 6 -10697293.80946  22614624.45546     -2474.289
  -8644634.830 4  23995658.779 4   2466462.41145  23995662.08945     -2640.477
    -36841.579 2  25163337.153 2                                      3349.396
   1324237.941 1  25192269.283 1   1184608.81444  25192275.06044     -3793.625
 -24940673.858 8  20650916.907 8 -18916562.21647  20650920.73147      -560.903
 -25443004.190 8  20437052.932 8 -19474546.24248  20437053.69148       719.451
 -16804691.759 7  22097420.370 7 -12781759.27446  22097420.70546      1979.721
 15  1  3  0 46  0.0000000  0  8G02G12G14G21G24G25G29G31
 -11811315.732 6  23197050.271 6    749112.73046  23197050.09246     -1631.135
 -14455377.330 6  22628767.328 6 -10639377.39346  22628768.07446     -2480.787
  -8565297.964 4  24010756.107 4   2528283.30345  24010757.00245     -2648.630
   -137316.978 2  25144216.709 2                                      3348.909
   1438065.990 1  25213930.077 1   1273305.83845  25213937.99645     -3794.905
 -24923674.749 8  20654151.742 8 -18903316.16647  20654155.35947      -572.361
 -25464362.609 7  20432988.573 7 -19491189.16448  20432989.43848       704.440
 -16863867.430 7  22086159.603 7 -12827870.18446  22086160.19846      1965.303
 15  1  3  0 46 30.0000000  0  8G02G12G14G21G24G25G29G31
 -11762157.180 6  23206404.872 6    787418.09246  23206403.83946     -1646.100
 -14380856.069 6  22642948.278 6 -10581308.88946  22642948.90946     -2487.281
  -8485718.321 4  24025899.632 4   2590293.28845  24025902.72045     -2656.682
   -237776.947 3  25125099.921 3                                      3348.396
   1551932.117 1  25235597.965 1   1362032.67745  25235596.65745     -3796.131
 -24906331.531 8  20657452.051 8 -18889801.97647  20657456.01447      -583.848
 -25485270.558 7  20429009.930 7 -19507481.06848  20429010.81048       689.426
 -16922609.172 7  22074981.432 7 -12873642.97046  22074981.67846      1950.803
 15  1  3  0 47  0.0000000  0  8G02G12G14G21G24G25G29G31
 -11712550.207 6  23215844.735 6    826072.86846  23215843.76746     -1661.020
 -14306140.713 6  22657166.173 6 -10523089.16346  22657167.08546     -2493.767
  -8405898.803 4  24041088.755 4   2652490.38445  24041090.19645     -2664.610
   -338219.029 4  25105986.586 4    -75655.35345  25105985.22345      3347.748
   1665834.092 2  25257272.769 2   1450787.46645  25257279.86245     -3797.317
 -24888643.987 8  20660817.874 8 -18876019.47847  20660821.68347      -595.325
 -25505728.644 8  20425116.878 8 -19523422.43348  20425117.66248       674.420
 -16980914.782 7  22063886.241 7 -12919075.90746  22063886.69846      1936.233
 15  1  3  0 47 30.0000000  0  8G02G12G14G21G24G25G29G31
 -11662496.541 6  23225369.632 6    865075.72946  23225368.03146     -1675.892
 -14231230.894 6  22671421.046 6 -10464717.88846  22671422.21546     -2500.231
  -8325842.566 4  24056322.984 4   2714871.90745  24056326.63945     -2672.449
   -438641.147 4  25086876.886 4   -153906.22745  25086878.47945      3347.048
   1779770.140 2  25278954.154 2   1539568.81845  25278958.40945     -3798.433
 -24870611.844 8  20664249.271 8 -18861968.46447  20664253.08947      -606.815
 -25525736.621 8  20421309.470 8 -19539013.05548  20421310.28748       659.430
 -17038782.379 7  22052874.419 7 -12964167.52846  22052873.76046      1921.592
 15  1  3  0 48  0.0000000  0  8G02G12G14G21G24G25G29G31
 -11611997.587 6  23234979.279 6    904425.55246  23234979.71446     -1690.699
 -14156127.369 6  22685712.787 6 -10406195.68946  22685713.54046     -2506.683
  -8245552.726 3  24071601.662 3   2777435.30544  24071607.09544     -2680.149
   -539041.314 4  25067771.333 4   -232140.06445  25067771.33545      3346.274
   1893737.867 2  25300641.427 2   1628374.77545  25300645.73345     -3799.372
 -24852234.929 8  20667746.288 8 -18847648.79447  20667750.04147      -618.312
 -25545294.978 6  20417587.644 6 -19554253.32848  20417588.35448       644.451
 -17096209.704 7  22041946.369 7 -13008916.08446  22041946.66946      1906.881
 15  1  3  0 48 30.0000000  0  8G02G12G14G21G24G25G29G31
 -11561055.074 6  23244673.298 6    944121.01346  23244672.34546     -1705.464
 -14080830.662 6  22700041.267 6 -10347522.94746  22700042.38946     -2513.097
  -8165032.345 3  24086924.219 3   2840178.57844  24086925.74744     -2687.823
   -639417.233 4  25048670.396 4                                      3345.430
   2007735.551 3  25322334.628 3   1717204.14045  25322338.64145     -3800.407
 -24833513.027 8  20671308.959 8 -18833060.30347  20671312.77647      -629.811
 -25564404.567 7  20413951.215 7 -19569143.91448  20413952.07948       629.504
 -17153194.617 7  22031102.510 7 -13053319.91346  22031102.13346      1892.092
 15  1  3  0 49  0.0000000  0  8G02G12G14G21G24G25G29G31
 -11509670.547 6  23254451.463 6    984160.90046  23254451.16746     -1720.191
 -14005341.489 6  22714406.399 6 -10288700.24946  22714407.50546     -2519.505
  -8084284.396 4  24102290.065 4   2903098.86145  24102292.77845     -2695.346
   -739766.333 4  25029574.606 4                                      3344.490
   2121760.880 3  25344032.930 3   1806055.00545  25344032.12245     -3801.276
 -24814445.923 8  20674937.314 8 -18818202.82547  20674941.27847      -641.327
 -25583065.729 7  20410400.117 7 -19583685.07248  20410400.94148       614.562
 -17209735.213 7  22020343.223 7 -13097377.51647  22020343.26647      1877.245
 15  1  3  0 49 30.0000000  0  8G02G12G14G21G24G25G29G31
 -11457845.423 6  23264313.471 6   1024544.09646  23264312.58646     -1734.807
 -13929659.965 6  22728808.117 6 -10229727.65846  22728808.66046     -2525.914
  -8003311.806 4  24117698.641 4   2966194.39845  24117702.55145     -2702.789
   -840086.830 3  25010484.191 3                                      3343.470
   2235811.716 3  25365736.121 3   1894925.81445  25365742.82945     -3802.081
 -24795033.378 8  20678631.402 8 -18803076.17447  20678635.12947      -652.834
 -25601278.483 7  20406934.351 7 -19597876.82148  20406935.12048       599.629
 -17265829.289 7  22009668.861 7 -13141087.19447  22009669.08047      1862.337
 15  1  3  0 50  0.0000000  0  8G02G12G14G21G24G25G29G31
 -11405581.611 6  23274258.963 6   1065269.15946  23274258.93346     -1749.423
 -13853786.851 6  22743246.311 6 -10170605.77646  22743247.49546     -2532.296
  -7922118.012 4  24133149.354 4   3029462.26045  24133150.63445     -2710.119
   -940376.247 3  24991399.728 3                                      3342.454
   2349885.740 3  25387443.683 3   1983814.70245  25387447.99245     -3802.848
 -24775275.221 8  20682391.257 8 -18787680.21047  20682394.96547      -664.369
 -25619043.412 7  20403553.802 7 -19611719.61548  20403554.53648       584.706
 -17321474.804 7  21999079.869 7 -13184447.33147  21999080.26447      1847.350
 15  1  3  0 50 30.0000000  0  8G02G12G14G21G24G25G29G31
 -11352880.345 6  23284287.651 6   1106335.09346  23284286.67246     -1763.973
 -13777722.144 6  22757720.959 6 -10111334.59346  22757721.69346     -2538.683
  -7840706.035 4  24148641.541 4   3092900.12445  24148644.28645     -2717.333
  -1040632.152 2  24972321.487 2                                      3341.292
   2463981.421 4  25409155.445 4   2072720.33545  25409163.88845     -3803.507
 -24755171.244 8  20686216.923 8 -18772014.78147  20686220.85647      -675.904
 -25636361.112 7  20400258.352 7 -19625213.92748  20400259.14048       569.801
 -17376669.984 7  21988576.563 7 -13227456.55747  21988576.77447      1832.308
 15  1  3  0 51  0.0000000  0  8G02G12G14G21G24G25G29G31
 -11299743.781 6  23294399.263 6   1147740.18846  23294399.20746     -1778.473
 -13701466.413 6  22772231.974 6 -10051914.57246  22772232.61446     -2545.031
  -7759078.839 4  24164174.717 4   3156505.75145  24164177.21045     -2724.446
  -1140852.258 2  24953250.188 2     -5203.56744  24953250.45744      3340.053
   2578096.172 4  25430870.719 4   2161640.95345  25430868.55045     -3804.130
 -24734721.225 8  20690108.426 8 -18756079.70647  20690112.23347      -687.437
 -25653231.835 7  20397047.964 7 -19638359.93748  20397048.75148       554.917
 -17431412.870 7  21978159.341 7 -13270113.34847  21978159.34747      1817.196
 15  1  3  0 51 30.0000000  0  8G02G12G14G21G24G25G29G31
 -11246173.102 6  23304593.407 6   1189483.57246  23304593.23846     -1792.909
 -13625020.487 6  22786779.157 6  -9992346.35046  22786780.04246     -2551.358
  -7677239.800 4  24179748.155 4   3220276.38145  24179754.17245     -2731.470
  -1241034.628 2  24934186.054 2    -83267.76743  24934180.72043      3338.758
   2692227.977 4  25452589.310 4   2250574.99145  25452595.42845     -3804.675
 -24713924.992 8  20694065.822 8 -18739874.85147  20694069.67647      -698.980
 -25669656.207 7  20393922.508 7 -19651158.14248  20393923.36848       540.042
 -17485701.291 7  21967828.581 7 -13312416.00447  21967829.11347      1802.003
 15  1  3  0 52  0.0000000  0  7G02G12G14G24G25G29G31
 -11192170.288 6  23314869.804 6   1231563.69446  23314868.08646     -1807.280
 -13548384.394 6  22801362.570 6  -9932629.93646  22801363.69046     -2557.705
  -7595191.600 4  24195361.504 4   3284210.04245  24195364.28045     -2738.395
   2806374.919 3  25474310.767 3   2339520.60444  25474318.09944     -3805.158
 -24692782.360 8  20698089.144 8 -18723400.08047  20698092.86347      -710.535
 -25685634.403 6  20390881.958 6 -19663608.68248  20390882.63948       525.178
 -17539532.960 7  21957584.753 7 -13354362.75747  21957585.01047      1786.750
 15  1  3  0 52 30.0000000  0  8G02G12G14G21G24G25G29G31
 -11137736.695 6  23325228.159 6   1273979.47946  23325227.11246     -1821.620
 -13471558.657 6  22815982.033 6  -9872765.75246  22815982.65446     -2564.008
  -7512937.241 4  24211014.033 4   3348304.33445  24211016.89045     -2745.187
    -36695.735 2  24896082.463 2                                      3335.905
   2920534.531 4  25496034.646 4   2428476.23144  25496038.80444     -3805.513
 -24671293.118 8  20702178.410 8 -18706655.22047  20702182.21647      -722.099
 -25701166.924 7  20387926.206 7 -19675711.93848  20387926.98348       510.335
 -17592905.829 7  21947428.218 7 -13395951.99747  21947428.68547      1771.434
 15  1  3  0 53  0.0000000  0  8G02G12G14G21G24G25G29G31
 -11082874.487 6  23335668.100 6   1316729.24246  23335666.50246     -1835.868
 -13394544.055 6  22830637.437 6  -9812754.37346  22830638.33946     -2570.306
  -7430480.145 4  24226705.133 4   3412556.57045  24226705.75345     -2751.913
   -136750.881 2  24877041.861 2                                      3334.418
   3034704.780 2  25517760.424 2                                     -3805.858
 -24649457.114 8  20706333.670 8 -18689640.16147  20706337.36247      -733.653
 -25716254.405 7  20385055.146 7 -19687468.41048  20385055.83648       495.503
 -17645818.188 7  21937359.333 7 -13437182.40247  21937359.49547      1756.050
 15  1  3  0 53 30.0000000  0  8G02G12G14G21G24G25G29G31
 -11027585.030 6  23346189.393 6   1359811.92346  23346187.14146     -1850.079
 -13317341.137 6  22845328.677 6  -9752596.29946  22845329.82446     -2576.576
  -7347823.268 4  24242434.186 4   3476964.51045  24242435.72545     -2758.516
   -236759.309 3  24858010.801 3    -15580.94545  24858011.82345      3332.818
   3148884.055 1  25539488.034 1                                     -3806.094
 -24627274.128 8  20710554.970 8 -18672354.72147  20710558.66847      -745.220
 -25730898.000 7  20382268.562 7 -19698879.00048  20382269.33048       480.704
 -17698268.362 7  21927378.394 7 -13478052.66347  21927378.69447      1740.612
 15  1  3  0 54  0.0000000  0  7G02G12G14G21G25G29G31
 -10971870.161 5  23356791.539 5   1403226.13346  23356791.18446     -1864.235
 -13239949.868 6  22860055.775 6  -9692291.42646  22860056.65846     -2582.827
  -7264969.852 5  24258200.734 5   3541525.59945  24258200.76045     -2765.019
   -336719.050 3  24838989.077 3    -93471.47544  24838989.34644      3331.143
 -24604744.029 8  20714842.325 8 -18654798.80447  20714846.22347      -756.787
 -25745097.211 7  20379566.531 7 -19709943.31648  20379567.31748       465.907
 -17750254.227 7  21917485.813 7 -13518561.13047  21917485.97547      1725.094
 15  1  3  0 54 30.0000000  0  8G02G12G14G21G24G25G29G31
 -10915731.699 6  23367474.376 6   1446970.36146  23367474.47546     -1878.312
 -13162370.878 6  22874818.590 6  -9631840.30146  22874819.45046     -2589.100
  -7181923.070 4  24274004.061 4   3606237.30345  24274005.66445     -2771.396
   -436627.325 2  24819977.010 2   -171322.14245  24819975.42245      3329.400
     72317.222 1  25582947.443 1                                     -3806.394
 -24581866.602 8  20719195.765 8 -18636972.24247  20719199.46147      -768.369
 -25758852.960 7  20376948.893 7 -19720662.07548  20376949.62848       451.125
 -17801773.311 7  21907682.044 7 -13558705.85947  21907682.23347      1709.500
 15  1  3  0 55  0.0000000  0  7G02G12G14G21G25G29G31
 -10859170.907 6  23378237.533 6   1491043.72246  23378236.64946     -1892.383
 -13084604.648 6  22889617.004 6  -9571243.26346  22889618.02846     -2595.320
  -7098685.768 4  24289843.603 4   3671097.51245  24289842.71345     -2777.653
   -536481.733 3  24800975.329 3   -249130.72745  24800976.27945      3327.563
 -24558641.712 8  20723615.325 8 -18618874.93147  20723619.07147      -779.964
 -25772165.718 7  20374415.549 7 -19731035.64548  20374416.34648       436.385
 -17852824.289 7  21897967.369 7 -13598485.84147  21897967.78147      1693.878
 15  1  3  0 55 30.0000000  0  7G02G12G14G21G25G29G31
 -10802190.135 6  23389080.600 6   1535444.32946  23389078.68346     -1906.342
 -13006651.782 6  22904450.952 6  -9510500.78846  22904451.58146     -2601.536
  -7015261.151 4  24305718.782 4   3736103.66745  24305719.70445     -2783.917
   -636280.493 3  24781984.098 3   -326895.89445  24781987.72545      3325.690
 -24535069.160 8  20728101.043 8 -18600506.71247  20728104.87647      -791.556
 -25785036.108 6  20371966.389 6 -19741064.52048  20371967.28748       421.647
 -17903405.281 7  21888342.117 7 -13637899.60047  21888342.49047      1678.167
 15  1  3  0 56  0.0000000  0  7G02G12G14G21G25G29G31
 -10744791.104 6  23400003.267 6   1580170.85146  23400002.03446     -1920.249
 -12928512.715 6  22919320.365 6  -9449613.24746  22919321.68746     -2607.738
  -6931652.099 4  24321629.108 4   3801253.56845  24321629.29245     -2790.026
   -736021.189 3  24763003.940 3   -404615.89145  24763005.38145      3323.698
 -24511148.812 8  20732652.941 8 -18581867.48147  20732656.61647      -803.143
 -25797464.662 6  20369601.303 6 -19750749.09848  20369602.13448       406.931
 -17953514.010 7  21878806.745 7 -13676945.35347  21878806.96947      1662.393
 15  1  3  0 56 30.0000000  0  7G02G12G14G21G25G29G31
 -10686975.439 6  23411005.231 6   1625222.00946  23411004.28646     -1934.113
 -12850187.960 6  22934225.078 6  -9388580.96946  22934226.19146     -2613.925
  -6847862.086 4  24337573.894 4   3866544.49045  24337573.92045     -2795.995
   -835701.961 2  24744035.311 2   -482289.13345  24744034.23745      3321.651
 -24486880.508 8  20737271.046 8 -18562957.12247  20737274.67447      -814.746
 -25809451.917 6  20367320.194 6 -19760089.81248  20367321.03348       392.248
 -18003148.636 7  21869361.569 7 -13715621.67847  21869361.72447      1646.561
 15  1  3  0 57  0.0000000  0  7G02G12G14G21G25G29G31
 -10628744.743 6  23422086.175 6   1670596.59246  23422084.41246     -1947.920
 -12771678.166 6  22949164.996 6  -9327404.52546  22949166.04246     -2620.106
  -6763894.128 4  24353552.472 4   3931973.99245  24353554.41745     -2801.855
   -935319.796 3  24725078.558 3   -559913.40345  24725080.15945      3319.515
 -24462264.086 8  20741955.390 8 -18543775.49947  20741959.05747      -826.357
 -25820999.284 6  20365122.808 6 -19769087.76248  20365123.61348       377.572
 -18052307.569 7  21860006.928 7 -13753927.34147  21860007.20847      1630.673
 15  1  3  0 57 30.0000000  0  7G02G12G14G21G25G29G31
 -10570100.831 6  23433245.722 6   1716293.13646  23433244.63546     -1961.662
 -12692983.487 6  22964140.126 6  -9266084.01546  22964140.83146     -2626.262
  -6679751.506 4  24369564.284 4   3997539.63645  24369567.93445     -2807.654
  -1034872.884 2  24706134.128 2   -637487.28345  24706134.58345      3317.324
 -24437299.403 8  20746706.020 8 -18524322.50747  20746709.72047      -837.966
 -25832106.212 6  20363009.226 6 -19777742.50148  20363009.95048       362.899
 -18100988.781 7  21850743.197 7 -13791860.74847  21850743.28047      1614.717
 15  1  3  0 58  0.0000000  0  7G02G12G14G21G25G29G31
 -10511045.388 6  23444483.576 6   1762310.37546  23444482.13746     -1975.368
 -12614104.032 6  22979150.398 6  -9204619.54246  22979151.49746     -2632.396
  -6595436.794 3  24385608.864 3   4063239.35845  24385611.24645     -2813.349
  -1134359.348 3  24687202.542 3   -715008.97145  24687203.69045      3315.101
 -24411986.301 8  20751522.950 8 -18504598.01547  20751526.81647      -849.568
 -25842773.301 6  20360979.351 6 -19786054.51948  20360980.30648       348.250
 -18149189.986 7  21841570.795 7 -13829420.12947  21841571.06247      1598.689
 15  1  3  0 58 30.0000000  0  7G02G12G14G21G25G29G31
 -10451580.619 6  23455799.348 6   1808646.57246  23455798.39346     -1988.957
 -12535040.760 6  22994195.648 6  -9143011.81246  22994197.04646     -2638.495
  -6510953.310 3  24401685.517 3   4129070.60845  24401685.98945     -2818.911
  -1233776.391 3  24668284.061 3   -792476.95245  24668280.70945      3312.697
 -24386324.681 8  20756406.200 8 -18484601.94847  20756409.82247      -861.210
 -25853001.668 6  20359032.941 6 -19794024.66148  20359033.77148       333.641
 -18196909.892 7  21832489.992 7 -13866604.46447  21832490.19347      1582.610
 15  1  3  0 59  0.0000000  0  7G02G12G14G21G25G29G31
 -10391708.379 6  23467192.629 6   1855300.23446  23467191.83546     -2002.512
 -12455794.236 6  23009275.775 6  -9081261.29746  23009277.17346     -2644.598
  -6426304.338 3  24417793.690 3   4195030.77045  24417797.51345     -2824.340
  -1333121.773 4  24649379.220 4   -869888.83545  24649386.01345      3310.285
 -24360314.364 8  20761355.797 8 -18464334.18047  20761359.64447      -872.825
 -25862791.849 6  20357169.932 6 -19801653.37348  20357170.95148       319.037
 -18244146.393 7  21823501.190 7 -13903412.12447  21823501.33547      1566.471
 15  1  3  0 59 30.0000000  0  7G02G12G14G21G25G29G31
 -10331429.907 5  23478663.200 5   1902270.48146  23478662.76346     -2016.003
 -12376364.883 6  23024390.680 6  -9019368.30946  23024391.30246     -2650.683
  -6341493.014 3  24433932.674 3   4261117.51745  24433935.82045     -2829.685
  -1432393.255 4  24630488.468 4   -947243.21145  24630491.77145      3307.788
 -24333955.225 8  20766371.783 8 -18443794.59547  20766375.42747      -884.455
 -25872144.336 6  20355390.192 6 -19808941.01948  20355390.82048       304.457
 -18290897.732 7  21814604.704 7 -13939841.73747  21814604.72847      1550.269
 15  1  3  1  0  0.0000000  0  7G02G12G14G21G25G29G31
 -10270747.727 6  23490210.695 6   1949555.28246  23490209.83046     -2029.460
 -12296753.553 6  23039540.226 6  -8957333.54146  23039541.81946     -2656.751
  -6256522.156 2  24450102.065 2   4327328.56645  24450107.79045     -2834.972
  -1531588.753 4  24611612.210 4  -1024538.40545  24611615.11945      3305.208
 -24307247.135 8  20771454.172 8 -18422983.10047  20771457.93947      -896.088
 -25881060.223 6  20353693.561 6 -19815888.45848  20353694.35348       289.925
 -18337162.347 7  21805800.828 7 -13975892.08647  21805800.89647      1534.023
 15  1  3  1  0 30.0000000  0  7G02G12G14G21G25G29G31
 -10209663.442 6  23501834.646 6   1997153.43346  23501833.58046     -2042.809
 -12216960.104 6  23054724.435 6  -8895156.86846  23054725.38146     -2662.800
  -6171395.017 2  24466301.302 2   4393661.39845  24466306.50545     -2840.144
  -1630706.178 4  24592750.784 4  -1101772.73945  24592752.73545      3302.569
 -24280189.996 8  20776602.966 8 -18401899.62247  20776606.70247      -907.729
 -25889539.633 6  20352079.977 6 -19822495.78948  20352080.75348       275.372
 -18382938.121 7  21797089.989 7 -14011561.51547  21797090.35347      1517.693
 15  1  3  1  1  0.0000000  0  7G02G12G14G21G25G29G31
 -10148178.918 6  23513534.722 6   2045063.45346  23513533.48046     -2056.133
 -12136985.086 6  23069943.210 6  -8832838.69346  23069944.76546     -2668.850
  -6086114.706 2  24482529.609 2   4460113.48145  24482531.69145     -2845.212
  -1729743.383 4  24573904.610 4  -1178944.61545  24573900.64645      3299.817
 -24252783.679 8  20781818.209 8 -18380544.05247  20781821.91147      -919.361
 -25897583.335 6  20350549.303 6 -19828763.60248  20350549.99848       260.877
 -18428223.421 7  21788472.464 7 -14046848.75947  21788472.52747      1501.333
 15  1  3  1  1 30.0000000  0  7G02G12G14G21G25G29G31
 -10086296.033 6  23525310.633 6   2093283.87446  23525309.06346     -2069.386
 -12056829.223 6  23085196.393 6  -8770379.60146  23085197.04046     -2674.865
  -6000684.281 2  24498786.503 2   4526682.58445  24498786.99545     -2850.137
  -1828697.350 4  24555074.264 4  -1256051.55745  24555073.48245      3297.097
 -24225028.051 8  20787099.924 8 -18358916.29847  20787103.89647      -931.004
 -25905192.417 6  20349101.342 6 -19834692.75448  20349102.24748       246.386
 -18473016.326 7  21779948.651 7 -14081752.32347  21779948.88747      1484.863
 15  1  3  1  2  0.0000000  0  7G02G12G14G21G25G29G31
 -10024016.439 5  23537162.051 5   2141813.41446  23537161.10546     -2082.587
 -11976492.740 6  23100483.946 6  -8707779.78646  23100484.91546     -2680.876
  -5915106.841 2  24515071.304 2   4593366.27745  24515073.93745     -2855.016
  -1927566.398 3  24536260.080 3  -1333092.42845  24536263.53145      3294.180
 -24196923.012 8  20792448.140 8 -18337016.27947  20792451.73647      -942.659
 -25912367.224 6  20347736.014 6 -19840283.50648  20347736.72248       231.925
 -18517315.265 7  21771518.830 7 -14116270.97147  21771518.78247      1468.385
 15  1  3  1  2 30.0000000  0  7G02G12G14G21G25G29G31
  -9961342.196 5  23549088.546 5   2190650.47546  23549087.73646     -2095.709
 -11895976.329 6  23115805.701 6  -8645039.73446  23115806.59646     -2686.876
  -5829385.638 2  24531383.588 2   4660161.97145  24531388.62445     -2859.741
  -2026348.587 3  24517462.426 3  -1410065.46545  24517461.78845      3291.269
 -24168468.452 8  20797862.865 8 -18314843.90147  20797866.39847      -954.324
 -25919108.425 6  20346453.200 6 -19845536.38548  20346454.07348       217.500
 -18561118.265 7  21763183.379 7 -14150403.17547  21763183.59147      1451.809
 15  1  3  1  3  0.0000000  0  7G02G12G14G21G25G29G31
  -9898275.100 6  23561089.812 6   2239793.68446  23561088.42346     -2108.756
 -11815280.408 6  23131161.643 6  -8582159.83146  23131162.75246     -2692.843
  -5743523.619 2  24547722.556 2   4727067.37345  24547725.57845     -2864.353
  -2125041.176 3  24498681.841 3  -1486968.67645  24498679.18745      3288.245
 -24139664.267 8  20803344.131 8 -18292399.09747  20803348.04347      -965.956
 -25925416.947 6  20345252.722 6 -19850452.11048  20345253.37648       203.073
 -18604423.685 7  21754942.625 7 -14184147.66347  21754942.95747      1435.205
 15  1  3  1  3 30.0000000  0  8G02G05G12G14G21G25G29G31
  -9834817.150 6  23573165.467 6   2289241.42946  23573165.22146     -2121.757
    -52819.896 3  25472685.140 3                                      2293.611
 -11734405.493 6  23146551.621 6  -8519140.44946  23146552.40546     -2698.800
  -5657523.843 3  24564087.956 3   4794080.20345  24564090.60445     -2868.913
  -2223642.094 2  24479918.610 2  -1563800.61645  24479915.37645      3285.138
 -24110510.376 8  20808891.944 8 -18269681.78147  20808895.94947      -977.625
 -25931293.432 6  20344134.465 6 -19855031.18248  20344135.27648       188.707
 -18647229.926 7  21746796.861 7 -14217503.17047  21746797.19147      1418.524
 15  1  3  1  4  0.0000000  0  8G02G05G12G14G21G25G29G31
  -9770970.412 6  23585315.116 6   2338992.12746  23585314.92346     -2134.685
   -121512.604 3  25459613.247 3                                      2285.866
 -11653352.301 6  23161975.550 6  -8455982.15246  23161976.77946     -2704.739
  -5571389.490 2  24580478.729 2   4861197.79444  24580483.31744     -2873.304
  -2322149.159 3  24461173.259 3  -1640559.24645  24461174.10545      3282.008
 -24081006.679 8  20814506.324 8 -18246691.89047  20814509.97947      -989.288
 -25936738.540 6  20343098.290 6 -19859274.11448  20343099.06648       174.306
 -18689535.046 7  21738746.466 7 -14250468.19247  21738746.59847      1401.805
 15  1  3  1  4 30.0000000  0  8G02G05G12G14G21G25G29G31
  -9706736.551 6  23597538.382 6   2389044.47446  23597537.53446     -2147.545
   -189970.311 3  25446586.211 3    -19536.26244  25446588.23344      2277.974
 -11572121.365 6  23177433.274 6  -8392685.34746  23177434.39646     -2710.667
  -5485123.561 3  24596894.664 3   4928417.98145  24596895.89545     -2877.690
  -2420560.002 3  24442446.123 3  -1717242.99145  24442445.71545      3278.727
 -24051153.076 8  20820187.285 8 -18223429.34947  20820191.20247     -1000.948
 -25941752.607 6  20342144.138 6 -19863181.17448  20342144.90848       159.959
 -18731337.691 7  21730791.690 7 -14283041.68047  21730791.88047      1385.016
 15  1  3  1  5  0.0000000  0  8G02G05G12G14G21G25G29G31
  -9642117.741 6  23609834.981 6   2439396.78146  23609834.39646     -2160.355
   -258190.205 3  25433604.331 3    -72694.49944  25433601.37144      2270.016
 -11490713.027 6  23192924.777 6  -8329250.30346  23192925.91746     -2716.569
  -5398729.350 3  24613334.998 3   4995738.09545  24613342.23945     -2881.915
  -2518872.299 3  24423737.934 3  -1793849.96645  24423739.32745      3275.441
 -24020949.485 8  20825934.844 8 -18199894.09247  20825938.56647     -1012.631
 -25946337.051 6  20341271.734 6 -19866753.45948  20341272.63148       145.646
 -18772635.877 7  21722932.901 7 -14315222.08247  21722933.06647      1368.179
 15  1  3  1  5 30.0000000  0  8G02G05G12G14G21G25G29G31
  -9577115.646 5  23622204.472 5   2490047.78046  23622203.35946     -2173.099
   -326169.212 4  25420668.359 4   -125665.32545  25420674.48245      2261.934
 -11409127.517 6  23208450.022 6  -8265677.20146  23208450.32946     -2722.459
  -5312209.717 3  24629799.198 3   5063155.96644  24629801.07244     -2886.070
  -2617083.900 3  24405048.912 3  -1870378.45845  24405051.22745      3272.039
 -23990395.836 8  20831749.019 8 -18176086.04847  20831752.35347     -1024.285
 -25950492.107 6  20340481.036 6 -19869991.15848  20340481.57848       131.359
 -18813428.238 7  21715170.375 7 -14347008.33747  21715170.74247      1351.288
 15  1  3  1  6  0.0000000  0  8G02G05G12G14G21G25G29G31
  -9511732.373 6  23634646.499 6   2540995.76346  23634646.73346     -2185.778
   -393904.334 4  25407778.824 4   -178445.84045  25407785.77445      2253.726
 -11327365.742 6  23224008.767 6  -8201966.73846  23224010.15446     -2728.337
  -5225567.923 4  24646286.705 4   5130669.14443  24646292.20843     -2890.043
  -2715192.654 3  24386379.478 3  -1946826.85745  24386383.02045      3268.543
 -23959492.056 8  20837629.827 8 -18152005.19647  20837633.51447     -1035.967
 -25954219.121 6  20339771.801 6 -19872895.31948  20339772.49448       117.105
 -18853712.871 7  21707504.458 7 -14378398.95547  21707504.83447      1334.332
 15  1  3  1  6 30.0000000  0  8G02G05G12G14G21G25G29G31
  -9445969.942 5  23647160.669 5   2592239.22946  23647160.28046     -2198.393
   -461392.440 4  25394936.271 4   -231034.03045  25394938.37145      2245.410
 -11245427.943 6  23239601.047 6  -8138119.12146  23239602.24746     -2734.185
  -5138806.928 4  24662796.748 4                                     -2893.993
  -2813196.493 4  24367729.978 4  -2023193.48145  24367728.66045      3265.022
 -23928238.059 8  20843577.272 8 -18127651.43847  20843580.85347     -1047.639
 -25957518.435 6  20339143.958 6 -19875466.20548  20339144.73648       102.850
 -18893488.327 7  21699935.442 7 -14409392.81647  21699935.85447      1317.349
 15  1  3  1  7  0.0000000  0  8G02G05G12G14G21G25G29G31
  -9379830.269 5  23659746.645 5   2643776.61446  23659745.86546     -2210.930
   -528630.734 4  25382141.268 4   -283427.41145  25382145.68545      2237.087
 -11163314.560 6  23255226.723 6  -8074134.68646  23255227.25646     -2740.032
  -5051929.931 4  24679328.903 4                                     -2897.788
  -2911093.081 4  24349100.851 4  -2099476.40645  24349102.56045      3261.417
 -23896633.824 8  20849591.365 8 -18103024.76347  20849594.86547     -1059.323
 -25960390.735 6  20338597.379 6 -19877704.35848  20338598.12848        88.647
 -18932752.830 7  21692463.662 7 -14439988.53147  21692463.91747      1300.267
 15  1  3  1  7 30.0000000  0  8G02G05G12G14G21G25G29G31
  -9313315.385 5  23672404.026 5   2695606.40646  23672403.09846     -2223.404
   -595616.456 4  25369394.287 4   -335624.19145  25369400.03645      2228.624
 -11081026.186 6  23270885.698 6  -8010013.91546  23270887.25446     -2745.837
  -4964940.071 4  24695882.548 4     11300.77344  24695882.16344     -2901.548
  -3008879.796 4  24330492.586 4  -2175673.87345  24330491.86245      3257.728
 -23864679.273 8  20855672.125 8 -18078125.11947  20855675.86047     -1070.989
 -25962837.154 6  20338131.829 6 -19879610.64948  20338132.60048        74.456
 -18971504.885 7  21685089.392 7 -14470184.93547  21685089.62147      1283.188
 15  1  3  1  8  0.0000000  0  8G02G05G12G14G21G25G29G31
  -9246427.223 5  23685132.422 5   2747727.01946  23685132.25546     -2235.792
   -662346.843 5  25356695.890 5   -387621.86845  25356697.90745      2219.991
 -10998563.558 6  23286577.825 6  -7945757.36446  23286579.21846     -2751.649
  -4877840.372 4  24712457.071 4     79170.43144  24712463.65844     -2905.129
  -3106554.927 4  24311905.638 4  -2251784.35145  24311903.86945      3253.870
 -23832374.297 8  20861819.562 8 -18052952.41547  20861823.33547     -1082.663
 -25964858.216 6  20337747.228 6 -19881185.49348  20337747.95648        60.286
 -19009743.173 7  21677812.893 7 -14499981.00747  21677813.27947      1266.021
 15  1  3  1  8 30.0000000  0  8G02G05G12G14G21G25G29G31
  -9179167.622 5  23697931.499 5   2800137.10046  23697930.73246     -2248.154
   -728818.244 5  25344046.783 5   -439417.80345  25344048.32545      2211.374
 -10915926.911 6  23302303.127 6  -7881365.19846  23302304.43046     -2757.440
  -4790633.818 4  24729051.934 4    147123.72045  24729053.87645     -2908.624
  -3204116.112 3  24293340.263 3  -2327806.02645  24293337.09545      3250.127
 -23799718.927 8  20868033.670 8 -18027506.67947  20868037.16447     -1094.347
 -25966454.917 6  20337443.378 6 -19882429.67148  20337444.05148        46.159
 -19047465.648 7  21670634.547 7 -14529375.14747  21670634.88047      1248.796
 15  1  3  1  9  0.0000000  0  8G02G05G12G14G21G25G29G31
  -9111538.824 5  23710800.851 5   2852834.86246  23710800.97146     -2260.422
   -795028.338 5  25331447.393 5   -491010.09245  25331452.61745      2202.612
 -10833117.034 6  23318061.343 6  -7816838.04146  23318062.39946     -2763.186
  -4703323.576 4  24745666.513 4    215157.67045  24745659.58345     -2912.055
  -3301560.965 5  24274797.208 5  -2403737.05745  24274798.83145      3246.214
 -23766713.089 8  20874314.475 8 -18001787.85047  20874318.03647     -1106.040
 -25967627.871 6  20337220.171 6 -19883343.65948  20337220.92848        32.036
 -19084670.490 7  21663554.710 7 -14558365.93347  21663554.98247      1231.525
 15  1  3  1  9 30.0000000  0  8G02G05G12G14G21G25G29G31
  -9043542.997 5  23723740.054 5   2905818.61546  23723739.97946     -2272.626
   -860973.957 5  25318898.374 5   -542396.34445  25318900.61545      2193.739
 -10750134.392 6  23333852.451 6  -7752176.26546  23333853.26546     -2768.972
  -4615912.700 3  24762300.253 3    283270.07845  24762299.81445     -2915.322
  -3398887.553 4  24256276.578 4  -2479575.92345  24256277.63245      3242.238
 -23733356.738 8  20880661.974 8 -17975795.90047  20880665.88447     -1117.727
 -25968378.030 6  20337077.423 6 -19883928.19548  20337077.89648        17.978
 -19121356.943 7  21656573.513 7 -14586952.77347  21656574.03347      1214.220
 15  1  3  1 10  0.0000000  0  8G02G05G12G14G21G25G29G31
  -8975181.550 5  23736748.817 5   2959087.26945  23736747.77045     -2284.785
   -926651.888 5  25306400.291 5   -593573.89045  25306405.01245      2184.765
 -10666979.398 6  23349676.359 6  -7687380.19746  23349677.62946     -2774.704
  -4528404.313 2  24778952.479 2    351458.39045  24778953.68845     -2918.518
  -3496093.729 4  24237778.813 4  -2555320.97745  24237775.77645      3238.182
 -23699649.826 8  20887076.184 8 -17949530.78147  20887080.04047     -1129.405
 -25968706.462 6  20337014.911 6 -19884184.10448  20337015.61848         3.912
 -19157523.487 7  21649691.245 7 -14615134.49747  21649691.36947      1196.872
 15  1  3  1 10 30.0000000  0  8G02G05G12G14G21G25G29G31
  -8906456.935 5  23749826.675 5   3012638.92945  23749826.65445     -2296.856
   -992059.429 5  25293953.671 5   -644540.80245  25293954.61045      2175.708
 -10583653.160 6  23365532.848 6  -7622450.69146  23365534.05446     -2780.385
  -4440801.405 4  24795622.832 4    419720.30345  24795623.58145     -2921.642
  -3593176.741 4  24219304.508 4  -2630970.03345  24219303.81445      3233.994
 -23665592.356 8  20893557.104 8 -17922992.50347  20893560.89847     -1141.101
 -25968614.004 6  20337032.508 6 -19884112.05748  20337033.20248       -10.105
 -19193168.278 7  21642908.268 7 -14642909.65647  21642908.57547      1179.440
 15  1  3  1 11  0.0000000  0  8G02G05G12G14G21G25G29G31
  -8837370.695 5  23762973.315 5   3066472.35845  23762973.80745     -2308.869
  -1057193.714 5  25281558.997 5   -695294.71745  25281561.05345      2166.550
 -10500155.656 6  23381421.908 6  -7557387.73946  23381422.83946     -2786.102
  -4353107.143 3  24812310.464 3    488053.56145  24812313.42745     -2924.638
  -3690134.563 5  24200854.117 5  -2706521.56145  24200856.61745      3229.830
 -23631184.297 8  20900104.755 8 -17896181.03847  20900108.26347     -1152.780
 -25968100.873 6  20337130.140 6 -19883712.20948  20337131.21048       -24.111
 -19228289.846 7  21636224.862 7 -14670277.11547  21636225.27247      1161.981
 15  1  3  1 11 30.0000000  0  8G02G05G12G14G21G25G29G31
  -8767925.378 5  23776188.322 5   3120585.56645  23776187.63245     -2320.796
  -1122052.206 5  25269216.819 5   -745833.79745  25269219.09945      2157.301
 -10416486.952 6  23397343.535 6  -7492191.34946  23397344.78146     -2791.798
  -4265324.437 2  24829014.942 2    556455.62745  24829012.42845     -2927.528
  -3786965.040 5  24182427.789 5  -2781973.84945  24182430.96945      3225.553
 -23596425.601 8  20906719.123 8 -17869096.34947  20906722.72547     -1164.466
 -25967168.305 6  20337307.602 6 -19882985.52548  20337308.53648       -38.062
 -19262886.715 7  21629641.295 7 -14697235.70947  21629641.56847      1144.459
 15  1  3  1 12  0.0000000  0  8G02G05G12G14G21G25G29G31
  -8698122.837 5  23789471.345 5   3174977.16345  23789472.04345     -2332.684
  -1186631.555 4  25256927.711 4   -796155.38345  25256929.25745      2147.970
 -10332647.994 6  23413297.563 6  -7426862.35146  23413298.97646     -2797.458
  -4177456.191 3  24845735.795 3    624924.38044  24845738.31944     -2930.341
  -3883666.022 5  24164026.175 5  -2857325.24345  24164030.67345      3221.177
 -23561316.272 8  20913400.208 8 -17841738.43847  20913404.00047     -1176.165
 -25965817.668 6  20337564.614 6 -19881933.07748  20337565.42248       -51.998
 -19296957.282 7  21623157.888 7 -14723784.20247  21623158.14847      1126.890
 15  1  3  1 12 30.0000000  0  8G02G05G12G14G21G25G29G31
  -8627965.298 6  23802821.961 6   3229645.38045  23802820.20545     -2344.482
  -1250929.036 4  25244692.315 4   -846257.23945  25244696.41245      2138.500
 -10248639.448 6  23429283.866 6  -7361401.15046  23429284.98846     -2803.100
  -4089505.790 2  24862472.209 2    693457.14045  24862476.01945     -2933.036
  -3980235.331 5  24145649.565 5  -2932573.99945  24145650.56045      3216.787
 -23525856.319 8  20920148.011 8 -17814107.30947  20920151.77947     -1187.847
 -25964049.123 6  20337901.158 6 -19880554.98248  20337902.16548       -65.910
 -19330500.359 8  21616774.861 8 -14749921.66247  21616775.25247      1109.287
 15  1  3  1 13  0.0000000  0  8G02G05G12G14G21G25G29G31
  -8557454.492 5  23816239.635 5   3284588.88145  23816238.89345     -2356.228
  -1314941.716 5  25232511.137 5   -896137.24645  25232515.71445      2128.957
 -10164462.151 6  23445302.298 6  -7295808.48146  23445303.04746     -2808.730
  -4001476.201 2  24879223.653 2    762051.56345  24879226.59645     -2935.628
  -4076670.968 5  24127298.485 5  -3007718.65745  24127298.51545      3212.241
 -23490045.699 8  20926962.540 8 -17786202.93847  20926966.35847     -1199.532
 -25961863.772 6  20338317.008 6 -19878852.10548  20338317.73548       -79.779
 -19363514.727 8  21610492.442 8 -14775647.15047  21610492.52547      1091.647
 15  1  3  1 13 30.0000000  0  8G02G05G12G14G21G25G29G31
  -8486592.705 5  23829724.197 5   3339805.87445  23829723.25845     -2367.867
  -1378666.673 3  25220384.562 3   -945793.06845  25220387.32645      2119.387
 -10080115.980 6  23461352.844 6  -7230084.23346  23461355.17846     -2814.324
  -3913370.566 2  24895989.767 2    830705.28445  24895990.63145     -2938.134
  -4172970.083 5  24108973.403 5  -3082756.91745  24108976.84145      3207.697
 -23453884.477 8  20933843.796 8 -17758025.37247  20933847.42447     -1211.216
 -25959262.528 6  20338811.996 6 -19876825.15848  20338812.67848       -93.633
 -19395998.779 8  21604310.945 8 -14800959.39447  21604311.44347      1073.942
 15  1  3  1 14  0.0000000  0  8G02G05G12G14G21G25G29G31
  -8415381.912 5  23843275.145 5   3395294.77445  23843272.86445     -2379.496
  -1442100.839 4  25208313.445 4   -995222.27645  25208316.45245      2109.629
  -9995602.284 6  23477435.304 6  -7164229.44946  23477436.21346     -2819.903
  -3825191.887 1  24912769.637 1                                     -2940.499
  -4269130.867 5  24090674.540 5  -3157687.32845  24090673.10345      3202.978
 -23417372.591 8  20940791.775 8 -17729574.55747  20940795.53647     -1222.907
 -25956246.524 6  20339385.918 6 -19874475.01648  20339386.66548      -107.433
 -19427950.846 8  21598230.671 8 -14825857.10647  21598230.68547      1056.196
 15  1  3  1 14 30.0000000  0  8G02G05G12G14G21G25G29G31
  -8343824.267 5  23856892.136 5   3451053.99845  23856891.58445     -2391.021
  -1505241.640 3  25196298.136 3  -1044422.82845  25196300.51845      2099.737
  -9910920.952 6  23493549.673 6  -7098244.00746  23493550.91846     -2825.501
     76482.813 1  24929562.999 1                                     -2942.790
  -4365151.578 5  24072402.360 5  -3232508.69645  24072403.52845      3198.290
 -23380510.088 8  20947806.475 8 -17700850.53747  20947810.35947     -1234.583
 -25952816.445 6  20340038.638 6 -19871802.22548  20340039.23348      -121.243
 -19459369.800 8  21592251.847 8 -14850339.40947  21592252.12047      1038.400
 15  1  3  1 15  0.0000000  0  7G02G05G12G21G25G29G31
  -8271921.801 5  23870574.743 5   3507081.87845  23870574.88945     -2402.473
  -1568086.033 3  25184339.233 3  -1093392.50345  25184338.91145      2089.811
  -9826072.430 6  23509695.846 6  -7032128.29446  23509697.48146     -2831.057
  -4461029.216 4  24054157.415 4  -3307218.47845  24054157.52945      3193.500
 -23343296.981 8  20954887.892 8 -17671853.32047  20954891.64447     -1246.286
 -25948973.516 6  20340769.915 6 -19868807.72748  20340770.55848      -134.967
 -19490254.406 8  21586374.709 8 -14874405.33747  21586375.17847      1020.556
 15  1  3  1 15 30.0000000  0  7G02G05G12G21G25G29G31
  -8199676.416 5  23884322.576 5   3563376.97745  23884322.13845     -2413.881
  -1630631.290 3  25172437.232 3  -1142128.99245  25172442.41945      2079.818
  -9741057.520 6  23525873.668 6  -6965882.93346  23525875.58746     -2836.609
  -4556761.895 4  24035940.050 4  -3381815.37345  24035943.29945      3188.700
 -23305733.298 8  20962036.031 8 -17642582.92347  20962039.84947     -1257.967
 -25944718.153 6  20341579.681 6 -19865491.85648  20341580.48148      -148.712
 -19520603.007 8  21580599.568 8 -14898053.59647  21580599.98247      1002.662
 15  1  3  1 16  0.0000000  0  7G02G05G12G21G25G29G31
  -8127090.383 5  23898135.268 5   3619937.55445  23898134.55445     -2425.174
  -1692874.506 3  25160592.727 3  -1190630.21745  25160595.26745      2069.705
  -9655876.736 6  23542083.051 6  -6899508.32046  23542084.52446     -2842.129
  -4652347.628 4  24017750.631 4  -3456297.74245  24017751.29845      3183.682
 -23267819.061 8  20969250.879 8 -17613039.36647  20969254.87847     -1269.642
 -25940051.375 6  20342467.732 6 -19861855.40348  20342468.56248      -162.406
 -19550414.559 8  21574926.611 8 -14921283.38147  21574926.66747       984.742
 15  1  3  1 16 30.0000000  0  7G02G05G12G21G25G29G31
  -8054165.908 5  23912012.331 5   3676761.81245  23912013.04245     -2436.432
  -1754812.938 2  25148806.215 2  -1238893.98945  25148813.54545      2059.500
  -9570530.827 6  23558323.855 6  -6833005.04446  23558324.90446     -2847.615
  -4747784.132 5  23999589.681 5  -3530663.80945  23999592.33045      3178.704
 -23229554.315 8  20976532.428 8 -17583222.69147  20976536.24347     -1281.328
 -25934974.083 6  20343433.913 6 -19857899.06148  20343434.64848      -176.075
 -19579687.724 8  21569356.105 8 -14944093.63247  21569356.40947       966.780
 15  1  3  1 17  0.0000000  0  8G02G05G12G14G21G25G29G31
  -7980904.821 5  23925953.404 5   3733848.34545  23925951.85745     -2447.629
  -1816443.367 2  25137078.286 2  -1286917.60945  25137073.72345      2049.198
  -9485020.287 6  23574596.003 6  -6766373.47646  23574597.27146     -2853.101
     79696.799 1  25013708.433 1                                     -2952.679
  -4843069.049 5  23981457.582 5  -3604911.82345  23981460.74845      3173.608
 -23190939.091 8  20983880.663 8 -17553132.91247  20983884.42247     -1293.017
 -25929487.711 6  20344477.925 6 -19853623.96348  20344478.76348      -189.690
 -19608421.117 8  21563888.317 8 -14966483.28247  21563888.62847       948.781
 15  1  3  1 17 30.0000000  0  8G02G05G12G14G21G25G29G31
  -7907309.330 5  23939958.132 5   3791195.48245  23939956.93145     -2458.748
  -1877763.396 3  25125409.478 3  -1334699.49245  25125411.56145      2038.805
  -9399345.568 6  23590899.376 6  -6699613.95946  23590900.54546     -2858.544
    168301.973 2  25030569.485 2                                     -2954.352
  -4938200.346 4  23963354.669 4  -3679039.98345  23963359.57245      3168.460
 -23151973.453 8  20991295.589 8 -17522770.08147  20991299.31347     -1304.692
 -25923593.001 6  20345599.648 6 -19849030.68248  20345600.48448      -203.284
 -19636613.751 8  21558523.437 8 -14988451.56647  21558523.75547       930.721
 15  1  3  1 18  0.0000000  0  8G02G05G12G14G21G25G29G31
  -7833381.530 5  23954026.087 5   3848801.53745  23954023.52945     -2469.768
  -1938770.000 3  25113800.333 3  -1382237.02145  25113803.11445      2028.295
  -9313507.442 6  23607233.841 6  -6632727.12346  23607236.08546     -2863.994
    256956.027 3  25047439.859 3                                     -2955.902
  -5033175.989 4  23945281.383 4  -3753047.03345  23945281.85345      3163.233
 -23112657.423 8  20998777.183 8 -17492134.22547  20998780.81047     -1316.373
 -25917290.788 6  20346798.913 6 -19844119.86348  20346799.71048      -216.860
 -19664264.174 8  21553261.724 8 -15009997.35247  21553261.80747       912.626
 15  1  3  1 18 30.0000000  0  8G02G05G12G14G21G25G29G31
  -7759123.676 5  23968156.921 5   3906664.79945  23968157.26545     -2480.732
  -1999460.365 3  25102251.270 3  -1429528.18345  25102254.97545      2017.708
  -9227506.193 6  23623599.345 6  -6565713.20345  23623600.52745     -2869.416
    345656.066 3  25064318.997 3                                     -2957.365
  -5127993.499 4  23927238.152 4  -3826930.77645  23927239.69445      3157.909
 -23072991.085 8  21006325.435 8 -17461225.40147  21006329.25847     -1328.056
 -25910581.791 6  20348075.579 6 -19838892.06848  20348076.36648      -230.400
 -19691371.106 7  21548103.429 7 -15031119.64147  21548103.50147       894.486
 15  1  3  1 19  0.0000000  0  8G02G05G12G14G21G25G29G31
  -7684537.718 5  23982350.155 5   3964783.73145  23982350.73145     -2491.627
  -2059831.639 3  25090763.034 3  -1476570.69745  25090768.12445      2007.015
  -9141342.688 6  23639995.724 6  -6498572.82146  23639996.83746     -2874.826
    434398.736 2  25081206.075 2                                     -2958.797
  -5222650.771 4  23909225.400 4  -3900689.69645  23909227.60345      3152.531
 -23032974.504 8  21013940.353 8 -17430043.65947  21013944.14247     -1339.728
 -25903467.204 6  20349429.434 6 -19833348.23048  20349430.28548      -243.907
 -19717933.371 8  21543048.799 8 -15051817.50847  21543049.21847       876.319
 15  1  3  1 19 30.0000000  0  8G02G05G12G14G21G25G29G31
  -7609625.845 5  23996605.414 5   4023156.62545  23996604.84145     -2502.473
  -2119881.229 3  25079335.912 3  -1523362.49345  25079335.59945      1996.256
  -9055017.190 5  23656422.908 5  -6431306.20345  23656424.50545     -2880.212
    523181.271 3  25098100.817 3                                     -2960.067
  -5317145.670 4  23891243.559 4  -3974322.08945  23891242.59845      3147.078
 -22992607.739 8  21021621.899 8 -17398589.03847  21021625.44647     -1351.397
 -25895947.973 6  20350860.288 6 -19827489.08148  20350861.11848      -257.360
 -19743950.038 8  21538097.986 8 -15072090.23147  21538098.22547       858.107
 15  1  3  1 20  0.0000000  0  8G02G05G12G14G21G25G29G31
  -7534390.006 5  24010922.306 5   4081781.95245  24010921.96145     -2513.237
  -2179606.126 3  25067970.651 3  -1569901.37845  25067973.60545      1985.375
  -8968530.389 5  23672880.789 5  -6363913.92045  23672883.08045     -2885.578
    612000.636 3  25115002.639 3                                     -2961.218
  -5411476.160 5  23873293.162 5  -4047826.31145  23873295.16945      3141.556
 -22951890.860 8  21029370.070 8 -17366861.61247  21029373.61147     -1363.068
 -25888025.490 6  20352367.882 6 -19821315.71848  20352368.74548      -270.800
 -19769419.692 8  21533251.265 8 -15091936.71647  21533251.63747       839.846
 15  1  3  1 20 30.0000000  0  8G02G05G12G14G21G25G29G31
  -7458832.446 5  24025300.430 5   4140657.98145  24025300.07945     -2523.928
  -2239003.363 3  25056667.698 3  -1616184.89845  25056670.31045      1974.419
  -8881882.811 5  23689369.268 5  -6296396.35045  23689370.47645     -2890.933
    700853.720 3  25131910.926 3     30002.97845  25131906.26345     -2962.309
  -5505639.904 5  23855374.390 5  -4121200.67545  23855376.67745      3135.986
 -22910823.954 8  21037184.858 8 -17334861.43247  21037188.62747     -1374.741
 -25879700.433 6  20353952.086 6 -19814828.65848  20353952.84048      -284.191
 -19794341.327 8  21528508.825 8 -15111356.16347  21528509.33847       821.564
 15  1  3  1 21  0.0000000  0  8G02G05G12G14G21G25G29G31
  -7382955.312 5  24039739.346 5   4199783.01345  24039737.64745     -2534.526
  -2298070.508 4  25045427.600 4  -1662211.22845  25045430.75445      1963.365
  -8795075.099 5  23705888.237 5  -6228753.98145  23705890.41045     -2896.273
    789737.645 4  25148825.029 4     99263.18645  25148830.66645     -2963.293
  -5599634.723 5  23837487.801 5  -4194443.37745  23837490.19145      3130.321
 -22869407.107 8  21045066.236 8 -17302588.58047  21045070.00847     -1386.402
 -25870974.304 6  20355612.616 6 -19808029.07248  20355613.27348      -297.562
 -19818713.786 8  21523870.895 8 -15130347.68747  21523871.06347       803.244
 15  1  3  1 21 30.0000000  0  8G02G05G12G14G21G25G29G31
  -7306761.054 5  24054238.658 5   4259155.16245  24054238.01245     -2545.084
  -2356804.562 4  25034250.864 4  -1707977.87145  25034250.22045      1952.238
  -8708107.761 5  23722437.577 5  -6160987.25445  23722439.02245     -2901.590
    878649.465 3  25165744.445 3    168545.13345  25165749.52945     -2964.167
  -5693458.601 5  23819633.688 5  -4267552.81345  23819635.20745      3124.604
 -22827640.406 8  21053014.178 8 -17270043.11247  21053017.83947     -1398.063
 -25861847.230 6  20357349.447 6 -19800917.06248  20357350.21648      -310.910
 -19842535.814 8  21519337.716 8 -15148910.31347  21519337.77147       784.869
 15  1  3  1 22  0.0000000  0  8G02G05G12G14G21G25G29G31
  -7230251.430 5  24068797.982 5   4318773.05945  24068797.96545     -2555.551
  -2415203.046 5  25023138.012 5  -1753483.19445  25023138.47145      1940.995
  -8620981.504 5  23739017.175 5  -6093096.68545  23739018.14145     -2906.846
    967586.055 3  25182668.499 3    237846.30745  25182672.99145     -2964.917
  -5787109.474 5  23801812.527 5  -4340527.58345  23801813.83945      3118.794
 -22785523.949 8  21061028.667 8 -17237225.10547  21061032.33847     -1409.708
 -25852320.392 6  20359162.344 6 -19793493.54948  20359163.17448      -324.205
 -19865806.346 7  21514909.489 7 -15167043.19547  21514909.82147       766.494
 15  1  3  1 22 30.0000000  0  8G02G05G12G14G21G25G29G31
  -7153428.661 5  24083416.915 5   4378634.94945  24083414.96545     -2565.950
  -2473263.010 5  25012089.550 5  -1798724.71345  25012088.83845      1929.639
  -8533697.422 5  23755626.790 5  -6025083.16145  23755628.37445     -2912.113
   1056544.610 3  25199596.807 3                                     -2965.613
  -5880585.227 5  23784024.774 5  -4413365.77745  23784024.57245      3112.898
 -22743057.866 8  21069109.704 8 -17204134.65747  21069113.37147     -1421.364
 -25842395.249 6  20361051.040 6 -19785759.66848  20361051.79548      -337.473
 -19888524.749 7  21510586.325 7 -15184745.85047  21510586.38247       748.057
 15  1  3  1 23  0.0000000  0  8G02G05G12G14G21G25G29G31
  -7076294.823 5  24098094.980 5   4438739.22345  24098094.52645     -2576.292
  -2530981.696 5  25001106.030 5  -1843700.22645  25001105.42345      1918.238
  -8446255.223 5  23772266.489 5  -5956946.41745  23772267.88645     -2917.338
   1145521.870 3  25216528.605 3                                     -2966.190
  -5973883.150 5  23766270.743 5  -4486065.44645  23766271.70745      3106.951
 -22700242.227 8  21077257.261 8 -17170771.83247  21077260.90847     -1433.011
 -25832072.856 6  20363015.322 6 -19777716.24148  20363016.03948      -350.694
 -19910689.483 8  21506368.519 8 -15202017.06847  21506368.66747       729.585
 15  1  3  1 23 30.0000000  0  8G02G05G12G14G21G25G29G31
  -6998852.137 5  24112831.846 5   4499084.16545  24112831.33845     -2586.547
  -2588356.580 5  24990187.968 5  -1888407.97845  24990187.51545      1906.753
  -8358655.929 5  23788936.108 5  -5888687.26546  23788937.97946     -2922.606
   1234515.258 2  25233463.326 2                                     -2966.698
  -6067001.548 5  23748550.910 5  -4558625.25045  23748552.53745      3100.929
 -22657077.186 8  21085471.292 8 -17137136.73847  21085474.81247     -1444.665
 -25821353.629 6  20365055.118 6 -19769363.59848  20365055.92648      -363.919
 -19932299.556 8  21502256.264 8 -15218856.09347  21502256.22047       711.076
 15  1  3  1 24  0.0000000  0  8G02G05G12G14G21G25G29G31
  -6921102.802 5  24127627.016 5   4559668.07045  24127625.64845     -2596.732
  -2645384.854 5  24979335.836 5  -1932845.58445  24979335.82445      1895.140
  -8270899.690 5  23805635.586 5  -5820305.80146  23805637.98746     -2927.820
   1323521.676 2  25250400.697 2                                     -2967.053
  -6159938.194 5  23730865.654 5  -4631043.37445  23730866.04945      3094.838
 -22613562.860 8  21093751.799 8 -17103229.49547  21093755.36447     -1456.305
 -25810238.881 6  20367170.185 6 -19760702.75448  20367170.97348      -377.060
 -19953353.826 7  21498249.767 7 -15235262.01747  21498249.85247       692.539
 15  1  3  1 24 30.0000000  0  8G02G05G12G14G21G25G29G31
  -6843048.874 5  24142480.149 5   4620489.27845  24142478.94845     -2606.844
  -2702063.855 5  24968550.187 5  -1977010.98745  24968553.64245      1883.468
  -8182987.487 5  23822364.773 5  -5751802.80646  23822366.83046     -2932.988
   1412538.089 2  25267339.877 2                                     -2967.399
  -6252690.936 5  23713215.393 5  -4703318.21345  23713215.84345      3088.665
 -22569699.344 8  21102098.762 8 -17069050.14347  21102102.71747     -1467.940
 -25798729.894 6  20369360.267 6 -19751734.71048  20369360.76048      -390.201
 -19973851.500 8  21494349.191 8 -15251234.22947  21494349.24247       673.968
 15  1  3  1 25  0.0000000  0  8G02G05G12G14G21G25G29G31
  -6764692.633 5  24157390.812 5   4681546.08545  24157389.91245     -2616.892
  -2758390.722 5  24957831.503 5  -2020902.03945  24957834.54045      1871.674
  -8094920.070 5  23839123.521 5  -5683178.89646  23839125.10546     -2938.178
   1501561.805 2  25284280.649 2                                     -2967.520
  -6345258.015 5  23695600.398 5  -4775448.39445  23695601.34745      3082.450
 -22525486.786 8  21110512.139 8 -17034598.80947  21110515.91447     -1479.565
 -25786827.867 6  20371625.144 6 -19742460.40248  20371625.92048      -403.285
 -19993791.848 7  21490554.669 7 -15266772.17247  21490554.83047       655.373
 15  1  3  1 25 30.0000000  0  8G02G05G12G14G21G25G29G31
  -6686036.273 5  24172358.631 5   4742836.80445  24172357.46545     -2626.871
  -2814362.965 5  24947180.278 5  -2064516.80645  24947182.23745      1859.800
  -8006697.659 5  23855911.720 5  -5614434.18746  23855912.03046     -2943.316
   1590589.489 2  25301222.117 2                                     -2967.623
  -6437637.117 5  23678021.261 5  -4847432.11745  23678023.79745      3076.144
 -22480925.348 8  21118991.902 8 -16999875.61447  21118995.45847     -1491.210
 -25774533.198 6  20373964.735 6 -19732880.13848  20373965.44748      -416.353
 -20013173.746 8  21486866.423 8 -15281874.95047  21486866.87047       636.737
 15  1  3  1 26  0.0000000  0  8G02G05G12G14G21G25G29G31
  -6607081.897 5  24187383.151 5   4804359.68145  24187382.03545     -2636.751
  -2869977.533 5  24936597.151 5  -2107852.84645  24936600.05645      1847.816
  -7918321.191 5  23872729.260 5  -5545569.43846  23872731.01046     -2948.436
   1679618.442 2  25318163.739 2                                     -2967.631
  -6529825.860 5  23660478.307 5  -4919267.45145  23660479.95645      3069.749
 -22436015.184 8  21127538.033 8 -16964880.69547  21127541.78647     -1502.819
 -25761847.279 6  20376378.779 6 -19722995.00548  20376379.51548      -429.365
 -20031995.844 8  21483284.710 8 -15296541.52047  21483284.95147       618.076
 15  1  3  1 26 30.0000000  0  8G02G05G12G14G21G25G29G31
  -6527831.892 5  24202463.956 5   4866112.95145  24202464.36645     -2646.562
  -2925231.910 5  24926082.573 5  -2150908.15045  24926085.61245      1835.782
  -7829791.272 6  23889575.987 6  -5476585.09346  23889577.93346     -2953.549
   1768645.564 2  25335105.139 2                                     -2967.549
  -6621822.114 5  23642971.931 5  -4990952.85245  23642972.32745      3063.315
 -22390756.398 8  21136150.497 8 -16929614.12247  21136154.27347     -1514.425
 -25748771.651 6  20378866.992 6 -19712806.20248  20378867.63548      -442.360
 -20050258.118 8  21479809.520 8 -15310771.86847  21479809.90947       599.394
 15  1  3  1 27  0.0000000  0  8G02G05G12G14G21G25G29G31
  -6448288.172 5  24217600.640 5   4928095.03145  24217600.35045     -2656.316
  -2980123.747 5  24915637.006 5  -2193681.10545  24915636.85845      1823.657
  -7741108.346 6  23906451.839 6  -5407481.55046  23906452.93446     -2958.636
   1857668.112 1  25352045.463 1                                     -2967.377
  -6713623.968 5  23625502.604 5  -5062486.74345  23625505.39945      3056.793
 -22345149.215 8  21144829.273 8 -16894076.07347  21144832.97547     -1526.044
 -25735306.679 6  20381429.292 6 -19702314.01948  20381430.26148      -455.302
 -20067959.147 8  21476441.132 8 -15324564.87947  21476441.37347       580.661
 15  1  3  1 27 30.0000000  0  7G02G05G12G21G25G29G31
  -6368452.934 5  24232792.779 5   4990304.29845  24232791.99145     -2666.004
  -3034650.119 5  24905260.979 5  -2236169.11345  24905262.63845      1811.422
  -7652273.303 5  23923356.629 5  -5338259.47645  23923358.30045     -2963.684
  -6805229.255 5  23608070.624 5  -5133867.46245  23608072.07345      3050.211
 -22299193.761 8  21153574.320 8 -16858266.64847  21153578.21447     -1537.647
 -25721453.742 7  20384065.426 7 -19691519.51848  20384066.17748      -468.217
 -20085098.160 8  21473179.690 8 -15337919.95447  21473179.94547       561.923
 15  1  3  1 28  0.0000000  0  7G02G05G12G21G25G29G31
  -6288328.167 5  24248039.978 5   5052739.22945  24248039.79745     -2675.628
  -3088808.265 4  24894954.990 4  -2278370.35645  24894960.00645      1799.091
  -7563286.714 5  23940290.224 5  -5268919.29245  23940291.74945     -2968.754
  -6896635.800 5  23590676.549 5  -5205093.32045  23590679.35145      3043.552
 -22252890.218 8  21162385.610 8 -16822185.98647  21162389.59647     -1549.252
 -25707214.300 7  20386775.112 7 -19680423.85248  20386775.98148      -481.100
 -20101674.328 8  21470025.374 8 -15350836.45947  21470025.42647       543.150
 15  1  3  1 28 30.0000000  0  7G02G05G12G21G25G29G31
  -6207916.316 5  24263341.791 5   5115397.82045  24263339.30945     -2685.155
  -3142595.740 4  24884719.548 4  -2320282.60345  24884720.51945      1786.717
  -7474148.581 5  23957252.640 5  -5199461.04445  23957254.71545     -2973.786
  -6987841.715 5  23573320.629 5  -5276162.85645  23573322.93545      3036.812
 -22206238.723 8  21171263.101 8 -16785834.17747  21171266.92747     -1560.851
 -25692588.638 6  20389558.287 6 -19669027.22848  20389559.28648      -493.940
 -20117686.634 8  21466978.344 8 -15363313.58147  21466978.34047       524.335
 15  1  3  1 29  0.0000000  0  7G02G05G12G21G25G29G31
  -6127219.418 5  24278697.935 5   5178278.49945  24278695.71545     -2694.646
  -3196009.970 4  24874555.145 4  -2361904.13745  24874557.91345      1774.227
  -7384860.119 5  23974243.696 5  -5129885.61345  23974245.75245     -2978.787
  -7078844.981 5  23556003.265 5  -5347074.46545  23556004.28645      3030.033
 -22159239.515 8  21180206.754 8 -16749211.42447  21180210.60747     -1572.428
 -25677578.388 6  20392414.640 6 -19657330.92948  20392415.34548      -506.747
 -20133134.361 8  21464038.743 8 -15375350.77047  21464038.97847       505.492
 15  1  3  1 29 30.0000000  0  7G02G05G12G21G25G29G31
  -6046239.852 5  24294107.801 5   5241379.46245  24294107.84145     -2704.014
  -3249048.367 3  24864462.225 3  -2403232.76945  24864462.71945      1761.666
  -7295421.711 5  23991263.260 5  -5060193.37045  23991263.31745     -2983.785
  -7169643.214 5  23538724.926 5  -5417826.34945  23538726.20245      3023.158
 -22111892.791 8  21189216.546 8 -16712317.88847  21189220.21047     -1584.021
 -25662184.668 6  20395343.977 6 -19645335.81648  20395344.80348      -519.513
 -20148016.717 8  21461206.734 8 -15386947.41847  21461206.97347       486.634
 15  1  3  1 30  0.0000000  0  7G02G05G12G21G25G29G31
  -5964979.846 5  24309571.080 5   5304698.96445  24309569.76845     -2713.317
  -3301707.975 3  24854441.384 3  -2444266.19145  24854442.72045      1748.987
  -7205834.345 5  24008311.184 5  -4990385.05045  24008311.74145     -2988.728
  -7260234.375 5  23521486.020 5  -5488416.83845  23521488.46445      3016.218
 -22064198.707 8  21198292.441 8 -16675153.68647  21198296.18647     -1595.592
 -25646408.166 6  20398346.147 6 -19633042.43648  20398347.16448      -532.238
 -20162332.854 8  21458482.476 8 -15398102.85447  21458482.50647       467.764
 15  1  3  1 30 30.0000000  0  7G02G05G12G21G25G29G31
  -5883441.322 5  24325087.360 5   5368235.49445  24325090.34545     -2722.579
  -3353986.511 2  24844493.041 2  -2485002.66745  24844496.72745      1736.216
  -7116098.482 5  24025387.349 5  -4920461.02945  24025388.82845     -2993.660
  -7350616.780 5  23504286.832 5  -5558844.67945  23504286.82345      3009.242
 -22016157.519 8  21207434.395 8 -16637719.01447  21207438.17347     -1607.171
 -25630250.254 6  20401420.881 6 -19620451.85048  20401421.37948      -544.944
 -20176082.366 8  21455866.039 8 -15408816.76547  21455866.32547       448.858
 15  1  3  1 31  0.0000000  0  7G02G05G12G21G25G29G31
  -5801626.655 5  24340656.121 5   5431987.21545  24340657.15145     -2731.735
  -3405881.286 2  24834617.747 2  -2525440.16345  24834621.21345      1723.402
  -7026214.613 5  24042491.686 5  -4850421.66545  24042492.17045     -2998.590
  -7440787.851 5  23487127.828 5  -5629107.82345  23487129.86945      3002.134
 -21967769.365 8  21216642.363 8 -16600013.97047  21216646.32047     -1618.713
 -25613712.288 6  20404567.962 6 -19607565.12248  20404568.69748      -557.598
 -20189264.164 8  21453357.616 8 -15419088.30547  21453357.87147       429.924
 15  1  3  1 31 30.0000000  0  7G02G05G12G21G25G29G31
  -5719537.962 5  24356277.033 5   5495952.42745  24356275.49145     -2740.839
  -3457389.800 2  24824815.988 2  -2565576.53745  24824815.32845      1710.483
  -6936183.290 5  24059624.084 5  -4780267.42645  24059627.01545     -3003.485
  -7530745.946 5  23470009.354 5  -5699205.03245  23470010.83145      2995.036
 -21919034.505 8  21225916.313 8 -16562038.76447  21225919.91647     -1630.277
 -25596795.088 7  20407787.196 7 -19594382.88248  20407787.92348      -570.225
 -20201877.852 8  21450957.303 8 -15428917.15347  21450957.56147       410.969
 15  1  3  1 32  0.0000000  0  7G02G05G12G21G25G29G31
  -5637177.550 5  24371949.724 5   5560129.41445  24371948.38445     -2749.861
  -3508509.637 2  24815088.172 2  -2605410.19345  24815089.29645      1697.487
  -6846005.456 5  24076784.365 5  -4709999.01045  24076786.46545     -3008.369
  -7620488.606 5  23452931.878 5  -5769134.36645  23452934.26345      2987.798
 -21869953.186 8  21235256.184 8 -16523793.59847  21235260.17547     -1641.822
 -25579499.470 7  20411078.439 7 -19580905.77248  20411079.13848      -582.817
 -20213922.704 8  21448665.236 8 -15438302.75747  21448665.42247       392.003
 15  1  3  1 32 30.0000000  0  7G02G05G12G21G25G29G31
  -5554547.498 5  24387673.676 5   5624516.48345  24387672.75145     -2758.782
  -3559238.080 3  24805434.844 3  -2644938.79045  24805435.81845      1684.393
  -6755681.589 5  24093972.428 5  -4639616.77745  24093973.64445     -3013.235
  -7710013.885 5  23435895.789 5  -5838894.32945  23435895.81245      2980.552
 -21820525.610 8  21244661.949 8 -16485278.62247  21244665.75547     -1653.359
 -25561826.975 6  20414441.393 6 -19567134.99548  20414441.93448      -595.350
 -20225397.972 8  21446481.564 8 -15447244.52947  21446481.91047       373.004
 15  1  3  1 33  0.0000000  0  7G02G05G12G21G25G29G31
  -5471650.179 5  24403448.548 5   5689111.78245  24403448.52745     -2767.675
  -3609572.574 2  24795856.472 2  -2684160.43845  24795858.23445      1671.223
  -6665212.313 5  24111188.142 5  -4569121.25145  24111189.62445     -3018.044
  -7799319.755 5  23418901.469 5  -5908483.31045  23418903.55045      2973.190
 -21770752.013 8  21254133.562 8 -16446494.01247  21254137.44747     -1664.898
 -25543778.853 7  20417875.828 7 -19553071.52148  20417876.59648      -607.851
 -20236303.133 8  21444406.381 8 -15455742.06247  21444406.83847       353.997
 15  1  3  1 33 30.0000000  0  7G02G05G12G21G25G29G31
  -5388487.784 5  24419273.843 5   5753913.67245  24419272.98445     -2776.466
  -3659510.702 3  24786353.568 3  -2723073.22645  24786356.98545      1657.975
  -6574598.480 5  24128431.368 5  -4498513.09145  24128432.48045     -3022.860
  -7888404.425 5  23401949.199 5  -5977899.91745  23401951.47745      2965.794
 -21720632.637 8  21263670.977 8 -16407439.98247  21263674.77347     -1676.414
 -25525356.022 7  20421381.579 7 -19538716.06948  20421382.29648      -620.325
 -20246637.394 8  21442439.826 8 -15463794.74047  21442439.93847       334.943
 15  1  3  1 34  0.0000000  0  7G02G05G12G21G25G29G31
  -5305062.445 5  24435149.150 5   5818920.42645  24435147.85745     -2785.204
  -3709049.975 3  24776926.562 3  -2761675.18145  24776927.11445      1644.643
  -6483840.654 5  24145702.030 5  -4427792.72345  24145705.51645     -3027.669
  -7977265.599 5  23385039.475 5  -6047142.37945  23385039.29245      2958.280
 -21670167.764 8  21273274.132 8 -16368116.72047  21273278.04047     -1687.922
 -25506559.630 7  20424958.403 7 -19524069.52548  20424959.38248      -632.770
 -20256400.155 8  21440582.042 8 -15471402.09247  21440582.21447       315.901
 15  1  3  1 34 30.0000000  0  7G02G05G12G21G25G29G31
  -5221376.209 5  24451074.114 5   5884130.49545  24451075.55245     -2793.859
  -3758187.884 3  24767575.865 3  -2799964.39445  24767579.26045      1631.257
  -6392939.411 5  24162999.990 5  -4356960.61445  24163003.01745     -3032.424
  -8065900.961 5  23368172.723 5  -6116208.90245  23368173.84045      2950.728
 -21619357.598 8  21282943.002 8 -16328524.39747  21282947.08347     -1699.421
 -25487391.237 7  20428606.018 7 -19509133.11048  20428606.60148      -645.144
 -20265590.993 8  21438833.074 8 -15478563.78847  21438833.49047       296.826
 15  1  3  1 35  0.0000000  0  7G02G05G12G21G25G29G31
  -5137431.271 5  24467048.279 5   5949542.14845  24467046.28545     -2802.466
  -3806922.035 4  24758302.061 4  -2837938.99845  24758303.47845      1617.724
  -6301895.687 5  24180325.030 5  -4286017.45545  24180325.27245     -3037.190
  -8154308.851 5  23351349.240 5  -6185098.16845  23351350.23345      2943.113
 -21568202.416 7  21292677.521 7 -16288663.23247  21292681.24747     -1710.913
 -25467851.617 7  20432324.278 7 -19493907.43548  20432325.09348      -657.512
 -20274209.255 8  21437193.070 8 -15485279.31947  21437193.56147       277.721
 15  1  3  1 35 30.0000000  0  7G02G05G12G21G25G29G31
  -5053229.990 5  24483071.277 5   6015153.57145  24483070.18145     -2810.963
  -3855249.888 3  24749105.570 3  -2875596.99945  24749108.67345      1604.136
  -6210709.814 5  24197677.171 5  -4214963.55245  24197679.30545     -3041.873
  -8242487.343 5  23334569.421 5  -6253808.65345  23334570.62945      2935.444
 -21516702.524 7  21302477.639 7 -16248533.47247  21302481.43047     -1722.399
 -25447941.622 8  20436113.012 8 -19478393.15448  20436113.82648      -669.812
 -20282254.696 8  21435662.073 8 -15491548.50147  21435662.23347       258.621
 15  1  3  1 36  0.0000000  0  7G02G05G12G21G25G29G31
  -4968774.540 5  24499142.631 5   6080963.01645  24499141.38245     -2819.384
  -3903169.001 3  24739986.851 3  -2912936.47845  24739988.89945      1590.450
  -6119382.641 5  24215056.192 5  -4143799.57945  24215057.56445     -3046.578
  -8330434.530 6  23317833.652 6  -6322338.94245  23317834.79445      2927.693
 -21464858.173 7  21312343.298 7 -16208135.28747  21312347.24547     -1733.887
 -25427662.527 8  20439971.981 8 -19462591.25948  20439972.87748      -682.100
 -20289726.621 8  21434240.227 8 -15497370.78347  21434240.41747       239.498
 15  1  3  1 36 30.0000000  0  7G02G05G12G21G25G29G31
  -4884067.336 5  24515261.946 5   6146968.68245  24515262.12845     -2827.722
  -3950676.846 4  24730946.420 4  -2949955.49845  24730947.61845      1576.723
  -6027914.946 5  24232461.945 5  -4072526.06245  24232463.68345     -3051.265
  -8418147.943 5  23301142.333 5  -6390687.01645  23301143.72545      2919.861
 -21412669.633 7  21322274.455 7 -16167468.90447  21322278.30947     -1745.348
 -25407015.746 8  20443900.922 8 -19446502.85548  20443901.95448      -694.351
 -20296624.575 8  21432927.599 8 -15502745.81647  21432927.91347       220.351
 15  1  3  1 37  0.0000000  0  7G02G05G12G21G25G29G31
  -4799110.262 5  24531428.760 5   6213168.96945  24531428.31145     -2836.037
  -3997770.927 4  24721984.610 4  -2986652.12145  24721986.71445      1562.871
  -5936307.061 5  24249894.354 5  -4001143.30245  24249895.59745     -3055.918
  -8505626.014 5  23284495.776 5  -6458851.74045  23284496.78445      2911.993
 -21360137.202 7  21332271.051 7 -16126534.55847  21332275.12547     -1756.813
 -25386002.280 8  20447899.640 8 -19430128.72648  20447900.50448      -706.545
 -20302947.984 8  21431724.306 8 -15507673.15047  21431724.77347       201.187
 15  1  3  1 37 30.0000000  0  7G02G05G12G21G25G29G31
  -4713905.272 5  24547642.699 5   6279562.43845  24547641.13045     -2844.255
  -4044449.201 5  24713102.087 5  -3023024.76245  24713104.41445      1548.973
  -5844559.804 6  24267353.360 6  -3929651.96545  24267355.14445     -3060.537
  -8592866.851 6  23267894.443 6  -6526831.59745  23267895.45345      2904.034
 -21307261.221 7  21342333.039 7 -16085332.51647  21342337.01947     -1768.262
 -25364623.378 8  20451967.891 8 -19413469.84148  20451968.88448      -718.712
 -20308696.302 8  21430630.445 8 -15512152.36247  21430630.54447       182.020
 15  1  3  1 38  0.0000000  0  7G02G05G12G21G25G29G31
  -4628455.683 5  24563903.202 5   6346146.54945  24563901.29445     -2852.364
  -4090709.084 5  24704299.113 5  -3059071.35345  24704302.12745      1535.010
  -5752674.027 5  24284838.659 5  -3858052.68345  24284840.45345     -3065.159
  -8679867.605 5  23251338.739 5  -6594624.37046  23251339.33046      2896.013
 -21254041.931 7  21352460.353 7 -16043862.94647  21352464.20047     -1779.689
 -25342880.044 8  20456105.508 8 -19396526.98448  20456106.57048      -730.843
 -20313869.278 8  21429646.067 8 -15516183.25947  21429646.32247       162.839
 15  1  3  1 38 30.0000000  0  7G02G05G12G21G25G29G31
  -4542762.675 5  24580209.961 5   6412920.33945  24580210.73745     -2860.446
  -4136548.354 5  24695576.194 5  -3094790.19645  24695577.88945      1520.954
  -5660650.234 5  24302350.223 5  -3786345.86345  24302352.00345     -3069.744
  -8766626.715 5  23234828.982 5  -6662228.87346  23234830.09746      2887.929
 -21200479.671 7  21362652.930 7 -16002126.12947  21362657.05847     -1791.127
 -25320773.879 8  20460312.167 8 -19379301.40148  20460312.97948      -742.909
 -20318466.626 8  21428771.218 8 -15519765.61447  21428771.37047       143.647
 15  1  3  1 39  0.0000000  0  7G02G05G12G21G25G29G31
  -4456828.750 5  24596562.629 5   6479881.84845  24596562.69745     -2868.458
  -4181964.605 5  24686933.789 5  -3130179.44845  24686936.33545      1506.788
  -5568489.110 5  24319887.946 5  -3714532.01645  24319889.84345     -3074.331
  -8853142.297 6  23218365.591 6  -6729643.60046  23218366.64046      2879.781
 -21146574.770 7  21372910.698 7 -15960122.33247  21372914.65347     -1802.542
 -25298306.128 8  20464587.638 8 -19361794.06448  20464588.58848      -754.945
 -20322487.901 8  21428006.007 8 -15522899.07647  21428006.24347       124.426
 15  1  3  1 39 30.0000000  0  7G02G05G12G21G25G29G31
  -4370656.151 5  24612960.857 5   6547029.33245  24612961.12545     -2876.380
  -4226955.377 5  24678372.329 5  -3165237.12345  24678373.49045      1492.559
  -5476191.611 5  24337451.553 5  -3642611.88145  24337453.30445     -3078.847
  -8939412.935 6  23201948.844 6  -6796867.45346  23201950.52046      2871.563
 -21092327.552 7  21383233.614 7 -15917851.78147  21383237.65047     -1813.948
 -25275477.570 8  20468931.767 8 -19344005.58148  20468932.58548      -766.963
 -20325932.799 8  21427350.469 8 -15525583.42047  21427350.68347       105.216
 15  1  3  1 40  0.0000000  0  7G02G05G12G21G25G29G31
  -4284246.913 5  24629404.052 5   6614361.25045  24629400.66345     -2884.212
  -4271518.299 5  24669892.286 5  -3199961.44045  24669894.78245      1478.281
  -5383758.105 5  24355041.095 5  -3570585.81545  24355042.72545     -3083.371
  -9025436.144 5  23185579.147 5  -6863898.49646  23185580.75846      2863.309
 -21037738.320 7  21393621.608 7 -15875314.73547  21393625.47847     -1825.334
 -25252289.014 8  20473344.403 8 -19325936.58448  20473345.32048      -778.934
 -20328801.043 8  21426804.660 8 -15527818.41647  21426804.65147        85.986
 15  1  3  1 40 30.0000000  0  7G02G05G12G21G25G29G31
  -4197603.542 4  24645891.578 4   6681875.55145  24645889.93645     -2891.977
  -4315651.132 5  24661494.091 5  -3234350.67145  24661496.26245      1463.902
  -5291189.330 5  24372656.328 5  -3498454.31145  24372658.54445     -3087.857
  -9111210.087 5  23169256.899 5  -6930735.32546  23169258.62046      2854.943
 -20982807.444 7  21404074.624 7 -15832511.47647  21404078.64147     -1836.717
 -25228742.079 8  20477825.231 8 -19307588.32248  20477826.05048      -790.860
 -20331092.118 8  21426368.684 8 -15529603.68247  21426368.94247        66.747
 15  1  3  1 41  0.0000000  0  7G02G05G12G21G25G29G31
  -4110728.091 4  24662423.449 4   6749570.68045  24662420.65845     -2899.697
  -4359351.612 5  24653178.132 5  -3268402.94745  24653179.75445      1449.471
  -5198486.271 5  24390297.133 5  -3426218.20045  24390297.32045     -3092.326
  -9196732.320 5  23152982.542 5  -6997376.01746  23152983.43046      2846.507
 -20927535.265 7  21414592.586 7 -15789442.25947  21414596.67547     -1848.088
 -25204838.108 8  20482374.006 8 -19288961.84648  20482375.08748      -802.755
 -20332806.121 8  21426042.525 8 -15530939.27247  21426042.89947        47.507
 15  1  3  1 41 30.0000000  0  7G02G05G12G21G25G29G31
  -4023622.793 3  24678999.038 3   6817444.96945  24678995.18645     -2907.331
  -4402617.305 5  24644944.907 5  -3302116.44645  24644948.44845      1434.909
  -5105649.429 4  24407963.348 4  -3353877.84045  24407963.83045     -3096.769
  -9282001.034 6  23136756.415 6  -7063819.15946  23136757.93546      2838.034
 -20871922.122 7  21425175.424 7 -15746107.35247  21425179.31147     -1859.452
 -25180577.721 8  20486990.600 8 -19270057.65248  20486991.43448      -814.603
 -20333942.511 8  21425826.279 8 -15531824.77847  21425826.60947        28.254
 15  1  3  1 42  0.0000000  0  7G02G05G12G21G25G29G31
  -3936289.682 4  24695617.960 4   6885496.70045  24695615.73545     -2914.892
  -4445445.839 5  24636794.871 5  -3335489.27945  24636796.69245      1420.314
  -5012679.637 5  24425654.903 5  -3281433.80845  24425658.50745     -3101.213
  -9367014.578 6  23120578.883 6  -7130063.45946  23120580.23446      2829.512
 -20815968.388 7  21435823.069 7 -15702507.06347  21435826.76147     -1870.799
 -25155962.566 8  20491674.706 8 -19250877.01748  20491675.52548      -826.377
 -20334501.072 8  21425719.988 8 -15532260.03147  21425720.37347         8.990
 15  1  3  1 42 30.0000000  0  7G02G05G12G21G25G29G31
  -3848731.469 4  24712279.658 4   6953723.92845  24712280.87345     -2922.339
  -4487835.204 5  24628728.386 5  -3368519.91245  24628731.57245      1405.638
  -4919577.541 4  24443371.610 4  -3208886.78345  24443372.58645     -3105.606
  -9451770.936 6  23104450.273 6  -7196107.38346  23104452.05546      2820.905
 -20759674.431 7  21446535.462 7 -15658641.65547  21446539.47347     -1882.135
 -25130994.491 8  20496425.960 8 -19231421.37448  20496426.93048      -838.167
 -20334481.847 8  21425723.667 8 -15532245.05647  21425724.05147       -10.282
 15  1  3  1 43  0.0000000  0  7G02G05G12G21G25G29G31
  -3760950.015 4  24728984.067 4   7022125.05345  24728983.35345     -2929.732
  -4529783.054 5  24620745.919 5  -3401206.50245  24620746.38245      1390.899
  -4826343.719 5  24461113.478 5  -3136237.04045  24461114.35545     -3109.977
  -9536268.706 6  23088370.855 6  -7261949.77346  23088372.20246      2812.243
 -20703040.595 7  21457312.526 7 -15614511.41147  21457316.47047     -1893.453
 -25105673.252 8  20501244.441 8 -19211690.54048  20501245.11948      -849.904
 -20333884.226 8  21425837.383 8 -15531779.37947  21425837.65147       -29.567
 15  1  3  1 43 30.0000000  0  7G02G05G12G21G25G29G31
  -3672947.322 5  24745730.585 5   7090698.58045  24745729.31945     -2937.091
  -4571287.139 5  24612847.904 5  -3433547.29745  24612849.75045      1376.063
  -4732979.480 4  24478880.042 4  -3063485.72245  24478883.66145     -3114.339
  -9620505.118 6  23072341.216 6  -7327588.52846  23072343.16146      2803.498
 -20646067.278 7  21468154.213 7 -15570116.63947  21468158.12947     -1904.771
 -25080000.757 8  20506129.752 8 -19191686.00548  20506130.77848      -861.600
 -20332708.204 8  21426061.165 8 -15530863.00647  21426061.28747       -48.842
 15  1  3  1 44  0.0000000  0  7G02G05G12G21G25G29G31
  -3584725.736 4  24762518.534 4   7159442.69045  24762517.88945     -2944.364
  -4612345.463 5  24605034.757 5  -3465540.75945  24605037.01845      1361.166
  -4639484.493 5  24496671.540 5  -2990632.47545  24496679.11645     -3118.672
  -9704478.581 6  23056361.582 6  -7393022.39146  23056363.32546      2794.717
 -20588754.896 7  21479060.408 7 -15525457.64947  21479064.10347     -1916.077
 -25053978.185 8  20511081.685 8 -19171408.67648  20511082.96848      -873.238
 -20330953.705 8  21426395.045 8 -15529495.87547  21426395.38247       -68.128
 15  1  3  1 44 30.0000000  0  7G02G05G12G21G25G29G31
  -3496287.666 3  24779347.652 3   7228355.47945  24779348.49145     -2951.530
  -4652955.694 5  24597306.804 5  -3497185.02645  24597309.30745      1346.181
  -4545859.977 5  24514487.719 5  -2917678.33745  24514491.30645     -3122.964
  -9788187.371 6  23040432.298 6  -7458249.99146  23040433.93146      2785.856
 -20531103.781 7  21490031.051 7 -15480534.71447  21490034.83947     -1927.339
 -25027607.023 8  20516099.953 8 -19150859.72548  20516100.84248      -884.847
 -20328620.700 8  21426839.009 8 -15527677.95547  21426839.13147       -87.420
 15  1  3  1 45  0.0000000  0  7G02G05G12G21G25G29G31
  -3407635.202 3  24796217.555 3   7297435.29245  24796215.19545     -2958.642
  -4693115.682 5  24589664.604 5  -3528478.47945  24589665.28845      1331.161
  -4452106.935 5  24532328.399 5  -2844623.99145  24532327.51845     -3127.229
  -9871629.345 6  23024553.792 6  -7523269.72546  23024555.27946      2776.934
 -20473114.408 7  21501066.075 7 -15435348.20747  21501070.12647     -1938.607
 -25000888.560 8  20521184.305 8 -19130040.14548  20521185.24048      -896.412
 -20325709.054 8  21427393.087 8 -15525409.14847  21427393.40047      -106.707
 15  1  3  1 45 30.0000000  0  7G02G05G12G21G25G29G31
  -3318770.591 4  24813127.759 4   7366680.45545  24813124.09845     -2965.682
  -4732823.091 5  24582108.539 5  -3559419.26945  24582110.55645      1316.017
  -4358225.875 5  24550193.470 5  -2771469.98745  24550195.20745     -3131.480
  -9954802.854 6  23008726.394 6  -7588080.22946  23008727.96246      2767.962
 -20414787.172 7  21512165.363 7 -15389898.43747  21512169.28547     -1949.869
 -24973823.124 8  20526334.696 8 -19108950.19548  20526335.44448      -907.952
 -20322218.648 8  21428057.292 8 -15522689.35947  21428057.64147      -126.000
 15  1  3  1 46  0.0000000  0  7G02G05G12G21G25G29G31
  -3229695.874 4  24830078.166 4   7436089.39345  24830076.57645     -2972.656
  -4772076.009 5  24574638.932 5  -3590005.93245  24574639.75045      1300.841
  -4264217.648 5  24568082.643 5  -2698216.79345  24568085.16545     -3135.690
 -10037705.924 6  22992950.476 6  -7652680.00946  22992952.45346      2758.897
 -20356122.438 7  21523328.896 7 -15344185.68247  21523333.06047     -1961.117
 -24946412.738 8  20531550.716 8 -19087591.45548  20531551.50948      -919.430
 -20318149.497 8  21428831.630 8 -15519518.59847  21428831.57647      -145.290
 15  1  3  1 46 30.0000000  0  7G02G05G12G21G25G29G31
  -3140413.562 5  24847068.060 5   7505659.98745  24847068.97745     -2979.512
  -4810872.408 5  24567256.168 5  -3620236.85645  24567257.08345      1285.585
  -4170083.356 5  24585995.834 5  -2624865.40545  24585999.05145     -3139.905
 -10120336.628 6  22977226.362 6  -7717067.56346  22977227.89046      2749.791
 -20297120.672 7  21534556.582 7 -15298210.28847  21534560.47947     -1972.343
 -24918657.990 8  20536832.275 8 -19065964.38348  20536833.14748      -930.891
 -20313501.556 8  21429716.104 8 -15515896.83047  21429716.26247      -164.588
 15  1  3  1 47  0.0000000  0  7G02G05G12G21G25G29G31
  -3050925.664 4  24864096.997 4   7575390.93645  24864096.03745     -2986.312
  -4849209.822 5  24559960.739 5  -3650110.08845  24559961.38145      1270.234
  -4075823.109 5  24603932.988 5  -2551415.86845  24603933.99845     -3144.071
 -10202693.122 6  22961554.440 6  -7781241.45546  22961555.95546      2740.643
 -20237782.275 7  21545848.313 7 -15251972.59347  21545852.35847     -1983.552
 -24890560.233 8  20542179.106 8 -19044070.03048  20542180.10648      -942.292
 -20308274.836 8  21430710.710 8 -15511824.06747  21430710.84547      -183.867
 15  1  3  1 47 30.0000000  0  7G02G05G12G21G25G29G31
  -2961234.502 5  24881164.630 5   7645280.10345  24881160.14845     -2993.059
  -4887086.363 5  24552753.021 5  -3679624.25945  24552754.28645      1254.864
  -3981437.568 5  24621893.999 5  -2477868.70045  24621896.39645     -3148.238
 -10284773.432 6  22945935.067 6  -7845200.10846  22945935.62046      2731.397
 -20178107.713 7  21557204.011 7 -15205472.94247  21557207.59747     -1994.754
 -24862121.087 8  20547590.901 8 -19021909.65548  20547591.82848      -953.653
 -20302469.477 8  21431815.445 8 -15507300.41847  21431815.77147      -203.163
 15  1  3  1 48  0.0000000  0  7G02G05G12G21G25G29G31
  -2871341.857 5  24898270.673 5   7715326.37145  24898264.56745     -2999.756
  -4924499.936 5  24545633.379 5  -3708777.65845  24545635.00745      1239.381
  -3886927.916 5  24639878.647 5  -2404224.81145  24639880.52945     -3152.374
 -10366575.686 6  22930368.604 6  -7908942.12946  22930369.85146      2722.092
 -20118097.392 7  21568623.601 7 -15158711.66747  21568627.50647     -2005.928
 -24833341.800 8  20553067.432 8 -18999484.23548  20553068.27148      -964.978
 -20296085.407 7  21433030.296 7 -15502325.83047  21433030.72547      -222.447
 15  1  3  1 48 30.0000000  0  7G02G05G12G21G25G29G31
  -2781250.123 5  24915414.635 5   7785527.78645  24915412.11445     -3006.331
  -4961448.448 5  24538602.233 5  -3737568.66145  24538606.99745      1223.835
  -3792294.832 5  24657886.710 5  -2330484.74945  24657887.49845     -3156.496
 -10448098.484 6  22914855.326 6  -7972466.37946  22914856.81046      2712.734
 -20057751.811 7  21580106.989 7 -15111689.15347  21580111.08947     -2017.103
 -24804223.272 8  20558608.501 8 -18976794.48148  20558609.40948      -976.232
 -20289122.538 8  21434355.291 8 -15496900.22247  21434355.69447      -241.745
 15  1  3  1 49  0.0000000  0  7G02G05G12G21G25G29G31
  -2690961.686 5  24932595.998 5   7855882.44045  24932596.35945     -3012.896
  -4997930.108 5  24531659.958 5  -3765995.86945  24531662.04145      1208.236
  -3697539.246 5  24675918.109 5  -2256649.26045  24675918.68645     -3160.549
 -10529339.569 6  22899395.656 6  -8035771.09346  22899397.34846      2703.312
 -19997071.428 7  21591654.103 7 -15064405.76047  21591658.32447     -2028.258
 -24774766.957 8  20564213.850 8 -18953841.50348  20564214.68648      -987.510
 -20281581.001 7  21435790.411 7 -15491023.69947  21435790.71647      -261.021
 15  1  3  1 49 30.0000000  0  7G02G05G12G21G25G29G31
  -2600478.486 5  24949814.481 5   7926388.87645  24949814.91045     -3019.286
  -5033942.559 5  24524807.015 5  -3794057.47145  24524807.68745      1192.603
  -3602661.690 5  24693972.714 5  -2182718.70145  24693973.58645     -3164.609
 -10610297.080 6  22883989.953 6  -8098854.86746  22883990.82846      2693.847
 -19936056.700 7  21603264.818 7 -15016861.83947  21603268.93347     -2039.402
 -24744973.882 8  20569883.297 8 -18930626.12148  20569884.17148      -998.707
 -20273461.120 8  21437335.590 8 -15484696.53147  21437335.79347      -280.307
 15  1  3  1 50  0.0000000  0  7G02G05G12G21G25G29G31
  -2509802.831 5  24967069.388 5   7997045.27445  24967069.90245     -3025.701
  -5069483.750 4  24518043.664 4  -3821751.84345  24518048.47345      1176.829
  -3507662.668 5  24712050.438 5  -2108693.50745  24712051.88445     -3168.640
 -10690969.600 6  22868638.486 6  -8161716.56846  22868638.80546      2684.313
 -19874708.074 7  21614939.085 7 -14969057.73447  21614943.30147     -2050.514
 -24714844.914 8  20575616.652 8 -18907149.00348  20575617.45148     -1009.882
 -20264762.973 8  21438990.799 8 -15477918.75947  21438991.02747      -299.578
 15  1  3  1 50 30.0000000  0  7G02G05G12G21G25G29G31
  -2418936.998 5  24984360.602 5   8067849.91845  24984359.57145     -3032.020
  -5104551.720 5  24511370.421 5  -3849077.47145  24511371.25445      1161.039
  -3412543.335 5  24730151.091 5  -2034574.58745  24730152.30745     -3172.618
 -10771355.092 6  22853341.630 6  -8224354.59446  22853342.34946      2674.730
 -19813026.064 7  21626676.793 7 -14920993.85647  21626680.94647     -2061.625
 -24684381.583 8  20581413.635 8 -18883411.33648  20581414.31148     -1021.008
 -20255486.682 7  21440756.021 7 -15470690.48647  21440756.20247      -318.852
 15  1  3  1 51  0.0000000  0  7G02G05G12G21G25G29G31
  -2327883.048 5  25001687.494 5   8138801.09245  25001687.97645     -3038.252
  -5139144.840 5  24504787.507 5  -3876033.14545  24504788.08845      1145.158
  -3317304.383 4  24748274.420 4  -1960362.43245  24748275.78645     -3176.600
 -10851451.904 6  22838099.699 6  -8286767.68846  22838100.20746      2665.066
 -19751011.124 7  21638477.877 7 -14872670.54047  21638481.79947     -2072.710
 -24653585.722 8  20587273.892 8 -18859414.56948  20587274.77748     -1032.064
 -20245632.424 8  21442631.236 8 -15463011.85347  21442631.38347      -338.101
 15  1  3  1 51 30.0000000  0  7G02G05G12G21G25G29G31
  -2236643.427 5  25019049.921 5   8209896.90245  25019051.03645     -3044.393
  -5173260.791 5  24498295.421 5  -3902616.98745  24498295.97645      1129.226
  -3221946.616 3  24766420.358 3  -1886057.70645  24766420.57645     -3180.540
 -10931258.213 6  22822913.055 6  -8348954.40846  22822914.08746      2655.358
 -19688663.774 7  21650342.205 7 -14824088.20547  21650345.78847     -2083.781
 -24622457.623 8  20593197.375 8 -18835158.91148  20593198.29048     -1043.131
 -20235200.518 8  21444616.366 8 -15454883.09947  21444616.79047      -357.367
 15  1  3  1 52  0.0000000  0  7G02G05G12G21G25G29G31
  -2145220.192 4  25036447.161 4   8281135.84645  25036447.02545     -3050.479
  -5206897.801 5  24491894.525 5  -3928827.59345  24491895.31245      1113.235
  -3126470.621 3  24784588.836 3  -1811660.88845  24784589.38045     -3184.475
 -11010771.964 6  22807782.089 6  -8410913.14746  22807783.69646      2645.553
 -19625984.488 7  21662269.704 7 -14775247.21247  21662273.67447     -2094.835
 -24590998.786 8  20599183.789 8 -18810645.53548  20599184.84148     -1054.132
 -20224191.088 8  21446711.394 8 -15446304.33247  21446711.62747      -376.609
 15  1  3  1 52 30.0000000  0  7G02G05G12G21G25G29G31
  -2053615.247 5  25053878.919 5   8352516.35945  25053877.03245     -3056.516
  -5240054.144 4  24485584.970 4  -3954663.61845  24485584.51245      1097.192
  -3030877.434 3  24802779.591 3  -1737172.67545  24802781.76945     -3188.382
 -11089990.841 6  22792707.232 6  -8472642.12846  22792708.18546      2635.707
 -19562973.858 7  21674260.245 7 -14726148.03947  21674264.10747     -2105.881
 -24559210.495 8  20605232.913 8 -18785875.43548  20605233.99248     -1065.087
 -20212604.496 7  21448916.243 7 -15437275.83147  21448916.36247      -395.841
 15  1  3  1 53  0.0000000  0  7G02G05G12G21G25G29G31
  -1961831.043 4  25071344.802 4   8424036.55345  25071341.73945     -3062.464
  -5272727.526 5  24479367.355 5  -3980123.38745  24479369.98045      1081.061
  -2935167.809 4  24820992.478 4  -1662593.74945  24820992.70045     -3192.244
 -11168914.141 6  22777688.629 6  -8534140.79146  22777690.74946      2625.821
 -19499632.325 7  21686313.755 7 -14676791.02446  21686317.96946     -2116.900
 -24527094.452 8  20611344.403 8 -18760849.95347  20611345.40347     -1076.004
 -20200441.003 8  21451230.879 8 -15427797.78847  21451231.15547      -415.071
 15  1  3  1 53 30.0000000  0  7G02G05G12G21G25G29G31
  -1869869.706 3  25088844.370 3   8495694.82045  25088840.27645     -3068.312
  -5304916.334 4  24473242.004 4  -4005205.56945  24473244.39245      1064.868
  -2839342.363 4  24839227.480 4  -1587924.62645  24839229.15445     -3196.116
 -11247539.890 6  22762726.629 6  -8595407.57546  22762727.61746      2615.871
 -19435960.407 7  21698430.142 7 -14627176.56146  21698433.84746     -2127.880
 -24494651.125 8  20617518.163 8 -18735569.44047  20617519.12747     -1086.878
 -20187700.861 8  21453655.248 8 -15417870.41447  21453655.72447      -434.279
 15  1  3  1 54  0.0000000  0  7G02G05G12G21G25G29G31
  -1777733.189 3  25106377.282 3   8567489.52045  25106374.09745     -3074.131
  -5336618.782 4  24467209.166 4  -4029908.70145  24467207.95545      1048.604
  -2743401.820 4  24857484.377 4  -1513165.75245  24857485.96045     -3199.928
 -11325866.160 6  22747821.598 6  -8656441.03146  22747822.60646      2605.865
 -19371958.645 7  21710609.296 7 -14577305.07347  21710613.28247     -2138.887
 -24461881.941 8  20623753.929 8 -18710035.01047  20623754.88747     -1097.717
 -20174384.360 7  21456189.293 7 -15407493.92947  21456189.45947      -453.491
 15  1  3  1 54 30.0000000  0  7G02G05G12G21G25G29G31
  -1685423.874 3  25123943.193 3   8639418.92645  25123942.54545     -3079.852
  -5367832.925 4  24461269.302 4  -4054231.39645  24461272.66145      1032.332
  -2647347.356 4  24875762.955 4  -1438318.14645  24875764.06345     -3203.704
 -11403891.136 6  22732973.951 6  -8717239.69446  22732975.84746      2595.793
 -19307627.601 7  21722851.099 7 -14527176.99646  21722854.69746     -2149.843
 -24428788.839 8  20630051.335 8 -18684248.18147  20630052.17147     -1108.501
 -20160491.791 7  21458832.960 7 -15396668.55547  21458833.14947      -472.678
 15  1  3  1 55  0.0000000  0  7G02G05G12G21G25G29G31
  -1592944.141 3  25141541.494 3   8711481.03745  25141541.76845     -3085.469
  -5398556.635 4  24455422.725 4  -4078171.88045  24455423.22345      1015.951
  -2551179.652 5  24894063.145 5  -1363382.28845  24894065.33545     -3207.455
 -11481612.995 6  22718183.962 6  -8777802.15846  22718185.17446      2585.662
 -19242967.826 7  21735155.467 7 -14476792.76946  21735159.78646     -2160.804
 -24395371.910 8  20636410.360 8 -18658209.01747  20636411.05847     -1119.278
 -20146023.738 8  21461586.135 8 -15385394.75247  21461586.50447      -491.853
 15  1  3  1 55 30.0000000  0  7G02G05G12G21G25G29G31
  -1500295.915 2  25159171.921 2   8783674.44645  25159171.22245     -3091.091
  -5428788.542 4  24449669.724 4  -4101729.19845  24449672.41045       999.510
  -2454899.480 5  24912384.640 5  -1288358.72545  24912383.99645     -3211.210
 -11559030.331 6  22703451.927 6  -8838127.34446  22703452.81646      2575.480
 -19177979.867 7  21747522.281 7 -14426152.81646  21747526.23046     -2171.734
 -24361632.865 8  20642830.690 8 -18631918.85547  20642831.51147     -1129.993
 -20130980.489 7  21464448.770 7 -15373672.74947  21464449.20947      -511.027
 15  1  3  1 56  0.0000000  0  7G02G05G12G21G25G29G31
  -1407481.260 2  25176833.844 2   8855997.63645  25176834.44345     -3096.541
  -5458526.939 5  24444010.724 5  -4124901.93945  24444011.11145       983.040
  -2358507.558 5  24930727.456 5  -1213248.17345  24930729.17945     -3214.905
 -11636141.179 6  22688778.168 6  -8898213.69946  22688780.09746      2565.229
 -19112664.303 7  21759951.441 7 -14375257.59146  21759955.44646     -2182.639
 -24327573.584 8  20649311.965 8 -18605379.16147  20649312.88647     -1140.634
 -20115362.553 7  21467420.771 7 -15361502.94147  21467421.22947      -530.175
 15  1  3  1 56 30.0000000  0  7G02G05G12G21G25G29G31
  -1314502.147 1  25194526.973 1   8928448.91245  25194528.75645     -3102.007
  -5487769.792 5  24438445.954 5  -4147688.50445  24438447.67345       966.495
  -2262004.802 5  24949091.289 5  -1138051.18745  24949092.67645     -3218.594
 -11712944.088 6  22674163.066 6  -8958060.10846  22674164.54146      2554.944
 -19047021.665 7  21772442.835 7 -14324107.49546  21772446.74546     -2193.530
 -24293194.403 8  20655854.116 8 -18578590.17947  20655854.92747     -1151.299
 -20099170.225 7  21470502.069 7 -15348885.54747  21470502.56847      -549.309
 15  1  3  1 57  0.0000000  0  7G02G05G12G21G25G29G31
  -1221361.080 2  25212251.167 2   9001026.36245  25212248.83045     -3107.372
  -5516515.202 5  24432975.858 5  -4170087.48945  24432976.53845       949.865
  -2165391.911 5  24967476.141 5  -1062768.41845  24967478.52045     -3222.250
 -11789437.389 6  22659606.880 6  -9017665.25846  22659608.40546      2544.583
 -18981052.543 7  21784996.359 7 -14272703.00146  21785000.38246     -2204.407
 -24258496.534 8  20662456.896 8 -18551552.88147  20662457.72647     -1161.892
 -20082404.088 7  21473692.567 7 -15335821.03647  21473692.98847      -568.436
 15  1  3  1 57 30.0000000  0  7G02G05G12G21G25G29G31
     15557.641 3  25230006.557 3                                     -3112.692
  -5544761.649 5  24427600.777 5  -4192097.67745  24427600.56045       933.231
  -2068669.749 5  24985881.772 5   -987400.46745  24985884.16845     -3225.894
 -11865619.143 6  22645109.951 6  -9077027.64346  22645111.50446      2534.181
 -18914757.531 7  21797611.908 7 -14221044.56646  21797615.74946     -2215.266
 -24223481.587 8  20669120.007 8 -18524268.50847  20669120.80447     -1172.419
 -20065064.779 7  21476992.136 7 -15322309.89447  21476992.56547      -587.526
 15  1  3  1 58  0.0000000  0  7G02G05G12G21G25G29G31
    109016.035 4  25247790.584 4                                     -3117.888
  -5572507.487 5  24422320.847 5  -4213717.76945  24422323.25745       916.495
  -1971839.181 5  25004308.033 5   -911948.07945  25004309.37445     -3229.476
 -11941487.741 6  22630672.614 6  -9136146.01146  22630673.64846      2523.712
 -18848137.213 7  21810289.338 7 -14169132.64846  21810293.45246     -2226.092
 -24188150.842 8  20675843.236 8 -18496738.05547  20675843.87247     -1182.943
 -20047152.629 7  21480400.701 7 -15308352.38447  21480400.95047      -606.607
 15  1  3  1 58 30.0000000  0  7G02G05G12G21G25G29G31
    202629.860 3  25265604.312 3                                     -3123.009
  -5599751.036 5  24417136.522 5  -4234946.48245  24417136.64045       899.733
  -1874901.009 5  25022754.771 5   -836411.84045  25022758.29345     -3233.060
 -12017041.551 6  22616295.193 6  -9195019.10946  22616296.50846      2513.195
 -18781192.178 7  21823028.559 7 -14116967.70246  21823032.28646     -2236.891
 -24152505.303 8  20682626.358 8 -18468962.30747  20682627.14447     -1193.418
 -20028668.224 7  21483918.165 7 -15293948.95247  21483918.28247      -625.695
 15  1  3  1 59  0.0000000  0  7G02G05G12G21G25G29G31
    296397.233 3  25283447.550 3     63327.26245  25283446.04945     -3128.109
  -5626490.577 5  24412048.148 5  -4255782.41645  24412050.90545       882.901
  -1777856.149 4  25041221.737 4   -760792.49045  25041224.83245     -3236.557
 -12092278.960 6  22601977.990 6  -9253645.64246  22601979.19446      2502.621
 -18713923.047 7  21835829.462 7 -14064550.22046  21835833.38446     -2247.700
 -24116546.296 8  20689469.126 8 -18440942.30247  20689470.13847     -1203.839
 -20009611.915 7  21487544.472 7 -15279099.89747  21487545.07047      -644.729
 15  1  3  1 59 30.0000000  0  7G02G05G12G21G25G29G31
    390315.943 3  25301319.682 3    136510.69545  25301317.37545     -3133.095
  -5652724.599 5  24407055.982 5  -4276224.49745  24407058.28745       866.020
  -1680705.110 4  25059708.965 4   -685090.34845  25059709.43345     -3240.131
 -12167198.147 6  22587721.356 6  -9312024.20646  22587722.14246      2491.992
 -18646330.418 7  21848691.923 7 -14011880.65246  21848695.76946     -2258.453
 -24080275.124 8  20696371.301 8 -18412679.05147  20696372.22647     -1214.233
 -19989984.572 7  21491279.439 7 -15263805.87247  21491280.02947      -663.768
 15  1  3  2  0  0.0000000  0  7G02G05G12G21G25G29G31
    484383.902 3  25319220.187 3    209810.38145  25319219.75645     -3138.078
  -5678450.949 5  24402160.362 5  -4296270.92545  24402162.29945       849.078
  -1583449.038 4  25078216.188 4   -609306.38745  25078217.40845     -3243.638
 -12241797.573 6  22573525.572 6  -9370153.61346  22573526.34646      2481.296
 -18578414.909 7  21861615.822 7 -13958959.49246  21861619.69146     -2269.231
 -24043693.111 8  20703332.631 8 -18384173.58447  20703333.49847     -1224.542
 -19969786.697 7  21495122.977 7 -15248067.28147  21495123.44047      -682.760
 15  1  3  2  0 30.0000000  0  7G02G05G12G21G25G29G31
    578599.002 4  25337148.758 4    283224.80545  25337145.11245     -3142.929
  -5703668.686 5  24397361.591 5  -4315921.06645  24397363.23845       832.101
  -1486088.771 3  25096743.266 3   -533441.24345  25096745.28445     -3247.049
 -12316075.648 6  22559390.920 6  -9428032.62346  22559391.93846      2470.569
 -18510177.143 7  21874601.046 7 -13905787.21746  21874605.08046     -2279.966
 -24006801.481 8  20710352.866 8 -18355426.86347  20710353.71647     -1234.889
 -19949019.164 7  21499074.917 7 -15231884.79947  21499075.12547      -701.740
 15  1  3  2  1  0.0000000  0  8G02G05G12G16G21G25G29G31
    672958.779 4  25355104.758 4    356751.91445  25355104.31445     -3147.731
  -5728376.181 5  24392659.882 5  -4335173.64645  24392660.65545       815.059
  -1388625.197 2  25115289.908 2   -457495.61045  25115295.79545     -3250.487
     -6627.596 2  25289424.685 2                                      3315.187
 -12390030.831 6  22545317.706 6  -9485660.02646  22545318.22346      2459.763
 -18441617.810 7  21887647.465 7 -13852364.37746  21887651.61846     -2290.658
 -23969600.711 8  20717431.935 8 -18326439.24647  20717432.72847     -1245.162
 -19927682.163 8  21503135.230 8 -15215258.57147  21503135.50547      -720.723
 15  1  3  2  1 30.0000000  0  8G02G05G12G16G21G25G29G31
    767461.352 5  25373087.983 5    430390.26945  25373086.92245     -3152.446
  -5752571.715 5  24388055.639 5  -4354027.27245  24388056.43545       797.944
  -1291059.110 2  25133856.143 2   -381470.10245  25133858.42845     -3253.914
   -106084.865 2  25270498.422 2                                      3315.246
 -12463661.511 6  22531306.263 6  -9543034.57346  22531307.26346      2448.925
 -18372737.497 7  21900754.963 7 -13798691.41846  21900759.07946     -2301.356
 -23932092.591 8  20724569.494 8 -18297212.13847  20724570.28147     -1255.380
 -19905776.463 7  21507303.752 7 -15198189.20647  21507304.24847      -739.655
 15  1  3  2  2  0.0000000  0  7G05G12G16G21G25G29G31
  -5776253.539 5  24383549.084 5  -4372480.60245  24383551.24545       780.825
  -1193391.192 2  25152441.770 2   -305365.29945  25152444.62745     -3257.318
   -205543.921 3  25251571.908 3                                      3315.327
 -12536965.804 6  22517356.902 6  -9600154.79046  22517358.23546      2438.014
 -18303536.861 7  21913923.406 7 -13744768.86746  21913927.44646     -2312.028
 -23894278.549 8  20731765.272 8 -18267746.64947  20731766.13047     -1265.557
 -19883302.926 7  21511580.336 7 -15180677.37347  21511580.67547      -758.574
 15  1  3  2  2 30.0000000  0  7G05G12G16G21G25G29G31
  -5799420.223 5  24379140.563 5  -4390532.54145  24379141.49745       763.625
  -1095622.289 2  25171046.569 2   -229181.69345  25171051.08045     -3260.621
   -305003.300 3  25232645.411 3                                      3315.304
 -12609942.353 6  22503469.912 6  -9657019.61246  22503470.81546      2427.070
 -18234016.553 7  21927152.693 7 -13690597.21646  21927156.74546     -2322.665
 -23856159.759 8  20739019.036 8 -18238043.69547  20739020.16547     -1275.702
 -19860262.316 7  21515964.821 7 -15162723.66447  21515964.83947      -777.476
 15  1  3  2  3  0.0000000  0  7G05G12G16G21G25G29G31
  -5822070.457 5  24374830.370 5  -4408181.97945  24374832.49345       746.388
   -997753.570 2  25189670.263 2   -152920.34645  25189668.34445     -3263.907
   -404461.551 4  25213719.070 4                                      3315.230
 -12682589.594 6  22489645.596 6  -9713627.84846  22489646.93446      2416.067
 -18164177.273 7  21940442.678 7 -13636177.01046  21940446.28946     -2333.286
 -23817737.468 8  20746330.564 8 -18208104.25147  20746331.32447     -1285.792
 -19836655.184 7  21520457.115 7 -15144328.51147  21520457.66947      -796.339
 15  1  3  2  3 30.0000000  0  7G05G12G16G21G25G29G31
  -5844202.347 5  24370618.786 5  -4425427.58045  24370620.10845       729.081
   -899785.687 3  25208312.948 3    -76581.79945  25208316.82445     -3267.224
   -503918.023 4  25194793.099 4                                      3315.193
 -12754905.964 6  22475884.250 6  -9769978.25046  22475885.57746      2405.008
 -18094019.659 7  21953793.229 7 -13581508.75846  21953797.14446     -2343.878
 -23779012.339 8  20753699.712 8 -18177928.83247  20753700.58247     -1295.870
 -19812482.552 7  21525057.020 7 -15125492.69747  21525057.53547      -815.171
 15  1  3  2  4  0.0000000  0  7G05G12G16G21G25G29G31
  -5865814.979 5  24366506.028 5  -4442268.55545  24366504.99945       711.759
   -801719.671 4  25226974.325 4      -166.72245  25226977.55745     -3270.490
   -603371.626 4  25175867.690 4                                      3315.051
 -12826889.791 6  22462186.156 6  -9826069.53446  22462186.50146      2393.897
 -18023544.409 7  21967204.214 7 -13526592.98446  21967208.15146     -2354.451
 -23739985.973 8  20761126.180 8 -18147518.67147  20761126.91347     -1305.874
 -19787745.169 7  21529764.396 7 -15106216.82747  21529764.74347      -833.967
 15  1  3  2  4 30.0000000  0  7G05G12G16G21G25G29G31
  -5886906.623 5  24362492.383 5  -4458703.53545  24362493.37445       694.341
   -703556.252 4  25245654.204 4     76324.27045  25245657.30745     -3273.717
   -702821.178 5  25156943.096 5                                      3314.903
 -12898539.801 6  22448551.605 6  -9881900.70246  22448552.72646      2382.734
 -17952752.232 7  21980675.525 7 -13471430.27546  21980679.41246     -2365.021
 -23700659.755 8  20768609.698 8 -18116874.86747  20768610.61447     -1315.873
 -19762443.969 7  21534579.061 7 -15086501.61447  21534579.37047      -852.771
 15  1  3  2  5  0.0000000  0  7G05G12G16G21G25G29G31
  -5907475.763 5  24358578.146 5  -4474731.40745  24358581.02545       676.894
   -605296.352 4  25264352.479 4    152890.38545  25264356.12145     -3276.917
   -802265.312 5  25138019.468 5                                      3314.694
 -12969853.964 6  22434980.928 6  -9937470.16746  22434982.15446      2371.541
 -17881643.785 7  21994207.020 7 -13416021.11446  21994211.70646     -2375.544
 -23661034.531 8  20776150.131 8 -18085998.07447  20776150.91647     -1325.802
 -19736579.519 7  21539500.935 7 -15066347.51147  21539501.59547      -871.516
 15  1  3  2  5 30.0000000  0  7G05G12G16G21G25G29G31
  -5927521.600 5  24354763.537 5  -4490351.51045  24354764.01245       659.470
   -506940.743 5  25283068.920 5    229531.14545  25283070.07045     -3280.078
   -901702.778 5  25119097.180 5    -41322.33345  25119096.60545      3314.452
 -13040831.516 6  22421474.318 6  -9992777.33446  22421475.11146      2360.299
 -17810219.761 7  22007798.557 7 -13360366.04646  22007802.79846     -2386.056
 -23621111.832 8  20783747.158 8 -18054889.47947  20783747.72447     -1335.710
 -19710152.606 7  21544529.828 7 -15045755.11847  21544530.30747      -890.262
 15  1  3  2  6  0.0000000  0  7G05G12G16G21G25G29G31
  -5947042.453 5  24351048.824 5  -4505562.53945  24351050.89545       641.925
   -408490.256 5  25301803.444 5    306245.86145  25301806.90345     -3283.256
  -1001132.548 5  25100176.373 5   -118800.14045  25100179.08845      3314.205
 -13111470.439 6  22408032.172 6 -10047820.63946  22408033.46846      2348.983
 -17738480.921 7  22021450.002 7 -13304465.66446  22021453.93646     -2396.532
 -23580892.487 8  20791400.639 8 -18023549.72947  20791401.61647     -1345.569
 -19683164.184 7  21549665.562 7 -15024725.19147  21549665.92947      -908.948
 15  1  3  2  6 30.0000000  0  7G05G12G16G21G25G29G31
  -5966036.959 5  24347434.232 5  -4520363.39245  24347437.60445       624.339
   -309945.898 5  25320555.806 5    383033.70245  25320557.46345     -3286.377
  -1100553.660 4  25081257.143 4   -196271.10145  25081257.79245      3313.881
 -13181769.097 6  22394654.779 6 -10102598.80346  22394655.65146      2337.598
 -17666427.933 7  22035161.241 7 -13248320.50046  22035165.47046     -2406.997
 -23540378.030 8  20799110.279 8 -17991980.02147  20799111.20847     -1355.370
 -19655615.304 7  21554907.954 7 -15003258.53947  21554908.31647      -927.644
 15  1  3  2  7  0.0000000  0  7G05G12G16G21G25G29G31
  -5984503.484 5  24343920.160 5  -4534752.86445  24343921.20945       606.759
   -211308.526 5  25339325.922 5    459894.02745  25339328.66645     -3289.441
  -1199964.837 4  25062339.790 4   -273734.31645  25062340.28445      3313.540
 -13251725.977 6  22381342.413 6 -10157110.64446  22381343.53046      2326.184
 -17594061.557 7  22048932.138 7 -13191931.13446  22048936.48646     -2417.427
 -23499570.238 8  20806875.738 8 -17960181.74747  20806876.82547     -1365.143
 -19627506.548 7  21560256.879 7 -14981355.62947  21560257.11647      -946.275
 15  1  3  2  7 30.0000000  0  7G05G12G16G21G25G29G31
  -6002441.085 5  24340506.745 5  -4548730.16245  24340507.75745       589.080
   -112579.141 5  25358113.461 5    536826.02045  25358116.05045     -3292.496
  -1299364.665 3  25043424.572 3   -351188.73245  25043425.73045      3313.131
 -13321339.596 6  22368095.383 6 -10211355.01946  22368096.39846      2314.737
 -17521382.492 7  22062762.524 7 -13135298.11046  22062766.19746     -2427.846
 -23458469.532 8  20814696.951 8 -17928155.23147  20814697.85547     -1374.900
 -19598839.455 7  21565712.040 7 -14959017.64647  21565712.28847      -964.868
 15  1  3  2  8  0.0000000  0  7G05G12G16G21G25G29G31
  -6019848.332 5  24337194.202 5  -4562294.23745  24337195.88145       571.389
    -13758.598 5  25376918.434 5    613829.08345  25376921.20145     -3295.527
  -1398751.855 4  25024511.849 4   -428633.27445  25024513.48645      3312.734
 -13390609.089 6  22354913.813 6 -10265331.22646  22354914.32646      2303.214
 -17448391.495 7  22076652.258 7 -13078422.02446  22076656.10846     -2438.213
 -23417076.916 8  20822573.706 8 -17895901.24447  20822574.56647     -1384.603
 -19569614.845 7  21571273.303 7 -14936245.23147  21571273.67247      -983.440
 15  1  3  2  8 30.0000000  0  7G05G12G16G21G25G29G31
  -6036723.919 5  24333982.830 5  -4575443.96645  24333984.26245       553.622
     85152.345 5  25395740.523 5    690902.59145  25395743.16445     -3298.528
  -1498125.395 3  25005601.666 3   -506067.22545  25005603.11245      3312.228
 -13459532.395 6  22341798.128 6 -10319037.69246  22341799.55446      2291.661
 -17375089.287 6  22090601.211 6 -13021303.43846  22090605.48146     -2448.569
 -23375394.333 8  20830505.652 8 -17863421.31147  20830506.55547     -1394.225
 -19539833.519 7  21576940.511 7 -14913039.01247  21576940.74547     -1001.981
 15  1  3  2  9  0.0000000  0  7G05G12G16G21G25G29G31
  -6053066.897 5  24330872.841 5  -4588178.74945  24330874.41045       535.842
    184152.615 5  25414579.632 5    768045.62245  25414579.41845     -3301.498
  -1597484.086 3  24986694.309 3   -583489.45745  24986697.47745      3311.686
 -13528108.352 6  22328748.573 6 -10372473.47846  22328749.74946      2280.067
 -17301476.650 7  22104609.243 7 -12963942.95746  22104613.52846     -2458.918
 -23333422.616 8  20838492.626 8 -17830716.07747  20838493.29247     -1403.866
 -19509496.463 7  21582713.461 7 -14889399.75947  21582713.74047     -1020.494
 15  1  3  2  9 30.0000000  0  7G05G12G16G21G25G29G31
  -6068875.907 5  24327864.503 5  -4600497.41445  24327864.27345       518.041
    283241.342 4  25433435.582 4    845257.61345  25433435.37345     -3304.436
  -1696826.463 3  24967790.050 3   -660899.01045  24967791.94545      3311.136
 -13596335.583 6  22315765.332 6 -10425637.54946  22315766.23146      2268.401
 -17227554.334 7  22118676.226 7 -12906341.16746  22118680.24146     -2469.221
 -23291162.677 8  20846534.413 8 -17797786.26147  20846535.09347     -1413.457
 -19478604.680 7  21588591.983 7 -14865328.24647  21588592.21347     -1038.958
 15  1  3  2 10  0.0000000  0  7G05G12G16G21G25G29G31
  -6084149.685 5  24324957.941 5  -4612399.04145  24324958.47945       500.171
    382417.685 5  25452308.171 5    922537.84545  25452315.88345     -3307.326
  -1796151.505 3  24948889.115 3   -738295.18345  24948888.61445      3310.526
 -13664212.540 6  22302848.748 6 -10478528.66246  22302848.96246      2256.699
 -17153323.100 7  22132801.985 7 -12848498.65446  22132806.47646     -2479.515
 -23248616.054 8  20854630.776 8 -17764633.05547  20854631.49947     -1422.977
 -19447159.418 7  21594575.824 7 -14840825.45247  21594576.38247     -1057.391
 15  1  3  2 10 30.0000000  0  7G05G12G16G21G25G29G31
  -6098887.341 5  24322153.455 5  -4623882.88545  24322155.64645       482.309
    481680.707 4  25471197.259 4    999885.69645  25471198.13645     -3310.191
  -1895457.983 3  24929991.653 3   -815676.82145  24929996.07145      3309.880
 -13731737.478 6  22289999.170 6 -10531145.49146  22290000.06946      2244.956
 -17078783.746 7  22146986.368 7 -12790416.05246  22146990.58946     -2489.773
 -23205784.212 8  20862781.406 8 -17731257.60247  20862782.54847     -1432.482
 -19415161.877 7  21600664.768 7 -14815892.30747  21600664.92747     -1075.782
 15  1  3  2 11  0.0000000  0  7G05G12G16G21G25G29G31
  -6113087.253 5  24319451.289 5  -4634947.71645  24319452.64845       464.343
    581029.553 4  25490102.731 4   1077300.37944  25490110.31244     -3313.056
  -1994744.362 2  24911097.990 2   -893042.79945  24911103.89445      3309.208
 -13798909.209 6  22277216.818 6 -10583487.08146  22277217.55546      2233.155
 -17003937.048 7  22161229.228 7 -12732093.96846  22161233.04646     -2500.003
 -23162667.695 8  20870986.204 8 -17697660.32047  20870987.21047     -1441.940
 -19382612.933 7  21606858.642 7 -14790529.50847  21606858.96047     -1094.150
 15  1  3  2 11 30.0000000  0  7G05G12G16G21G25G29G31
  -6126748.232 5  24316851.662 5  -4645592.58945  24316853.12145       446.379
    680463.199 3  25509024.296 3   1154781.18345  25509030.05245     -3315.856
  -2094009.615 2  24892208.399 2   -970392.30545  24892208.11945      3308.479
 -13865726.431 7  22264501.927 7 -10635552.44546  22264502.80146      2221.314
 -16928783.760 7  22175530.421 7 -12673532.97146  22175534.39646     -2510.211
 -23119268.160 8  20879244.865 8 -17663842.50147  20879245.60147     -1451.361
 -19349513.667 7  21613157.227 7 -14764737.88047  21613157.62347     -1112.463
 15  1  3  2 12  0.0000000  0  7G05G12G16G21G25G29G31
  -6139869.743 5  24314354.729 5  -4655817.16045  24314357.08245       428.393
    779980.858 3  25527961.922 3   1232327.43845  25527962.82845     -3318.616
  -2193252.392 2  24873323.006 2  -1047724.32845  24873324.07245      3307.676
 -13932187.617 7  22251854.796 7 -10687340.36746  22251855.80346      2209.431
 -16853324.730 6  22189889.814 6 -12614733.73646  22189893.58846     -2520.392
 -23075587.141 8  20887557.084 8 -17629805.34947  20887558.21947     -1460.696
 -19315865.394 7  21619560.294 7 -14738518.45247  21619560.57747     -1130.746
 15  1  3  2 12 30.0000000  0  7G05G12G16G21G25G29G31
  -6152450.823 5  24311960.540 5  -4665620.54345  24311961.59945       410.330
    879581.352 4  25546915.330 4                                     -3321.403
  -2292471.148 2  24854442.262 2  -1125037.64945  24854441.88145      3306.860
 -13998291.716 6  22239275.599 6 -10738850.04546  22239276.87846      2197.499
 -16777560.751 7  22204307.253 7 -12555696.87946  22204311.25946     -2530.550
 -23031625.438 8  20895922.722 8 -17595549.47347  20895923.99747     -1470.072
 -19281669.357 7  21626067.603 7 -14711872.20447  21626067.97347     -1148.992
 15  1  3  2 13  0.0000000  0  7G05G12G16G21G25G29G31
  -6164489.792 5  24309669.577 5  -4675001.52345  24309669.06045       392.247
    979264.073 3  25565884.188 3                                     -3324.097
  -2391664.841 2  24835566.385 2  -1202331.47145  24835566.18545      3306.042
 -14064037.222 7  22226764.624 7 -10790080.29246  22226765.82946      2185.522
 -16701492.624 7  22218782.560 7 -12496423.03246  22218786.80046     -2540.678
 -22987383.748 8  20904341.639 8 -17561075.43847  20904342.72547     -1479.377
 -19246926.448 7  21632678.970 7 -14684799.81947  21632679.63347     -1167.194
 15  1  3  2 13 30.0000000  0  7G05G12G16G21G25G29G31
  -6175986.042 5  24307481.906 5  -4683959.60245  24307481.86445       374.135
   1079027.865 2  25584868.622 2                                     -3326.898
  -2490832.444 3  24816695.449 3  -1279604.88345  24816698.41345      3305.125
 -14129422.650 7  22214322.197 7 -10841029.96346  22214323.01846      2173.502
 -16625121.155 6  22233315.578 6 -12436912.80446  22233319.48946     -2550.753
 -22942863.920 8  20912813.482 8 -17526384.66647  20912814.38447     -1488.622
 -19211637.879 7  21639394.184 7 -14657302.23747  21639394.72547     -1185.361
 15  1  3  2 14  0.0000000  0  6G05G16G21G25G29G31
  -6186938.312 5  24305397.712 5  -4692493.80345  24305399.13745       355.974
  -2589972.164 3  24797829.732 3  -1356856.54045  24797832.86945      3304.165
 -14194446.611 7  22201948.533 7 -10891697.98046  22201949.40246      2161.427
 -16548447.208 6  22247906.141 6 -12377166.87546  22247910.38546     -2560.837
 -22898066.828 8  20921338.091 8 -17491477.84247  20921338.87147     -1497.850
 -19175805.127 7  21646212.938 7 -14629380.61747  21646213.37547     -1203.484
 15  1  3  2 14 30.0000000  0  6G05G16G21G25G29G31
  -6197345.616 5  24303417.211 5  -4700603.34845  24303419.60945       337.815
  -2689082.861 3  24778969.653 3  -1434085.65945  24778973.19545      3303.222
 -14259107.805 7  22189643.907 7 -10942083.30746  22189644.41146      2149.314
 -16471471.606 6  22262554.099 6 -12317185.90946  22262557.69046     -2570.875
 -22852993.781 8  20929915.208 8 -17456355.99547  20929916.33547     -1507.030
 -19139429.411 7  21653135.014 7 -14601035.90647  21653135.29847     -1221.563
 15  1  3  2 15  0.0000000  0  6G05G16G21G25G29G31
  -6207207.091 5  24301540.583 5  -4708287.58245  24301539.82545       319.607
  -2788163.307 4  24760115.402 4  -1511291.20745  24760116.42245      3302.183
 -14323405.109 6  22177408.506 6 -10992185.08846  22177409.33046      2137.161
 -16394195.166 6  22277259.311 6 -12256970.51846  22277263.52046     -2580.891
 -22807646.045 8  20938544.600 8 -17421020.09947  20938545.47647     -1516.159
 -19102512.212 7  21660160.129 7 -14572269.26847  21660160.42547     -1239.597
 15  1  3  2 15 30.0000000  0  6G05G16G21G25G29G31
  -6216521.863 5  24299767.990 5  -4715545.80945  24299768.43145       301.349
  -2887212.013 4  24741267.030 4  -1588471.95845  24741269.34845      3301.092
 -14387337.425 6  22165242.590 6 -11042002.46546  22165243.36646      2124.986
 -16316618.749 6  22292021.631 6 -12196521.36646  22292025.40346     -2590.868
 -22762024.814 8  20947226.044 8 -17385471.08847  20947226.76647     -1525.251
 -19065054.467 7  21667288.116 7 -14543081.43047  21667288.40447     -1257.585
 15  1  3  2 16  0.0000000  0  6G05G16G21G25G29G31
  -6225288.905 5  24298099.649 5  -4722377.23945  24298099.94345       283.117
  -2986227.819 4  24722424.941 4  -1665627.11345  24722428.25545      3299.949
 -14450903.102 6  22153146.436 6 -11091534.14646  22153146.85746      2112.715
 -16238743.203 6  22306840.850 6 -12135839.14746  22306844.87446     -2600.830
 -22716131.008 8  20955959.366 8 -17349709.68947  20955960.21547     -1534.310
 -19027057.629 7  21674518.669 7 -14513473.50847  21674518.92747     -1275.543
 15  1  3  2 16 30.0000000  0  6G05G16G21G25G29G31
  -6233507.496 5  24296535.687 5  -4728781.30345  24296538.21245       264.819
  -3085209.270 5  24703589.402 5  -1742755.49945  24703593.39845      3298.799
 -14514100.620 7  22141120.349 7 -11140778.96146  22141121.49146      2100.442
 -16160569.444 6  22321716.827 6 -12074924.53546  22321720.75646     -2610.751
 -22669966.095 8  20964744.274 8 -17313737.03747  20964744.87947     -1543.320
 -18988522.916 7  21681851.596 7 -14483446.46247  21681851.94347     -1293.442
 15  1  3  2 17  0.0000000  0  6G05G16G21G25G29G31
  -6241176.644 5  24295076.296 5  -4734757.23745  24295077.44145       246.483
  -3184154.919 5  24684760.621 5  -1819855.96545  24684762.31545      3297.593
 -14576929.173 7  22129164.453 7 -11189736.26446  22129165.44746      2088.109
 -16082098.264 6  22336649.400 6 -12013778.17746  22336653.54146     -2620.659
 -22623531.456 8  20973580.493 8 -17277554.20547  20973581.38547     -1552.321
 -18949451.851 7  21689286.573 7 -14453001.48747  21689287.00147     -1311.297
 15  1  3  2 17 30.0000000  0  6G05G16G21G25G29G31
  -6248295.628 5  24293721.543 5  -4740304.45345  24293721.92445       228.073
  -3283063.573 5  24665938.948 5  -1896927.69345  24665938.20845      3296.324
 -14639387.736 7  22117278.976 7 -11238405.26946  22117280.51946      2075.761
 -16003330.598 6  22351638.390 6 -11952400.78946  22351642.61446     -2630.527
 -22576827.531 8  20982467.952 8 -17241161.53847  20982468.46747     -1561.271
 -18909845.775 7  21696823.371 7 -14422139.62147  21696823.84547     -1329.114
 15  1  3  2 18  0.0000000  0  6G05G16G21G25G29G31
  -6254863.651 5  24292471.655 5  -4745422.35545  24292473.06445       209.737
  -3381933.634 5  24647124.606 5  -1973969.26845  24647127.17445      3295.013
 -14701474.270 7  22105464.293 7 -11286784.36546  22105464.96646      2063.340
 -15924267.316 6  22366683.635 6 -11890793.04746  22366687.81446     -2640.358
 -22529855.681 8  20991406.389 8 -17204560.10347  20991407.40547     -1570.179
 -18869706.167 7  21704461.690 7 -14390862.01247  21704461.86847     -1346.876
 15  1  3  2 18 30.0000000  0  6G05G16G21G25G29G31
  -6260879.869 5  24291326.750 5  -4750110.31545  24291328.60445       191.304
  -3480763.855 5  24628317.802 5  -2050979.87445  24628319.23845      3293.678
 -14763188.014 7  22093720.546 7 -11334872.99446  22093721.82046      2050.897
 -15844909.316 6  22381784.953 6 -11828955.65846  22381788.89046     -2650.178
 -22482617.235 8  21000395.545 8 -17167750.92547  21000396.61847     -1579.047
 -18829033.997 7  21712201.359 7 -14359169.41947  21712201.91947     -1364.598
 15  1  3  2 19  0.0000000  0  6G05G16G21G25G29G31
  -6266343.268 5  24290287.084 5  -4754367.44045  24290289.34545       172.878
  -3579552.828 5  24609518.867 5  -2127958.30045  24609522.71545      3292.230
 -14824527.745 7  22082047.981 7 -11382670.17546  22082048.70646      2038.415
 -15765257.478 6  22396942.204 6 -11766889.30546  22396946.25146     -2659.935
 -22435113.573 8  21009435.198 8 -17130735.09347  21009436.16847     -1587.866
 -18787831.251 7  21720041.987 7 -14327063.39847  21720042.25247     -1382.262
 15  1  3  2 19 30.0000000  0  6G05G16G21G25G29G31
  -6271253.272 5  24289352.746 5  -4758193.40245  24289355.93745       154.456
  -3678299.053 5  24590728.076 5  -2204903.48145  24590722.62445      3290.806
 -14885492.235 7  22070446.813 7 -11430174.97146  22070447.81046      2025.866
 -15685312.729 6  22412155.199 6 -11704594.70146  22412159.43546     -2669.688
 -22387345.602 8  21018525.147 8 -17093513.30347  21018525.86047     -1596.661
 -18746099.426 7  21727983.291 7 -14294545.10447  21727983.54847     -1399.864
 15  1  3  2 20  0.0000000  0  6G05G16G21G25G29G31
  -6275609.514 5  24288523.715 5  -4761587.82445  24288524.04945       135.967
  -3777001.270 5  24571945.700 5  -2281814.24045  24571941.61345      3289.329
 -14946080.064 7  22058917.330 7 -11477386.25546  22058918.04046      2013.302
 -15605075.953 6  22427423.745 6 -11642072.55646  22427427.94146     -2679.404
 -22339314.677 8  21027665.148 8 -17056086.61147  21027666.01347     -1605.388
 -18703839.825 7  21736025.018 7 -14261615.55947  21736025.21047     -1417.435
 15  1  3  2 20 30.0000000  0  6G05G16G21G25G29G31
  -6279410.933 4  24287800.338 4  -4764549.94745  24287801.67045       117.467
  -3875657.915 5  24553171.954 5  -2358689.55945  24553174.80845      3287.767
 -15006290.504 7  22047459.646 7 -11524303.47746  22047460.40946      2000.704
 -15524548.106 6  22442747.698 6 -11579323.60746  22442751.93346     -2689.106
 -22291021.736 8  21036855.000 8 -17018455.75447  21036855.70847     -1614.126
 -18661053.962 7  21744166.915 7 -14228275.93547  21744167.37847     -1434.955
 15  1  3  2 21  0.0000000  0  6G05G16G21G25G29G31
  -6282657.125 5  24287182.561 5  -4767079.44345  24287182.89345        98.940
  -3974267.903 5  24534407.091 5  -2435528.53845  24534411.59445      3286.207
 -15066122.058 7  22036074.063 7 -11570925.45446  22036074.79246      1988.044
 -15443730.096 6  22458126.864 6 -11516348.53646  22458131.10546     -2698.762
 -22242467.863 8  21046094.498 8 -16980621.58047  21046095.37847     -1622.794
 -18617743.147 7  21752408.698 7 -14194527.26247  21752409.14847     -1452.417
 15  1  3  2 21 30.0000000  0  6G05G16G21G25G29G31
  -6285346.943 5  24286670.633 5  -4769175.37345  24286673.09445        80.398
  -4072829.412 5  24515651.476 5  -2512329.70645  24515654.41745      3284.549
 -15125573.397 7  22024760.842 7 -11617251.17246  22024761.80846      1975.370
 -15362622.891 6  22473561.057 6 -11453148.14846  22473565.14846     -2708.379
 -22193654.344 8  21055383.398 8 -16942585.07847  21055384.39247     -1631.443
 -18573909.377 7  21760749.993 7 -14160371.08247  21760750.28047     -1469.830
 15  1  3  2 22  0.0000000  0  6G05G16G21G25G29G31
  -6287479.849 5  24286264.754 5  -4770837.36445  24286265.64845        61.808
  -4171340.946 5  24496905.369 5  -2589091.91045  24496907.80645      3282.894
 -15184643.828 7  22013520.112 7 -11663280.06646  22013521.02246      1962.654
 -15281227.489 6  22489050.104 6 -11389723.16346  22489053.67646     -2717.979
 -22144582.484 8  21064721.482 8 -16904347.28247  21064722.33347     -1640.007
 -18529553.794 7  21769190.585 7 -14125808.30447  21769190.67447     -1487.198
 15  1  3  2 22 30.0000000  0  6G05G16G21G25G29G31
  -6289055.551 5  24285964.946 5  -4772065.15545  24285964.82045        43.235
  -4269801.295 4  24478168.975 4  -2665814.25945  24478173.99545      3281.147
 -15243332.343 7  22002352.045 7 -11709011.36646  22002352.71846      1949.903
 -15199544.663 6  22504593.875 6 -11326074.21746  22504598.12346     -2727.544
 -22095253.473 7  21074108.490 7 -16865909.09447  21074109.73847     -1648.580
 -18484678.201 7  21777730.121 7 -14090840.32047  21777730.73347     -1504.499
 15  1  3  2 23  0.0000000  0  6G05G16G21G25G29G31
  -6290073.306 5  24285771.221 5  -4772858.12245  24285774.07345        24.621
  -4368208.983 3  24459442.540 3  -2742495.55645  24459443.79845      3279.351
 -15301637.076 7  21991257.019 7 -11754443.60446  21991258.35046      1937.091
 -15117575.470 6  22520192.105 6 -11262202.13146  22520196.33146     -2737.057
 -22045667.908 8  21083544.311 8 -16827270.99647  21083545.04447     -1657.103
 -18439283.820 7  21786368.391 7 -14055468.08447  21786368.73847     -1521.771
 15  1  3  2 23 30.0000000  0  6G05G16G21G25G29G31
  -6290532.803 5  24285683.776 5  -4773216.18245  24285682.85645         6.001
  -4466562.409 4  24440726.477 4  -2819134.48945  24440728.48245      3277.512
 -15359557.902 7  21980235.041 7 -11799576.69646  21980235.91046      1924.268
 -15035320.863 6  22535844.642 6 -11198107.64846  22535848.75746     -2746.564
 -21995827.389 8  21093028.646 8 -16788434.23247  21093029.43547     -1665.591
 -18393372.942 7  21795104.943 7 -14019693.37947  21795105.25147     -1538.955
 15  1  3  2 24  0.0000000  0  6G05G16G21G25G29G31
  -6290433.291 5  24285702.641 5  -4773138.63945  24285705.43845       -12.655
  -4564860.161 4  24422020.980 4  -2895730.16245  24422021.56145      3275.643
 -15417092.658 7  21969286.533 7 -11844408.95246  21969287.15546      1911.378
 -14952781.818 6  22551551.274 6 -11133791.51446  22551555.12446     -2756.019
 -21945733.066 7  21102561.275 7 -16749399.70647  21102562.26447     -1674.027
 -18346946.779 7  21803939.559 7 -13983517.15647  21803939.99247     -1556.111
 15  1  3  2 24 30.0000000  0  6G05G16G21G25G29G31
  -6289774.417 4  24285827.977 4  -4772625.18145  24285830.67845       -31.315
  -4663100.623 3  24403326.378 3  -2972281.13545  24403327.37845      3273.710
 -15474240.730 7  21958411.613 7 -11888939.89946  21958412.73946      1898.483
 -14869959.310 6  22567311.923 6 -11069254.49946  22567315.95946     -2765.458
 -21895385.832 8  21112142.044 8 -16710168.10447  21112142.92047     -1682.443
 -18300007.079 7  21812871.894 7 -13946940.78347  21812872.25147     -1573.202
 15  1  3  2 25  0.0000000  0  6G05G16G21G25G29G31
  -6288555.608 5  24286059.930 5  -4771675.41945  24286060.85445       -49.956
  -4761282.575 4  24384642.944 4  -3048786.52545  24384641.95945      3271.743
 -15531001.781 7  21947610.316 7 -11933169.26846  21947611.27046      1885.569
 -14786854.330 6  22583126.294 6 -11004497.38246  22583129.69846     -2774.876
 -21844786.892 8  21121770.708 8 -16670740.35947  21121771.68347     -1690.813
 -18252555.428 7  21821901.650 7 -13909965.47747  21821901.98447     -1590.236
 15  1  3  2 25 30.0000000  0  6G05G16G21G25G29G31
  -6286776.296 5  24286398.509 5  -4770288.91745  24286400.05745       -68.730
  -4859404.470 4  24365970.928 4  -3125245.17545  24365975.25845      3269.735
 -15587373.748 7  21936883.081 7 -11977095.46046  21936884.01146      1872.593
 -14703467.870 6  22598994.226 6 -10939520.93346  22598997.98546     -2784.227
 -21793937.602 7  21131447.015 7 -16631117.54947  21131447.79947     -1699.149
 -18204593.744 7  21831028.468 7 -13872592.75647  21831028.93547     -1607.208
 15  1  3  2 26  0.0000000  0  6G05G16G21G25G29G31
  -6284436.122 5  24286843.820 5  -4768465.40945  24286845.27445       -87.347
  -4957464.799 4  24347310.658 4  -3201655.76945  24347311.75545      3267.638
 -15643355.916 7  21926230.020 7 -12020717.91946  21926230.77146      1859.553
 -14619800.927 6  22614915.531 6 -10874325.91546  22614919.78546     -2793.569
 -21742838.577 7  21141170.838 7 -16591300.13447  21141171.84147     -1707.445
 -18156123.699 7  21840252.027 7 -13834823.89147  21840252.37947     -1624.128
 15  1  3  2 26 30.0000000  0  6G05G16G21G25G29G31
  -6281534.824 5  24287395.926 5  -4766204.59845  24287395.86145      -106.078
  -5055461.839 4  24328662.448 4  -3278017.11945  24328663.79245      3265.503
 -15698947.002 7  21915651.382 7 -12064035.63246  21915651.97646      1846.508
 -14535854.511 6  22630890.010 6 -10808913.12346  22630894.20546     -2802.853
 -21691491.320 7  21150941.903 7 -16551289.29247  21150942.73447     -1715.700
 -18107146.827 7  21849572.023 7 -13796660.10947  21849572.57547     -1640.985
 15  1  3  2 27  0.0000000  0  6G05G16G21G25G29G31
  -6278071.801 5  24288054.873 5  -4763506.11645  24288056.14445      -124.790
  -5153394.596 5  24310026.507 5  -3354328.31645  24310029.44545      3263.322
 -15754146.144 7  21905147.331 7 -12107047.94546  21905147.82646      1833.427
 -14451629.626 6  22646917.458 6 -10743283.34846  22646921.60846     -2812.128
 -21639896.896 7  21160759.994 7 -16511085.85247  21160761.07247     -1723.930
 -18057665.154 7  21858988.071 7 -13758102.97347  21858988.58647     -1657.799
 15  1  3  2 27 30.0000000  0  6G05G16G21G25G29G31
  -6274046.918 5  24288820.761 5  -4760369.84145  24288822.12345      -143.497
  -5251260.698 5  24291403.214 5  -3430587.60345  24291404.65845      3261.060
 -15808952.642 7  21894717.988 7 -12149754.29046  21894718.89346      1820.326
 -14367127.294 6  22662997.710 6 -10677437.38146  22663001.65446     -2821.362
 -21588056.114 7  21170624.967 7 -16470690.44747  21170626.00047     -1732.106
 -18007680.262 7  21868499.896 7 -13719153.71247  21868500.36647     -1674.533
 15  1  3  2 28  0.0000000  0  6G05G16G21G25G29G31
  -6269460.053 5  24289693.648 5  -4756795.61945  24289694.17945      -162.303
  -5349058.910 5  24272792.846 5  -3506794.01945  24272794.84745      3258.789
 -15863365.529 7  21884363.540 7 -12192153.93346  21884364.43446      1807.182
 -14282348.559 6  22679130.579 6 -10611376.06046  22679134.58946     -2830.565
 -21535970.402 7  21180536.540 7 -16430104.18547  21180537.38047     -1740.261
 -17957194.120 7  21878107.097 7 -13679813.87147  21878107.57347     -1691.218
 15  1  3  2 28 30.0000000  0  6G05G16G21G25G29G31
  -6264310.065 5  24290673.621 5  -4752782.60345  24290673.53345      -181.060
  -5446787.878 5  24254195.665 5  -3582946.43445  24254197.49545      3256.469
 -15917383.583 7  21874084.233 7 -12234245.91246  21874085.19646      1794.005
 -14197294.439 6  22695315.851 6 -10545100.11946  22695319.91146     -2839.722
 -21483640.907 7  21190494.505 7 -16389327.96847  21190495.54647     -1748.361
 -17906208.310 7  21887809.378 7 -13640084.67447  21887809.73147     -1707.835
 15  1  3  2 29  0.0000000  0  6G05G16G21G25G29G31
  -6258597.430 5  24291760.684 5  -4748331.17145  24291760.45445      -199.800
  -5544445.952 5  24235611.983 5  -3659043.64145  24235612.49245      3254.100
 -15971005.972 7  21863880.234 7 -12276029.57946  21863881.32846      1780.794
 -14111966.003 6  22711553.305 6 -10478610.44546  22711557.17746     -2848.852
 -21431068.741 7  21200498.654 7 -16348362.65247  21200499.79147     -1756.447
 -17854724.912 7  21897606.345 7 -13599967.75047  21897606.78747     -1724.376
 15  1  3  2 29 30.0000000  0  6G05G16G21G25G29G31
  -6252321.663 5  24292954.888 5  -4743440.95145  24292956.33145      -218.588
  -5642031.768 5  24217042.017 5  -3735084.51845  24217041.03445      3251.621
 -16024231.577 7  21853751.728 7 -12317504.06546  21853752.32646      1767.570
 -14026364.271 6  22727842.771 6 -10411907.80646  22727847.15746     -2857.932
 -21378255.013 7  21210548.767 7 -16307209.09647  21210549.78147     -1764.476
 -17802745.583 7  21907497.687 7 -13559464.38947  21907498.26347     -1740.896
 15  1  3  2 30  0.0000000  0  6G05G16G21G25G29G31
  -6245482.497 5  24294256.333 5  -4738111.67845  24294257.02845      -237.362
  -5739543.265 5  24198486.173 5  -3811067.49645  24198488.99245      3249.128
 -16077059.411 7  21843698.912 7 -12358668.60246  21843700.10146      1754.289
 -13940490.286 6  22744184.043 6 -10344993.02146  22744188.34546     -2866.984
 -21325200.376 7  21220644.736 7 -16265867.82647  21220645.85647     -1772.496
 -17750272.108 7  21917483.057 7 -13518575.97547  21917483.23147     -1757.327
 15  1  3  2 30 30.0000000  0  6G05G16G21G25G29G31
  -6238079.637 5  24295665.074 5  -4732343.20845  24295666.06945      -256.139
  -5836979.066 5  24179944.740 5  -3886991.46545  24179946.64845      3246.581
 -16129489.036 7  21833721.870 7 -12399522.83146  21833722.52946      1740.986
 -13854345.117 6  22760576.928 6 -10277866.92846  22760581.94846     -2876.026
 -21271906.101 7  21230786.308 7 -16224339.82747  21230787.21047     -1780.452
 -17697306.329 7  21927562.126 7 -13477303.94547  21927562.34347     -1773.708
 15  1  3  2 31  0.0000000  0  6G05G16G21G25G29G31
  -6230113.236 5  24297180.989 5  -4726135.58745  24297183.09945      -274.948
  -5934337.934 5  24161417.978 5  -3962855.53445  24161417.86545      3243.979
 -16181518.827 7  21823820.939 7 -12440065.51546  21823821.66946      1727.655
 -13767929.875 6  22777021.202 6 -10210530.40246  22777025.88646     -2885.002
 -21218373.530 7  21240973.225 7 -16182626.16047  21240973.99147     -1788.383
 -17643850.617 7  21937734.422 7 -13435650.12947  21937735.08447     -1790.007
 15  1  3  2 31 30.0000000  0  6G05G16G21G25G29G31
  -6221582.889 5  24298804.217 5  -4719488.52445  24298805.66345      -293.763
  -6031617.918 5  24142906.273 5  -4038658.06445  24142907.90345      3241.325
 -16233148.226 7  21813996.168 7 -12480296.20246  21813997.37246      1714.289
 -13681245.573 6  22793516.663 6 -10142984.19846  22793521.32746     -2893.938
 -21164603.777 7  21251205.273 7 -16140727.64047  21251205.84647     -1796.276
 -17589906.502 7  21947999.654 7 -13393615.79147  21948000.21547     -1806.254
 15  1  3  2 32  0.0000000  0  6G05G16G21G25G29G31
  -6212488.496 5  24300534.826 5  -4712401.96045  24300535.19945      -312.550
  -6128817.436 5  24124409.824 5  -4114397.97445  24124411.72545      3238.627
 -16284376.709 7  21804247.692 7 -12520214.48646  21804248.86646      1700.916
 -13594293.331 6  22810063.107 6 -10075229.23646  22810067.91846     -2902.857
 -21110597.738 7  21261482.286 7 -16098645.02447  21261483.47947     -1804.131
 -17535475.948 7  21958357.441 7 -13351202.37547  21958358.12347     -1822.434
 15  1  3  2 32 30.0000000  0  6G05G16G21G25G29G31
  -6202829.844 5  24302372.805 5  -4704875.71545  24302373.84845      -331.368
  -6225934.962 5  24105928.947 5  -4190073.97545  24105930.26745      3235.855
 -16335202.836 7  21794575.765 7 -12559819.24446  21794576.59846      1687.482
 -13507074.187 6  22826660.365 6 -10007266.27446  22826664.98646     -2911.756
 -21056356.444 7  21271804.071 7 -16056379.08847  21271805.04647     -1811.958
 -17480561.201 7  21968807.391 7 -13308411.67547  21968807.69047     -1838.544
 15  1  3  2 33  0.0000000  0  6G05G16G21G25G29G31
  -6192606.881 5  24304318.158 5  -4696909.73245  24304319.20945      -350.166
  -6322968.772 5  24087463.986 5  -4265684.73245  24087464.35745      3233.051
 -16385625.995 7  21784980.548 7 -12599110.01446  21784981.02346      1674.056
 -13419589.308 6  22843308.210 6  -9939096.25146  22843312.26946     -2920.576
 -21001880.766 7  21282170.468 7 -16013930.51947  21282171.20547     -1819.742
 -17425164.062 7  21979349.139 7 -13265245.08147  21979349.58247     -1854.597
 15  1  3  2 33 30.0000000  0  6G05G16G21G25G29G31
  -6181819.581 5  24306370.906 5  -4688504.03745  24306371.38945      -368.985
  -6419917.205 5  24069015.311 5  -4341228.95545  24069015.65145      3230.181
 -16435645.437 7  21775462.168 7 -12638086.18547  21775462.90947      1660.570
 -13331839.771 6  22860006.399 6  -9870720.00046  22860011.62246     -2929.395
 -20947172.379 7  21292581.139 7 -15971300.61447  21292582.12947     -1827.491
 -17369286.369 7  21989982.302 7 -13221704.03347  21989982.43647     -1870.587
 15  1  3  2 34  0.0000000  0  6G05G16G21G25G29G31
  -6170468.036 5  24308530.988 5  -4679658.63545  24308533.42345      -387.794
  -6516778.947 5  24050583.115 5  -4416705.60845  24050583.00245      3227.245
 -16485260.333 7  21766020.765 7 -12676747.12847  21766021.58747      1647.067
 -13243826.651 6  22876754.746 6  -9802138.36646  22876759.49646     -2938.151
 -20892231.720 7  21303036.026 7 -15928489.71047  21303037.04847     -1835.217
 -17312930.186 7  22000706.542 7 -13177790.14247  22000707.27347     -1886.497
 15  1  3  2 34 30.0000000  0  6G05G16G21G25G29G31
  -6158552.173 5  24310798.497 5  -4670373.52345  24310799.94445      -406.584
  -6613552.128 5  24032167.784 5  -4492113.28745  24032169.14045      3224.242
 -16534469.314 7  21756656.603 7 -12715091.77247  21756657.31847      1633.529
 -13155551.088 6  22893553.042 6  -9733352.23046  22893557.46646     -2946.900
 -20837060.057 7  21313534.849 7 -15885498.81047  21313535.56547     -1842.886
 -17256097.645 7  22011521.431 7 -13133505.04647  22011521.67247     -1902.345
 15  1  3  2 35  0.0000000  0  6G05G16G21G25G29G31
  -6146071.691 5  24313173.427 5  -4660648.45045  24313175.35845      -425.418
  -6710235.123 5  24013769.632 5  -4567450.68945  24013770.69245      3221.247
 -16583272.080 7  21747369.731 7 -12753119.88547  21747370.65147      1619.976
 -13067014.197 6  22910401.075 6  -9664362.45846  22910405.38246     -2955.575
 -20781658.811 7  21324077.364 7 -15842329.01647  21324078.68747     -1850.528
 -17198790.437 7  22022426.634 7 -13088850.09147  22022427.25847     -1918.138
 15  1  3  2 35 30.0000000  0  6G05G16G21G25G29G31
  -6133027.150 5  24315655.690 5  -4650483.84645  24315654.71245      -444.232
  -6806826.026 5  23995388.958 5  -4642716.32145  23995387.73145      3218.154
 -16631667.740 7  21738160.329 7 -12790830.77947  21738161.16347      1606.394
 -12978217.116 6  22927298.621 6  -9595169.92446  22927303.28246     -2964.239
 -20726028.588 7  21334663.457 7 -15798980.79147  21334664.28847     -1858.151
 -17141010.812 7  22033421.732 7 -13043827.01447  22033422.18747     -1933.838
 15  1  3  2 36  0.0000000  0  6G05G16G21G25G29G31
  -6119418.390 5  24318245.324 5  -4639879.59445  24318245.61445      -463.047
  -6903323.569 5  23977026.025 5  -4717909.16845  23977025.63645      3215.019
 -16679655.835 7  21729028.494 7 -12828224.09547  21729029.60247      1592.797
 -12889160.991 6  22944245.435 6  -9525775.54946  22944249.49846     -2972.846
 -20670170.568 7  21345292.891 7 -15755455.06147  21345293.78747     -1865.719
 -17082761.025 7  22044506.298 7 -12998437.57347  22044506.58847     -1949.483
 15  1  3  2 36 30.0000000  0  6G05G16G21G25G29G31
  -6105245.357 5  24320942.352 5  -4628835.66345  24320943.93945      -481.819
  -6999725.666 5  23958681.299 5  -4793027.72545  23958683.67245      3211.798
 -16727235.628 7  21719974.361 7 -12865299.25047  21719975.10647      1579.172
 -12799846.942 6  22961241.363 6  -9456180.20746  22961246.09046     -2981.414
 -20614085.751 7  21355965.480 7 -15711752.61147  21355966.48447     -1873.243
 -17024042.959 7  22055679.995 7 -12952683.25947  22055680.40847     -1965.051
 15  1  3  2 37  0.0000000  0  6G05G16G21G25G29G31
  -6090508.295 5  24323746.703 5  -4617352.20045  24323747.62845      -500.637
  -7096030.838 5  23940354.993 5  -4868070.64245  23940356.83345      3208.539
 -16774405.685 7  21710998.180 7 -12902055.12747  21710999.41447      1565.540
 -12710276.125 6  22978286.116 6  -9386384.76246  22978290.24046     -2989.969
 -20557775.504 7  21366680.978 7 -15667874.49847  21366681.86947     -1880.763
 -16964858.873 7  22066942.355 7 -12906565.79847  22066942.71847     -1980.544
 15  1  3  2 37 30.0000000  0  6G05G16G21G25G29G31
  -6075207.136 5  24326658.360 5  -4605429.19945  24326661.15245      -519.424
  -7192237.447 5  23922047.499 5  -4943036.84145  23922048.89445      3205.231
 -16821166.147 7  21702099.936 7 -12938491.83247  21702100.88547      1551.822
 -12620449.703 6  22995379.540 6  -9316390.15846  22995383.66546     -2998.470
 -20501240.505 7  21377439.234 7 -15623821.24847  21377439.88947     -1888.237
 -16905210.959 7  22078292.991 7 -12860086.91047  22078293.54747     -1995.973
 15  1  3  2 38  0.0000000  0  6G05G16G21G25G29G31
  -6059342.425 5  24329677.354 5  -4593067.04645  24329679.81845      -538.232
  -7288343.864 5  23903758.993 5  -5017924.94445  23903759.72045      3201.861
 -16867515.478 7  21693279.940 7 -12974608.18147  21693280.67647      1538.109
 -12530368.790 6  23012521.364 6  -9246197.24646  23012525.59446     -3006.930
 -20444481.696 7  21388240.055 7 -15579593.62147  21388240.87947     -1895.682
 -16845101.313 7  22089731.472 7 -12813248.22546  22089731.85846     -2011.341
 15  1  3  2 38 30.0000000  0  6G05G16G21G25G29G31
  -6042913.905 5  24332803.587 5  -4580265.57845  24332806.70045      -557.025
  -7384348.067 5  23885489.956 5  -5092733.37845  23885490.87645      3198.428
 -16913453.058 7  21684538.308 7 -13010403.68247  21684539.19947      1524.389
 -12440034.582 6  23029711.394 6  -9175806.95146  23029715.45846     -3015.338
 -20387500.216 7  21399083.262 7 -15535192.47247  21399084.11647     -1903.078
 -16784531.515 7  22101257.529 7 -12766050.99847  22101258.06447     -2026.633
 15  1  3  2 39  0.0000000  0  6G05G16G21G25G29G31
  -6025922.067 5  24336037.036 5  -4567025.19345  24336036.47045      -575.781
  -7480248.473 5  23867240.647 5  -5167460.95245  23867241.64345      3194.941
 -16958978.646 7  21675875.054 7 -13045878.15147  21675875.69247      1510.638
 -12349448.295 6  23046949.387 6  -9105220.24446  23046953.55346     -3023.734
 -20330297.218 7  21409968.631 7 -15490618.71247  21409969.86047     -1910.458
 -16723504.249 7  22112870.655 7 -12718497.28346  22112871.36646     -2041.849
 15  1  3  2 39 30.0000000  0  6G05G16G21G25G29G31
  -6008367.030 5  24339377.596 5  -4553345.90845  24339378.99845      -594.553
  -7576043.370 5  23849011.499 5  -5242106.28445  23849013.79345      3191.395
 -17004091.417 7  21667290.374 7 -13081030.95347  21667291.40747      1496.877
 -12258611.078 6  23064235.131 6  -9034438.01046  23064239.41546     -3032.073
 -20272873.576 7  21420895.995 7 -15445873.02947  21420897.30847     -1917.773
 -16662021.571 7  22124570.432 7 -12670588.71446  22124570.69346     -2056.989
 15  1  3  2 40  0.0000000  0  6G05G16G21G25G29G31
  -5990249.449 5  24342825.273 5  -4539228.27245  24342825.88945      -613.312
  -7671730.958 5  23830802.776 5  -5316668.06845  23830805.52745      3187.793
 -17048790.929 7  21658784.332 7 -13115861.72747  21658785.38747      1483.074
 -12167524.115 6  23081568.446 6  -8963461.14546  23081572.34646     -3040.396
 -20215230.571 7  21431865.120 7 -15400956.41047  21431866.05747     -1925.091
 -16600085.928 7  22136356.403 7 -12622327.18046  22136357.14846     -2072.066
 15  1  3  2 40 30.0000000  0  6G05G16G21G25G29G31
  -5971569.127 5  24346380.058 5  -4524672.14745  24346381.55545      -632.040
  -7767309.560 5  23812614.804 5  -5391144.88445  23812616.61445      3184.127
 -17093076.163 7  21650357.116 7 -13150369.68747  21650357.90047      1469.286
 -12076188.593 6  23098949.039 6  -8892290.62746  23098953.81646     -3048.648
 -20157368.902 7  21442875.845 7 -15355869.39447  21442876.61947     -1932.353
 -16537699.112 7  22148228.201 7 -12573714.09046  22148228.73146     -2087.052
 15  1  3  2 41  0.0000000  0  6G05G16G21G25G29G31
  -5952326.541 5  24350041.759 5  -4509677.96445  24350042.65245      -650.800
  -7862777.512 5  23794447.839 5  -5465535.46345  23794449.86645      3180.389
 -17136946.173 7  21642008.913 7 -13184554.09347  21642009.68447      1455.439
 -11984605.759 6  23116376.692 6  -8820927.36846  23116380.29046     -3056.855
 -20099289.886 7  21453927.914 7 -15310613.01747  21453928.74347     -1939.582
 -16474863.616 7  22160185.385 7 -12524751.37346  22160185.94646     -2101.981
 15  1  3  2 41 30.0000000  0  6G05G16G21G25G29G31
  -5932521.802 5  24353810.455 5  -4494245.59345  24353810.92045      -669.533
  -7958133.035 5  23776302.363 5  -5539838.45745  23776302.87545      3176.626
 -17180401.354 7  21633739.656 7 -13218415.25647  21633740.61547      1441.567
 -11892776.746 6  23133851.189 6  -8749372.31346  23133856.02046     -3065.072
 -20040994.344 7  21465021.191 7 -15265187.91847  21465022.07747     -1946.786
 -16411581.503 7  22172227.570 7 -12475440.64746  22172228.15546     -2116.817
 15  1  3  2 42  0.0000000  0  6G05G16G21G25G29G31
  -5912155.264 5  24357686.032 5  -4478375.60345  24357685.25645      -688.250
  -8053374.357 5  23758178.493 5  -5614052.44945  23758179.30245      3172.780
 -17223440.635 7  21625549.540 7 -13251952.34147  21625550.49347      1427.699
 -11800702.799 6  23151372.303 6  -8677626.40546  23151376.98646     -3073.193
 -19982483.030 7  21476155.515 7 -15219594.69947  21476156.56647     -1953.955
 -16347855.307 7  22184354.269 7 -12425783.88646  22184354.74746     -2131.586
 15  1  3  2 42 30.0000000  0  6G05G16G21G25G29G31
  -5891227.677 5  24361668.435 5  -4462068.40445  24361670.85545      -706.950
  -8148499.585 5  23740076.801 5  -5688175.97145  23740077.29745      3168.886
 -17266062.813 7  21617438.792 7 -13285164.41947  21617439.66447      1413.777
 -11708385.130 6  23168939.800 6  -8605690.55846  23168943.78646     -3081.305
 -19923757.143 7  21487330.713 7 -15173834.27147  21487331.80347     -1961.107
 -16283687.159 7  22196565.066 7 -12375782.73846  22196565.96346     -2146.283
 15  1  3  2 43  0.0000000  0  6G05G16G21G25G29G31
  -5869739.112 5  24365757.519 5  -4445324.00845  24365757.16245      -725.640
  -8243507.120 5  23721997.463 5  -5762207.76545  23721997.53645      3164.924
 -17308267.610 7  21609407.492 7 -13318051.25747  21609408.19847      1399.856
 -11615825.010 6  23186553.445 6  -8533565.78946  23186557.31246     -3089.378
 -19864817.914 7  21498546.489 7 -15127907.60747  21498547.25247     -1968.177
 -16219079.199 7  22208859.565 7 -12325438.88746  22208860.47546     -2160.906
 15  1  3  2 43 30.0000000  0  7G05G16G18G21G25G29G31
  -5847690.114 5  24369953.312 5  -4428142.94745  24369955.43645      -744.318
  -8338395.059 5  23703940.858 5  -5836146.41245  23703941.62045      3160.910
    -14791.912 4  25244077.879 4                                      2959.056
 -17350055.122 7  21601455.581 7 -13350612.94647  21601456.51147      1385.932
 -11523023.588 6  23204212.948 6  -8461253.01646  23204217.31746     -3097.384
 -19805666.067 7  21509802.697 7 -15081815.26547  21509803.67147     -1975.271
 -16154033.678 7  22221237.323 7 -12274754.06946  22221237.82646     -2175.449
 15  1  3  2 44  0.0000000  0  7G05G16G18G21G25G29G31
  -5825081.242 5  24374255.609 5  -4410525.62545  24374255.60645      -762.965
  -8433161.498 5  23685907.358 5  -5909990.37345  23685908.02045      3156.825
   -103598.352 4  25227178.143 4                                      2961.322
 -17391423.836 7  21593583.378 7 -13382848.28547  21593584.12947      1371.976
 -11429982.146 6  23221918.112 6  -8388753.19046  23221922.36246     -3105.362
 -19746302.461 7  21521099.208 7 -15035557.92047  21521100.30047     -1982.300
 -16088553.030 7  22233697.881 7 -12223730.20546  22233698.20046     -2189.915
 15  1  3  2 44 30.0000000  0  7G05G16G18G21G25G29G31
  -5801912.800 5  24378664.414 5  -4392472.26245  24378665.33945      -781.605
  -8527804.590 5  23667897.367 5  -5983738.21545  23667898.19445      3152.688
   -192472.097 4  25210265.958 4                                      2963.582
 -17432373.774 7  21585790.841 7 -13414757.31247  21585791.65247      1358.007
 -11336701.953 6  23239668.760 6  -8316067.32846  23239672.26446     -3113.297
 -19686728.476 7  21532435.767 7 -14989136.63747  21532436.65747     -1989.313
 -16022639.686 7  22246240.794 7 -12172369.16346  22246241.40146     -2204.310
 15  1  3  2 45  0.0000000  0  7G05G16G18G21G25G29G31
  -5778185.222 5  24383179.579 5  -4373983.23645  24383180.46445      -800.234
  -8622322.800 5  23649911.081 5  -6057388.74345  23649913.67245      3148.508
   -281410.506 5  25193341.488 5    -50825.00144  25193339.53544      2965.662
 -17472904.531 7  21578078.093 7 -13446339.71147  21578079.25247      1344.031
 -11243184.226 6  23257464.587 6  -8243196.38346  23257469.31546     -3121.206
 -19626944.782 7  21543812.225 7 -14942551.94947  21543813.24147     -1996.270
 -15956295.756 7  22258865.622 7 -12120672.60746  22258866.25646     -2218.614
 15  1  3  2 45 30.0000000  0  7G05G16G18G21G25G29G31
  -5753899.207 5  24387801.036 5  -4355059.06245  24387803.25645      -818.836
  -8716714.186 5  23631949.017 5  -6130940.45045  23631949.03545      3144.271
   -370411.456 5  25176405.173 5   -120176.53245  25176402.57545      2967.719
 -17513015.745 7  21570445.182 7 -13477595.19247  21570445.99847      1330.025
 -11149430.216 6  23275305.393 6  -8170141.32746  23275310.42646     -3129.040
 -19566952.482 7  21555228.385 7 -14895804.70447  21555229.51747     -2003.218
 -15889523.858 7  22271571.893 7 -12068642.56346  22271572.30346     -2232.850
 15  1  3  2 46  0.0000000  0  7G05G16G18G21G25G29G31
  -5729055.291 5  24392528.686 5  -4335700.13145  24392531.03745      -837.427
  -8810976.767 5  23614011.398 5  -6204391.78445  23614011.88745      3139.910
   -459472.360 5  25159457.443 5   -189574.58345  25159460.20345      2969.647
 -17552706.199 7  21562892.340 7 -13508522.80447  21562893.28347      1315.996
 -11055441.174 6  23293190.903 6  -8096903.10846  23293195.34546     -3136.877
 -19506752.242 7  21566684.118 7 -14848895.41447  21566684.88447     -2010.128
 -15822325.989 7  22284359.244 7 -12016280.59646  22284360.25846     -2246.988
 15  1  3  2 46 30.0000000  0  7G05G16G18G21G25G29G31
  -5703653.931 5  24397362.363 5  -4315906.81245  24397362.56645      -855.991
  -8905108.971 5  23596098.616 5  -6277741.53145  23596099.44145      3135.569
   -548590.774 4  25142498.739 4   -259017.55445  25142494.57645      2971.537
 -17591975.619 7  21555419.622 7 -13539122.33347  21555420.38347      1301.970
 -10961218.384 6  23311120.910 6  -8023482.75446  23311124.55946     -3144.635
 -19446345.669 7  21578179.107 7 -14801825.36047  21578180.06047     -2016.985
 -15754704.870 7  22297227.122 7 -11963588.82046  22297227.72846     -2261.068
 15  1  3  2 47  0.0000000  0  7G05G16G18G21G25G29G31
  -5677695.672 5  24402302.066 5  -4295679.58945  24402301.48145      -874.538
  -8999108.885 5  23578211.034 5  -6350988.20745  23578212.15145      3131.102
   -637764.320 4  25125529.615 4   -328503.46145  25125534.64045      2973.370
 -17630823.720 7  21548027.084 7 -13569393.56247  21548027.90547      1287.893
 -10866763.111 6  23329095.162 6  -7949881.23946  23329100.29846     -3152.363
 -19385732.923 7  21589713.323 7 -14754594.66247  21589714.29247     -2023.848
 -15686662.642 7  22310175.129 7 -11910568.91646  22310175.60846     -2275.059
 15  1  3  2 47 30.0000000  0  7G05G16G18G21G25G29G31
  -5651181.236 5  24407347.598 5  -4275018.96445  24407348.25945      -893.077
  -9092974.662 5  23560348.951 5  -6424130.35545  23560351.95545      3126.627
   -726990.586 4  25108550.424 4   -398030.35545  25108552.14845      2975.026
 -17669249.960 7  21540714.807 7 -13599336.07347  21540715.57147      1273.843
 -10772076.674 6  23347113.390 6  -7876099.60246  23347116.94746     -3160.075
 -19324915.379 7  21601286.517 7 -14707204.37047  21601287.25347     -2030.655
 -15618201.819 7  22323202.787 7 -11857222.83046  22323203.39046     -2288.977
 15  1  3  2 48  0.0000000  0  7G05G16G18G21G25G29G31
  -5624111.272 5  24412498.807 5  -4253925.45945  24412498.57545      -911.571
  -9186704.327 5  23542512.747 5  -6497166.42345  23542513.42245      3122.013
   -816267.173 3  25091561.613 3   -467596.50245  25091570.32845      2976.700
 -17707254.064 7  21533482.851 7 -13628949.64847  21533483.66147      1259.774
 -10677160.365 5  23365175.358 5  -7802138.83846  23365179.56646     -3167.692
 -19263893.897 7  21612898.512 7 -14659655.16147  21612899.43647     -2037.440
 -15549324.710 7  22336309.673 7 -11803552.35746  22336310.35046     -2302.815
 15  1  3  2 48 30.0000000  0  7G05G16G18G21G25G29G31
  -5596486.552 5  24417755.636 5  -4232399.71745  24417756.89445      -930.040
  -9280296.082 5  23524702.830 5  -6570095.04545  23524704.43145      3117.409
   -905591.312 3  25074563.838 3   -537199.75445  25074561.37045      2978.268
 -17744835.997 7  21526331.247 7 -13658234.25247  21526332.02447      1245.698
 -10582015.360 5  23383280.858 5  -7727999.90046  23383284.84746     -3175.298
 -19202669.752 7  21624549.084 7 -14611948.04847  21624549.80747     -2044.182
 -15480034.004 7  22349495.254 7 -11749559.61846  22349495.85246     -2316.562
 15  1  3  2 49  0.0000000  0  7G05G16G18G21G25G29G31
  -5568307.608 5  24423117.888 5  -4210442.04745  24423118.20745      -948.533
  -9373748.122 5  23506919.473 5  -6642914.80545  23506920.60545      3112.705
   -994961.010 2  25057557.311 2   -606838.43245  25057553.73445      2979.722
 -17781994.597 7  21519260.188 7 -13687188.99647  21519261.09947      1231.548
 -10486643.071 5  23401429.585 5  -7653683.82946  23401433.17646     -3182.857
 -19141243.265 7  21636238.148 7 -14564083.25847  21636239.14147     -2050.910
 -15410331.897 7  22362759.124 7 -11695246.28946  22362759.45646     -2330.242
 15  1  3  2 49 30.0000000  0  7G05G16G18G21G25G29G31
  -5539574.954 5  24428585.508 5  -4188052.92545  24428586.11445      -966.982
  -9467058.473 5  23489163.104 5  -6715624.15045  23489163.02245      3107.962
  -1084373.809 2  25040542.672 2   -676510.67845  25040543.96145      2981.114
 -17818729.480 7  21512269.765 7 -13715813.56747  21512270.63347      1217.426
 -10391044.754 5  23419621.313 5  -7579191.63046  23419625.88646     -3190.375
 -19079615.737 7  21647965.482 7 -14516061.81947  21647966.22947     -2057.594
 -15340220.722 7  22376100.848 7 -11640614.21646  22376101.94846     -2343.833
 15  1  3  2 50  0.0000000  0  7G05G16G18G21G25G29G31
  -5510289.408 5  24434158.417 5  -4165233.02445  24434157.23945      -985.397
  -9560225.262 5  23471434.058 5  -6788221.65045  23471435.25445      3103.141
  -1173826.656 2  25023520.259 2   -746214.28144  25023517.02144      2982.368
 -17855040.737 7  21505359.936 7 -13744108.03547  21505360.46647      1203.307
 -10295221.725 5  23437855.843 5  -7504524.35946  23437860.96246     -3197.829
 -19017788.296 7  21659730.870 7 -14467884.59347  21659731.48347     -2064.233
 -15269703.195 7  22389519.915 7 -11585665.50446  22389520.37146     -2357.327
 15  1  3  2 50 30.0000000  0  8G05G16G18G21G25G27G29G31
  -5480451.875 5  24439836.236 5  -4141982.97845  24439837.75245     -1003.791
  -9653246.704 5  23453732.652 5  -6860705.86345  23453734.54045      3098.270
  -1263317.363 2  25006490.828 2   -815947.29344  25006491.05444      2983.600
 -17890927.635 7  21498530.872 7 -13772071.84647  21498531.65247      1189.158
 -10199175.298 5  23456132.854 5  -7429682.98946  23456137.30646     -3205.254
    -51795.252 3  25376956.298 3                                      3046.472
 -18955761.656 7  21671534.146 7 -14419552.14247  21671534.90447     -2070.863
 -15198781.734 7  22403015.836 7 -11530402.03146  22403016.54846     -2370.758
 15  1  3  2 51  0.0000000  0  8G05G16G18G21G25G27G29G31
  -5450063.303 5  24445618.953 5  -4118303.56645  24445618.61945     -1022.136
  -9746120.760 5  23436059.263 5  -6933075.23045  23436060.21345      3093.317
  -1352843.544 2  24989454.374 2                                      2984.778
 -17926389.950 7  21491782.594 7 -13799704.79347  21491782.86547      1174.986
 -10102906.767 5  23474452.175 5  -7354668.55945  23474456.92045     -3212.632
   -143163.015 3  25359569.985 3                                      3044.701
 -18893536.572 7  21683375.165 7 -14371065.06647  21683375.93047     -2077.459
 -15127458.707 7  22416588.159 7 -11474825.66246  22416588.85246     -2384.099
 15  1  3  2 51 30.0000000  0  8G05G16G18G21G25G27G29G31
  -5419124.133 5  24451506.398 5  -4094195.08945  24451508.50245     -1040.466
  -9838845.515 5  23418414.321 5  -7005328.26945  23418414.89445      3088.322
  -1442402.625 2  24972411.871 2                                      2985.816
 -17961427.321 7  21485115.196 7 -13827006.62447  21485115.91147      1160.830
 -10006417.516 5  23492813.442 5  -7279482.14646  23492817.63646     -3219.972
   -234478.491 3  25342193.326 3                                      3042.994
 -18831114.270 7  21695253.737 7 -14322424.31847  21695255.19547     -2084.033
 -15055736.740 7  22430236.397 7 -11418938.41046  22430236.93246     -2397.359
 15  1  3  2 52  0.0000000  0  8G05G16G18G21G25G27G29G31
  -5387635.180 5  24457498.566 5  -4069658.24645  24457501.09745     -1058.771
  -9931419.309 6  23400798.127 6  -7077463.67445  23400799.20745      3083.262
  -1531992.154 3  24955363.462 3                                      2986.790
 -17996039.393 7  21478528.714 7 -13853977.05847  21478529.65847      1146.634
  -9909708.845 5  23511216.530 5  -7204124.78346  23511219.57646     -3227.257
   -325741.293 4  25324826.673 4                                      3041.217
 -18768495.077 7  21707169.761 7 -14273630.14847  21707170.87647     -2090.574
 -14983618.253 7  22443960.090 7 -11362742.19646  22443960.78746     -2410.523
 15  1  3  2 52 30.0000000  0  8G05G16G18G21G25G27G29G31
  -5355597.376 5  24463595.214 5  -4044693.69145  24463596.21145     -1077.075
 -10023840.273 6  23383211.002 6  -7149479.99846  23383211.02646      3078.123
  -1621609.401 3  24938309.957 3                                      2987.679
 -18030225.910 7  21472023.230 7 -13880615.89047  21472023.83747      1132.450
  -9812782.113 5  23529661.105 5  -7128597.43846  23529664.74046     -3234.515
   -416950.999 5  25307470.094 5    -49744.71445  25307477.85745      3039.429
 -18705680.511 7  21719122.979 7 -14224683.74547  21719123.77147     -2097.065
 -14911105.959 7  22457758.727 7 -11306239.12646  22457759.30946     -2423.618
 15  1  3  2 53  0.0000000  0  8G05G16G18G21G25G27G29G31
  -5323011.559 5  24469796.041 5  -4019302.14845  24469796.90745     -1095.304
 -10116105.916 6  23365653.426 6  -7221375.26345  23365654.96645      3072.911
  -1711252.543 4  24921251.452 4                                      2988.517
 -18063986.900 7  21465598.717 7 -13906923.13647  21465599.33147      1118.257
  -9715638.618 5  23548146.897 5  -7052901.23145  23548150.38245     -3241.716
   -508107.150 5  25290123.666 5   -120775.49844  25290132.35744      3037.629
 -18642671.482 7  21731113.210 7 -14175585.80547  21731113.99647     -2103.534
 -14838202.038 7  22471631.911 7 -11249430.87946  22471632.63646     -2436.628
 15  1  3  2 53 30.0000000  0  8G05G16G18G21G25G27G29G31
  -5289878.778 5  24476101.065 5  -3993484.36745  24476102.23045     -1113.535
 -10208214.357 6  23348125.753 6  -7293148.09345  23348127.82945      3067.652
  -1800918.640 4  24904188.549 4                                      2989.217
 -18097321.556 7  21459255.331 7 -13932898.18147  21459255.78347      1104.046
  -9618279.737 5  23566673.704 5  -6977037.15845  23566678.26245     -3248.873
   -599209.373 5  25272787.486 5   -191764.21245  25272790.23745      3035.828
 -18579468.953 7  21743140.271 7 -14126337.08447  21743141.20247     -2109.980
 -14764909.050 7  22485579.114 7 -11192319.46246  22485579.46246     -2449.549
 15  1  3  2 54  0.0000000  0  8G05G16G18G21G25G27G29G31
  -5256199.956 5  24482509.942 5  -3967241.12845  24482510.49345     -1131.710
 -10300164.063 6  23330628.303 6  -7364797.18146  23330629.76646      3062.341
  -1890605.204 5  24887121.853 5    -30283.77145  24887125.76745      2989.812
 -18130229.544 7  21452993.147 7 -13958540.74947  21452993.71247      1089.821
  -9520706.789 5  23585241.231 5  -6901006.31245  23585244.52645     -3255.983
   -690257.187 5  25255461.635 5   -262710.48545  25255463.43345      3034.017
 -18516073.162 7  21755204.103 7 -14076937.77047  21755205.00447     -2116.387
 -14691229.864 7  22499599.818 7 -11134907.11846  22499600.37146     -2462.392
 15  1  3  2 54 30.0000000  0  8G05G16G18G21G25G27G29G31
  -5221975.684 5  24489022.586 5  -3940572.84545  24489024.97745     -1149.914
 -10391953.177 6  23313161.412 6  -7436321.13846  23313163.39946      3056.923
  -1980309.899 4  24870051.618 4   -100183.60145  24870052.71145      2990.424
 -18162710.742 7  21446812.158 7 -13983850.76447  21446813.02247      1075.604
  -9422921.212 5  23603849.249 5  -6824809.72745  23603853.38345     -3263.060
   -781250.192 5  25238146.199 5   -333614.05845  25238152.29845      3032.188
 -18452485.351 7  21767304.471 7 -14027388.83047  21767305.44347     -2122.782
 -14617166.769 7  22513693.553 7 -11077195.61346  22513694.15146     -2475.151
 15  1  3  2 55  0.0000000  0  8G05G16G18G21G25G27G29G31
  -5187207.030 5  24495638.853 5  -3913480.36045  24495639.75545     -1168.024
 -10483579.353 6  23295725.527 6  -7507718.15846  23295726.98246      3051.470
  -2070030.208 5  24852978.415 5   -170095.48045  24852981.75845      2990.876
 -18194765.273 7  21440712.370 7 -14008828.30347  21440713.22947      1061.373
  -9324924.310 5  23622497.461 5  -6748448.52745  23622502.88045     -3270.068
   -872187.978 5  25220841.307 5   -404474.69245  25220846.54045      3030.343
 -18388706.692 7  21779441.140 7 -13977691.17147  21779442.17447     -2129.138
 -14542722.522 7  22527859.832 7 -11019187.11646  22527860.09246     -2487.799
 15  1  3  2 55 30.0000000  0  8G05G16G18G21G25G27G29G31
  -5151895.369 5  24502358.453 5  -3885964.77345  24502359.08645     -1186.094
 -10575040.648 6  23278321.016 6  -7578986.67646  23278321.36946      3045.927
  -2159763.347 5  24835902.688 5   -240017.41545  24835906.29245      2991.286
 -18226392.801 7  21434693.862 7 -14033473.11647  21434695.02347      1047.125
  -9226717.435 5  23641185.573 5  -6671923.69045  23641190.17245     -3277.043
   -963070.113 5  25203546.974 5   -475291.88245  25203550.10045      3028.481
 -18324737.715 7  21791614.036 7 -13927845.21847  21791615.10047     -2135.457
 -14467899.784 7  22542098.137 7 -10960883.69246  22542098.70146     -2500.386
 15  1  3  2 56  0.0000000  0  8G05G16G18G21G25G27G29G31
  -5116041.433 5  24509181.306 5  -3858026.65645  24509181.90345     -1204.167
 -10666335.255 6  23260948.242 6  -7650125.32146  23260948.85146      3040.350
  -2249506.929 5  24818825.042 5   -309947.49445  24818833.49345      2991.595
 -18257592.705 7  21428756.714 7 -14057784.71447  21428757.28147      1032.875
  -9128302.027 5  23659913.404 5  -6595236.35845  23659917.41845     -3283.983
  -1053896.190 5  25186263.295 5   -546065.47645  25186266.76845      3026.575
 -18260579.478 7  21803822.946 7 -13877851.79347  21803823.86247     -2141.734
 -14392700.894 7  22556408.003 7 -10902287.16146  22556408.13846     -2512.868
 15  1  3  2 56 30.0000000  0  8G05G16G18G21G25G27G29G31
  -5079645.969 5  24516107.049 5  -3829666.57045  24516109.06945     -1222.199
 -10757461.510 6  23243607.530 6  -7721132.79746  23243608.27746      3034.703
  -2339258.383 4  24801745.809 4   -379883.53344  24801744.06944      2991.825
 -18288365.194 7  21422900.888 7 -14081763.26647  21422901.36747      1018.625
  -9029679.403 5  23678680.689 5  -6518387.55345  23678684.62445     -3290.863
  -1144665.762 5  25168990.376 5   -616794.94945  25168995.25745      3024.699
 -18196233.088 7  21816067.653 7 -13827711.76547  21816068.59247     -2148.026
 -14317128.521 7  22570788.955 7 -10843399.60346  22570789.55846     -2525.280
 15  1  3  2 57  0.0000000  0  8G05G16G18G21G25G27G29G31
  -5042710.125 5  24523135.800 5  -3800885.34845  24523134.07945     -1240.186
 -10848417.012 6  23226299.297 6  -7792007.19046  23226300.65246      3028.974
  -2429015.095 4  24784665.657 4   -449823.97645  24784672.92445      2991.948
 -18318710.106 7  21417126.434 7 -14105408.64047  21417127.05547      1004.370
  -8930851.026 5  23697487.077 5  -6441378.45145  23697492.26945     -3297.685
  -1235378.327 4  25151728.333 4   -687480.06645  25151732.81545      3022.808
 -18131698.584 7  21828348.182 7 -13777425.14547  21828349.38247     -2154.266
 -14241185.247 6  22585240.497 6 -10784223.03246  22585241.08846     -2537.601
 15  1  3  2 57 30.0000000  0  8G05G16G18G21G25G27G29G31
  -5005235.229 5  24530266.944 5  -3771684.12445  24530268.94845     -1258.148
 -10939199.872 6  23209023.876 6  -7862747.07946  23209024.90646      3023.198
  -2518774.946 4  24767585.037 4   -519766.71845  24767593.16945      2992.036
 -18348626.999 7  21411433.422 7 -14128720.48947  21411434.01647       990.099
  -8831818.213 5  23716332.343 5  -6364210.01445  23716336.00445     -3304.489
  -1326033.598 4  25134477.202 4   -758120.49845  25134483.47045      3020.876
 -18066977.486 7  21840664.212 7 -13726993.13847  21840665.33147     -2160.457
 -14164873.912 6  22599762.068 6 -10724759.65346  22599762.79546     -2549.818
 15  1  3  2 58  0.0000000  0  8G05G16G18G21G25G27G29G31
  -4967222.293 5  24537500.576 5  -3742063.61345  24537501.76145     -1276.067
 -11029807.987 6  23191781.694 6  -7933350.79246  23191783.63846      3017.365
  -2608535.287 3  24750504.197 3   -589709.76245  24750502.94445      2991.977
 -18378116.215 7  21405821.796 7 -14151699.09247  21405822.59747       975.858
  -8732582.393 5  23735216.259 5  -6286883.40245  23735221.73145     -3311.235
  -1416631.087 3  25117237.032 3   -828715.94245  25117243.74445      3018.946
 -18002071.025 7  21853015.504 7 -13676416.67347  21853016.58647     -2166.652
 -14088196.967 6  22614353.209 6 -10665011.39946  22614354.01046     -2561.973
 15  1  3  2 58 30.0000000  0  8G05G16G18G21G25G27G29G31
  -4928672.260 5  24544836.334 5  -3712024.66645  24544837.06745     -1293.946
 -11120239.537 6  23174573.123 6  -8003816.93546  23174574.48346      3011.407
  -2698293.188 3  24733423.781 3   -659651.05445  24733424.14545      2991.852
 -18407177.189 7  21400291.666 7 -14174343.99347  21400292.14047       961.544
  -8633144.967 5  23754138.599 5  -6209399.71045  23754142.84145     -3317.937
  -1507170.330 3  25100007.931 3   -899265.99945  25100011.97545      3017.014
 -17936979.048 7  21865402.106 7 -13625695.67246  21865403.03546     -2172.814
 -14011156.898 6  22629013.471 6 -10604980.17946  22629013.71646     -2574.031
 15  1  3  2 59  0.0000000  0  8G05G16G18G21G25G27G29G31
  -4889586.338 5  24552274.107 5  -3681568.06745  24552274.80345     -1311.798
 -11210492.315 6  23157398.568 6  -8074143.75546  23157399.57046      3005.423
  -2788046.486 2  24716344.231 2   -729588.69745  24716344.23545      2991.701
 -18435809.268 7  21394843.123 7 -14196654.68847  21394843.86947       947.249
  -8533507.336 5  23773098.961 5  -6131759.98445  23773102.21045     -3324.590
  -1597651.008 3  25082790.023 3   -969770.38145  25082793.36845      3015.037
 -17871702.789 7  21877823.779 7 -13574831.06746  21877824.86146     -2178.943
 -13933756.459 6  22643742.282 6 -10544668.16246  22643742.26246     -2585.983
 15  1  3  2 59 30.0000000  0  8G05G16G18G21G25G27G29G31
  -4849965.819 5  24559813.586 5  -3650694.92345  24559814.66545     -1329.597
 -11300564.209 6  23140258.432 6  -8144329.64146  23140259.06246      2999.370
  -2877792.446 3  24699266.137 3   -799520.49445  24699269.86845      2991.360
 -18464012.732 7  21389476.169 7 -14218631.40047  21389476.71347       932.962
  -8433670.948 5  23792097.175 5  -6053965.41545  23792102.81045     -3331.152
  -1688072.548 3  25065583.371 3  -1040228.69645  25065586.27245      3013.077
 -17806243.045 7  21890280.368 7 -13523823.47846  21890281.16346     -2185.053
 -13855998.220 6  22658539.161 6 -10484077.32346  22658540.05246     -2597.878
 15  1  3  3  0  0.0000000  0  8G05G16G18G21G25G27G29G31
  -4809811.566 5  24567454.681 5  -3619405.90245  24567454.49845     -1347.378
 -11390453.584 6  23123153.036 6  -8214373.29946  23123155.34646      2993.242
  -2967528.608 3  24682189.931 3   -869444.75645  24682190.06345      2990.969
 -18491787.688 7  21384190.764 7 -14240274.21047  21384191.17347       918.678
  -8333637.146 5  23811132.988 5  -5976017.02345  23811137.47745     -3337.731
  -1778434.647 2  25048388.085 2  -1110640.76245  25048392.31945      3011.059
 -17740600.857 7  21902771.671 7 -13472673.72946  21902772.51746     -2191.105
 -13777884.819 6  22673403.638 6 -10423209.74146  22673404.68046     -2609.633
 15  1  3  3  0 30.0000000  0  7G05G16G21G25G27G29G31
  -4769124.782 5  24575197.118 5  -3587701.90345  24575198.73645     -1365.092
 -11480158.096 6  23106082.836 6  -8284272.90746  23106083.39046      2987.041
 -18519133.949 7  21378986.947 7 -14261582.97247  21378987.70747       904.393
  -8233407.386 5  23830206.091 5  -5897915.89845  23830210.78045     -3344.237
  -1868736.811 2  25031204.117 2  -1181005.96645  25031206.77145      3009.091
 -17674777.132 7  21915297.521 7 -13421382.52246  21915298.46346     -2197.142
 -13699419.445 6  22688335.103 6 -10362067.90746  22688335.39646     -2621.348
 15  1  3  3  1  0.0000000  0  7G05G16G21G25G27G29G31
  -4727906.847 5  24583040.600 5  -3555583.98845  24583041.95145     -1382.775
 -11569676.206 6  23089048.107 6  -8354027.27046  23089048.60146      2980.809
 -18546051.476 7  21373864.711 7 -14282557.65747  21373865.26047       890.107
  -8132983.153 5  23849316.196 5  -5819663.27145  23849319.85045     -3350.689
  -1958978.649 2  25014031.700 2  -1251324.29145  25014036.00245      3007.027
 -17608772.996 7  21927857.712 7 -13369950.73846  21927858.40446     -2203.122
 -13620604.278 6  22703333.138 6 -10300653.50046  22703334.10146     -2632.968
 15  1  3  3  1 30.0000000  0  8G05G16G18G21G25G27G29G31
  -4686159.093 5  24590984.868 5  -3523053.30445  24590985.53645     -1400.420
 -11659005.421 6  23072049.308 6  -8423634.42846  23072050.31746      2974.495
    -50820.386 4  24630980.717 4                                      2989.373
 -18572540.242 7  21368824.047 7 -14303198.23847  21368824.97347       875.816
  -8032365.801 5  23868463.055 5  -5741260.13545  23868468.60745     -3357.107
  -2049159.679 2  24996870.907 2  -1321595.16645  24996875.41045      3005.036
 -17542588.718 7  21940452.182 7 -13318378.57546  21940453.06846     -2209.130
 -13541442.133 6  22718397.196 6 -10238968.72246  22718397.60046     -2644.492
 15  1  3  3  2  0.0000000  0  8G05G16G18G21G25G27G29G31
  -4643882.644 5  24599029.796 5  -3490110.60345  24599030.19545     -1418.027
 -11748143.860 6  23055086.812 6  -8493092.94246  23055088.45846      2968.082
   -140491.797 5  24613915.217 5                                      2988.697
 -18598600.585 7  21363864.909 7 -14323504.98647  21363865.50647       861.536
  -7931556.849 5  23887646.376 5  -5662707.74445  23887650.91445     -3363.496
  -2139279.552 2  24979721.697 2  -1391818.44945  24979727.06845      3002.935
 -17476225.281 7  21953080.720 7 -13266666.82146  21953082.00146     -2215.087
 -13461935.825 6  22733526.737 6 -10177015.75946  22733527.45946     -2655.948
 15  1  3  3  2 30.0000000  0  8G05G16G18G21G25G27G29G31
  -4601078.459 5  24607175.146 5  -3456756.71245  24607175.02745     -1435.590
 -11837089.392 6  23038161.039 6  -8562401.14546  23038161.74046      2961.607
   -230140.454 5  24596855.113 5    -58210.37645  24596853.01145      2987.862
 -18624231.783 7  21358987.440 7 -14343477.33647  21358988.03447       847.231
  -7830557.645 5  23906865.926 5  -5584007.07145  23906868.90845     -3369.791
    -63031.740 2  24962584.265 2  -1461993.64545  24962586.03345      3000.943
 -17409683.465 7  21965743.225 7 -13214816.06246  21965744.06346     -2221.022
 -13382088.050 6  22748721.280 6 -10114796.72146  22748721.86346     -2667.257
 15  1  3  3  3  0.0000000  0  8G05G16G18G21G25G27G29G31
  -4557748.372 4  24615420.583 4  -3422993.03245  24615420.17845     -1453.116
 -11925839.685 6  23021272.422 6  -8631557.21146  23021273.61046      2955.079
   -319763.850 5  24579800.052 5   -128046.79245  24579802.20945      2986.956
 -18649433.952 7  21354191.618 7 -14363115.38547  21354192.43247       832.920
  -7729369.714 5  23926121.370 5  -5505159.35145  23926126.85645     -3376.075
   -153027.855 3  24945458.514 3  -1532120.42745  24945463.02145      2998.861
 -17342964.107 7  21978439.505 7 -13162826.96546  21978440.62146     -2226.913
 -13301901.374 6  22763980.295 6 -10052313.60946  22763980.66146     -2678.504
 15  1  3  3  3 30.0000000  0  8G05G16G18G21G25G27G29G31
  -4513893.423 4  24623765.859 4  -3388820.33845  24623766.89945     -1470.573
 -12014393.236 6  23004421.219 6  -8700559.96446  23004422.48146      2948.478
   -409359.185 5  24562750.416 5   -197861.28545  24562751.89745      2986.008
 -18674207.044 7  21349477.448 7 -14382419.08047  21349478.34647       818.611
  -7627994.483 5  23945412.465 5  -5426165.65545  23945417.40045     -3382.273
   -242961.382 3  24928344.663 3  -1602198.42945  24928346.17545      2996.712
 -17276068.496 7  21991169.319 7 -13110700.53646  21991169.98546     -2232.797
 -13221378.516 6  22779303.280 6  -9989568.53646  22779303.76146     -2689.673
 15  1  3  3  4  0.0000000  0  8G05G16G18G21G25G27G29G31
  -4469514.904 4  24632210.850 4  -3354239.65545  24632210.50345     -1488.007
 -12102747.537 6  22987607.949 6  -8769407.45446  22987608.76646      2941.799
   -498924.454 5  24545706.507 5   -267652.43145  24545707.69745      2984.990
 -18698551.303 7  21344844.877 7 -14401388.61347  21344845.28547       804.325
  -7526433.450 5  23964738.936 5  -5347027.21045  23964742.23145     -3388.465
   -332832.012 3  24911242.808 3  -1672227.41345  24911248.16745      2994.705
 -17208996.584 7  22003932.701 7 -13058436.71746  22003933.61346     -2238.647
 -13140522.326 6  22794689.715 6  -9926563.73046  22794690.23746     -2700.746
 15  1  3  3  4 30.0000000  0  8G05G16G18G21G25G27G29G31
  -4424614.381 4  24640755.149 4  -3319252.22745  24640755.75745     -1505.363
 -12190900.815 6  22970832.925 6  -8838098.32946  22970833.41746      2935.087
   -588457.122 5  24528668.875 5   -337418.09045  24528670.34545      2983.875
 -18722466.671 7  21340293.912 7 -14420023.95547  21340294.53747       790.020
  -7424687.973 5  23984100.471 5  -5267745.00145  23984104.90645     -3394.592
   -422639.312 3  24894152.937 3  -1742207.14245  24894155.40245      2992.464
 -17141749.731 7  22016729.366 7 -13006036.58446  22016730.15046     -2244.476
 -13059335.558 6  22810139.062 6  -9863301.31846  22810139.61346     -2711.706
 15  1  3  3  5  0.0000000  0  8G05G16G18G21G25G27G29G31
  -4379192.958 4  24649398.557 4  -3283858.93845  24649399.51145     -1522.748
 -12278850.932 6  22954096.561 6  -8906630.86646  22954097.36846      2928.264
   -677954.071 5  24511638.082 5   -407155.95245  24511638.87745      2982.601
 -18745953.213 7  21335824.575 7 -14438325.14647  21335825.35447       775.731
  -7322759.590 5  24003496.805 5  -5188320.30745  24003501.03845     -3400.655
   -512382.721 3  24877075.292 3  -1812137.03545  24877080.63945      2990.376
 -17074328.470 7  22029559.208 7 -12953500.53846  22029559.98046     -2250.272
 -12977820.707 6  22825650.868 6  -9799783.25846  22825651.25946     -2722.597
 15  1  3  3  5 30.0000000  0  8G05G16G18G21G25G27G29G31
  -4333252.060 4  24658140.838 4  -3248060.85545  24658140.41445     -1540.014
 -12366595.779 6  22937399.266 6  -8975003.46546  22937399.71546      2921.387
   -767412.873 5  24494614.546 5   -476864.13245  24494618.23545      2981.302
 -18769011.156 7  21331436.784 7 -14456292.35847  21331437.62647       761.472
  -7220649.771 5  24022927.668 5  -5108754.22545  24022932.27545     -3406.649
   -602061.885 4  24860009.908 4  -1882016.90645  24860014.66845      2988.243
 -17006733.638 7  22042422.086 7 -12900829.25246  22042423.00446     -2256.060
 -12895980.609 6  22841224.531 6  -9736011.77246  22841225.26346     -2733.397
 15  1  3  3  6  0.0000000  0  8G05G16G18G21G25G27G29G31
  -4286793.089 5  24666981.714 5  -3211859.10045  24666984.03145     -1557.273
 -12454133.360 6  22920741.395 6  -9043214.56946  22920742.07846      2914.423
   -856830.939 5  24477598.764 5   -546540.53345  24477598.99445      2979.909
 -18791640.450 7  21327130.579 7 -14473925.57047  21327131.14247       747.154
  -7118359.972 5  24042392.798 5  -5029047.91745  24042398.70245     -3412.647
   -691676.438 4  24842956.742 4  -1951846.38445  24842960.34445      2986.054
 -16938965.950 7  22055317.859 7 -12848023.29546  22055318.22346     -2261.792
 -12813818.265 6  22856859.523 6  -9671989.17346  22856860.06446     -2744.094
 15  1  3  3  6 30.0000000  0  8G05G16G18G21G25G27G29G31
  -4239817.526 4  24675921.031 4  -3175254.69045  24675920.91145     -1574.447
 -12541461.112 6  22904123.490 6  -9111262.16746  22904124.01746      2907.404
   -946205.904 5  24460591.237 5   -616183.31944  24460592.89644      2978.414
 -18813840.730 7  21322905.992 7 -14491224.47747  21322906.46347       732.872
  -7015891.692 5  24061891.859 5  -4949202.45645  24061895.97345     -3418.574
   -781225.852 4  24825916.049 4  -2021625.14745  24825919.72545      2983.895
 -16871026.725 7  22068246.253 7 -12795083.64146  22068247.48246     -2267.498
 -12731336.430 6  22872555.294 6  -9607717.61946  22872555.49046     -2754.692
 15  1  3  3  7  0.0000000  0  8G05G16G18G21G25G27G29G31
  -4192326.823 4  24684958.110 4  -3138249.03645  24684958.07645     -1591.609
 -12628577.188 6  22887545.833 6  -9179144.80346  22887546.78246      2900.324
  -1035535.095 5  24443592.398 5   -685790.54745  24443591.52145      2976.860
 -18835612.427 7  21318762.979 7 -14508189.43147  21318763.69347       718.579
  -6913246.433 5  24081424.575 5  -4869219.15145  24081427.81545     -3424.443
   -870709.721 5  24808887.824 5  -2091352.80845  24808889.91745      2981.727
 -16802916.162 7  22081207.234 7 -12742010.48346  22081208.29946     -2273.205
 -12648537.736 6  22888311.373 6  -9543199.17446  22888311.40246     -2765.202
 15  1  3  3  7 30.0000000  0  8G05G16G18G21G25G27G29G31
  -4144322.513 4  24694092.987 4  -3100843.01945  24694090.30245     -1608.685
 -12715479.984 6  22871008.784 6  -9246861.26946  22871009.69046      2893.172
  -1124815.840 4  24426602.839 4   -755359.99445  24426605.88345      2975.153
 -18856955.788 7  21314701.478 7 -14524820.61247  21314702.12147       704.302
  -6810425.628 5  24100990.693 5  -4789099.07045  24100996.39145     -3430.263
   -960127.596 5  24791872.174 5  -2161029.04445  24791875.44245      2979.485
 -16734635.150 7  22094200.683 7 -12688804.52346  22094201.86346     -2278.856
 -12565425.091 6  22904127.185 6  -9478436.07446  22904128.09046     -2775.626
 15  1  3  3  8  0.0000000  0  8G05G16G18G21G25G27G29G31
  -4095806.045 3  24703325.257 3  -3063038.03845  24703325.05745     -1625.743
 -12802166.811 6  22854512.851 6  -9314409.45246  22854512.76446      2885.931
  -1214045.516 4  24409622.883 4   -824889.48443  24409630.98643      2973.469
 -18877870.792 7  21310721.480 7 -14541118.00547  21310721.91547       690.021
  -6707430.778 5  24120589.947 5  -4708843.31745  24120596.49345     -3436.048
  -1049479.011 5  24774869.148 5  -2230653.52645  24774871.44545      2977.274
 -16666184.611 7  22107226.378 7 -12635466.45546  22107227.13146     -2284.509
 -12482001.063 6  22920002.252 6  -9413430.35246  22920002.65446     -2785.955
 15  1  3  3  8 30.0000000  0  8G05G16G18G21G25G27G29G31
  -4046779.030 4  24712654.848 4  -3024835.14045  24712655.86745     -1642.731
 -12888635.686 6  22838058.356 6  -9381787.78046  22838059.58846      2878.632
  -1303221.458 4  24392653.195 4   -894377.38845  24392653.62545      2971.573
 -18898357.464 7  21306822.982 7 -14557081.64047  21306823.49647       675.750
  -6604263.464 5  24140221.991 5  -4628453.20345  24140225.48045     -3441.765
  -1138763.581 5  24757878.838 5  -2300225.87245  24757883.03245      2975.032
 -16597565.097 7  22120284.231 7 -12581996.71546  22120285.20346     -2290.138
 -12398268.539 6  22935936.022 6  -9348184.24346  22935936.83146     -2796.212
 15  1  3  3  9  0.0000000  0  8G05G16G18G21G25G27G29G31
  -3997243.063 4  24722081.199 4  -2986235.65645  24722080.20745     -1659.674
 -12974884.438 6  22821645.751 6  -9448994.60046  22821645.72046      2871.263
  -1392340.947 4  24375694.293 4   -963821.11444  24375692.20844      2969.682
 -18918415.893 7  21303005.984 7 -14572711.57447  21303006.42647       661.481
  -6500925.113 5  24159886.621 5  -4547929.86045  24159890.85045     -3447.437
  -1227980.807 5  24740901.369 5  -2369745.78545  24740903.34945      2972.798
 -16528777.689 7  22133374.040 7 -12528396.15846  22133374.68446     -2295.693
 -12314229.974 6  22951928.024 6  -9282699.65546  22951927.94946     -2806.355
 15  1  3  3  9 30.0000000  0  8G05G16G18G21G25G27G29G31
  -3947199.100 4  24731604.357 4  -2947240.34045  24731602.22445     -1676.569
 -13060911.150 6  22805275.387 6  -9516028.36846  22805276.39146      2863.830
  -1481401.602 3  24358746.507 3  -1033218.98445  24358746.50645      2967.707
 -18938046.502 7  21299270.388 7 -14588008.14647  21299271.16847       647.223
  -6397417.288 5  24179583.506 5  -4467274.36345  24179584.98245     -3453.072
  -1317130.344 5  24723936.765 5  -2439212.95345  24723941.12245      2970.503
 -16459823.296 7  22146495.627 7 -12474665.47446  22146497.31446     -2301.267
 -12229888.678 6  22967977.634 6  -9216979.18146  22967977.82646     -2816.391
 15  1  3  3 10  0.0000000  0  8G05G16G18G21G25G27G29G31
  -3896649.162 3  24741223.514 3  -2907850.76445  24741224.83045     -1693.389
 -13146713.592 6  22788947.704 6  -9582887.40346  22788948.76146      2856.312
  -1570401.125 4  24341810.461 4  -1102569.18345  24341810.97045      2965.609
 -18957249.470 7  21295616.175 7 -14602971.48747  21295617.04347       632.987
  -6293741.452 5  24199312.366 5  -4386488.01745  24199318.41145     -3458.665
  -1406211.678 5  24706985.141 5  -2508626.96145  24706990.40345      2968.256
 -16390702.049 7  22159648.977 7 -12420804.78946  22159650.02046     -2306.813
 -12145247.463 6  22984084.327 6  -9151024.99546  22984084.96546     -2826.340
 15  1  3  3 10 30.0000000  0  8G05G16G18G21G25G27G29G31
  -3845594.956 4  24750938.774 4  -2868068.26945  24750937.12445     -1710.196
 -13232289.407 6  22772663.139 6  -9649569.84946  22772664.62746      2848.729
  -1659336.554 5  24324886.612 5  -1171869.55845  24324888.53145      2963.464
 -18976024.793 7  21292043.339 7 -14617601.60147  21292043.49347       618.705
  -6189899.211 5  24219072.881 5  -4305571.91245  24219078.58745     -3464.171
  -1495224.363 5  24690046.508 5  -2577987.48545  24690050.47645      2965.913
 -16321415.030 7  22172833.854 7 -12366814.92246  22172834.90346     -2312.332
 -12060308.859 6  23000247.607 6  -9084839.07046  23000247.73646     -2836.207
 15  1  3  3 11  0.0000000  0  8G05G16G18G21G25G27G29G31
  -3794037.812 4  24760749.767 4  -2827893.89645  24760748.02445     -1726.950
 -13317636.814 6  22756422.057 6  -9716074.32846  22756422.80846      2841.088
  -1748205.316 5  24307975.437 5  -1241117.89245  24307977.94145      2961.127
 -18994372.294 7  21288551.911 7 -14631898.35047  21288552.24647       604.460
  -6085891.995 5  24238864.803 5  -4224527.40245  24238868.96345     -3469.658
  -1584167.967 5  24673121.071 5  -2647294.13545  24673125.35445      2963.612
 -16251962.894 7  22186050.157 7 -12312696.39946  22186051.27646     -2317.810
 -11975075.770 6  23016466.929 6  -9018423.69846  23016467.92046     -2845.985
 15  1  3  3 11 30.0000000  0  8G05G16G18G21G25G27G29G31
  -3741979.495 4  24770656.105 4  -2787328.96045  24770655.47445     -1743.611
 -13402753.469 6  22740224.888 6  -9782398.98846  22740225.22946      2833.362
  -1837004.782 5  24291077.475 5  -1310312.25845  24291080.03445      2958.784
 -19012292.814 7  21285141.742 7 -14645862.39147  21285142.05447       590.227
  -5981721.356 5  24258687.836 5  -4143355.51145  24258693.83945     -3475.078
  -1673042.033 5  24656208.888 5  -2716546.72345  24656215.14245      2961.335
 -16182346.464 7  22199297.734 7 -12258449.84446  22199298.73546     -2323.289
 -11889551.229 6  23032741.679 6  -8951781.21046  23032741.34046     -2855.642
 15  1  3  3 12  0.0000000  0  8G05G16G18G21G25G27G29G31
  -3689421.544 4  24780657.551 4  -2746374.69345  24780656.51545     -1760.252
 -13487637.145 6  22724072.054 6  -9848542.09646  22724072.97246      2825.548
  -1925732.356 5  24274193.182 5  -1379450.64145  24274195.38945      2956.369
 -19029786.450 7  21281812.807 7 -14659493.78647  21281813.00547       576.007
  -5877388.841 5  24278541.674 5  -4062057.43245  24278545.50645     -3480.440
  -1761846.155 5  24639309.970 5  -2785744.67045  24639315.05745      2958.955
 -16112566.443 7  22212576.450 7 -12204075.81646  22212577.05446     -2328.726
 -11803737.864 6  23049071.454 6  -8884913.66346  23049071.49046     -2865.230
 15  1  3  3 12 30.0000000  0  8G05G16G18G21G25G27G29G31
  -3636365.608 5  24790753.832 5  -2705032.44745  24790754.37345     -1776.829
 -13572285.758 6  22707963.952 6  -9914502.05346  22707964.36446      2817.686
  -2014385.543 5  24257323.036 5  -1448531.01045  24257324.35645      2953.823
 -19046853.150 7  21278565.125 7 -14672792.50847  21278565.27347       561.779
  -5772895.964 5  24298426.020 5  -3980634.42045  24298430.53845     -3485.716
  -1850579.875 5  24622424.506 5  -2854887.89645  24622427.95745      2956.623
 -16042623.820 6  22225886.103 6 -12149575.10846  22225886.91346     -2334.119
 -11717638.338 6  23065455.669 6  -8817823.13246  23065455.97146     -2874.713
 15  1  3  3 13  0.0000000  0  8G05G16G18G21G25G27G29G31
  -3582813.167 5  24800944.502 5  -2663303.25845  24800946.34445     -1793.329
 -13656697.486 6  22691900.924 6  -9980277.41546  22691901.52446      2809.743
  -2102961.625 5  24240467.606 5  -1517551.29845  24240469.99545      2951.220
 -19063493.367 7  21275398.572 7 -14685758.90547  21275398.80247       547.562
  -5668244.270 5  24318340.559 5  -3899087.64245  24318343.50545     -3491.042
  -1939242.656 4  24605552.500 4  -2923975.75545  24605553.18245      2954.241
 -15972519.146 7  22239226.597 7 -12094948.09546  22239227.00046     -2339.513
 -11631255.906 6  23081893.704 6  -8750512.16546  23081893.58646     -2884.101
 15  1  3  3 13 30.0000000  0  8G05G16G18G21G25G27G29G31
  -3528765.776 5  24811229.402 5  -2621188.39945  24811231.41245     -1809.801
 -13740869.659 6  22675883.490 6 -10045866.11246  22675883.84246      2801.727
  -2191457.880 5  24223627.327 5  -1586509.41345  24223629.85745      2948.519
 -19079707.476 7  21272313.137 7 -14698393.26747  21272314.00947       533.364
  -5563435.340 5  24338285.059 5  -3817418.35145  24338288.87045     -3496.241
  -2027834.117 4  24588694.082 4  -2993007.99945  24588698.68545      2951.855
 -15902252.837 7  22252597.858 7 -12040195.14846  22252597.51246     -2344.898
 -11544593.290 6  23098385.036 6  -8682982.86146  23098384.94446     -2893.393
 15  1  3  3 14  0.0000000  0  8G05G16G18G21G25G27G29G31
  -3474225.907 4  24821607.992 4  -2578689.80445  24821609.09545     -1826.186
 -13824800.404 6  22659911.987 6 -10111266.67846  22659912.78146      2793.638
  -2279871.615 5  24206802.797 5  -1655403.23445  24206803.49045      2945.729
 -19095495.443 7  21269308.791 7 -14710695.57347  21269309.08247       519.176
  -5458470.631 5  24358259.209 5  -3735627.66945  24358264.47745     -3501.402
  -2116353.850 4  24571849.340 4  -3061984.38745  24571850.65045      2949.447
 -15831825.730 7  22265999.740 7 -11985316.89646  22266000.69046     -2350.231
 -11457653.149 6  23114929.198 6  -8615237.30846  23114929.06846     -2902.596
 15  1  3  3 14 30.0000000  0  8G05G16G18G21G25G27G29G31
  -3419195.072 5  24832079.974 5  -2535808.60345  24832082.40345     -1842.525
 -13908487.280 6  22643986.903 6 -10176477.22346  22643987.97146      2785.477
  -2368200.687 5  24189994.339 5  -1724231.07045  24189996.09545      2942.859
 -19110857.788 7  21266385.428 7 -14722666.22647  21266385.86647       504.974
  -5353351.773 5  24378262.710 5  -3653716.88345  24378266.37245     -3506.521
  -2204801.318 4  24555018.310 4  -3130904.50145  24555026.33845      2947.039
 -15761238.751 6  22279432.022 6 -11930314.08346  22279432.78646     -2355.558
 -11370438.436 6  23131525.601 6  -8547277.79446  23131526.38346     -2911.706
 15  1  3  3 15  0.0000000  0  8G05G16G18G21G25G27G29G31
  -3363674.547 5  24842645.211 5  -2492545.86345  24842644.14445     -1858.837
 -13991928.764 6  22628108.525 6 -10241496.54646  22628109.24946      2777.252
  -2456442.177 5  24173202.538 5  -1792990.61545  24173202.73445      2939.891
 -19125794.712 7  21263543.024 7 -14734305.37447  21263543.50347       490.812
  -5248080.294 4  24398295.193 4  -3571687.18445  24398297.97345     -3511.573
  -2293176.126 4  24538201.130 4  -3199767.99545  24538206.05745      2944.604
 -15690492.683 6  22292894.580 6 -11875187.28646  22292895.47246     -2360.846
 -11282951.877 6  23148173.754 6  -8479106.47446  23148173.99146     -2920.712
 15  1  3  3 15 30.0000000  0  8G05G16G18G21G25G27G29G31
  -3307666.091 5  24853303.247 5  -2448902.92045  24853306.82945     -1875.071
 -14075121.949 6  22612277.387 6 -10306322.40846  22612278.62146      2768.941
  -2544593.480 5  24156427.842 5  -1861679.92045  24156429.69745      2936.850
 -19140306.732 7  21260781.481 7 -14745613.44147  21260782.02847       476.639
  -5142657.740 5  24418356.463 5  -3489539.71845  24418360.65645     -3516.586
  -2381477.787 4  24521397.860 4  -3268574.45045  24521401.22445      2942.176
 -15619588.153 6  22306387.294 6 -11819937.04146  22306388.02546     -2366.114
 -11195196.481 6  23164873.086 6  -8410725.67046  23164874.35646     -2929.628
 15  1  3  3 16  0.0000000  0  8G05G16G18G21G25G27G29G31
  -3251171.673 5  24864053.879 5  -2404881.28445  24864056.72045     -1891.246
 -14158064.806 6  22596493.878 6 -10370953.19846  22596495.18346      2760.560
  -2632651.957 5  24139670.828 5  -1930296.88545  24139672.06545      2933.728
 -19154393.460 7  21258100.878 7 -14756590.10447  21258101.27647       462.475
  -5037085.705 4  24438446.106 4  -3407275.83045  24438449.60245     -3521.550
  -2469705.809 4  24504608.570 4  -3337323.50545  24504612.00445      2939.700
 -15548525.865 7  22319910.011 7 -11764563.82746  22319910.89746     -2371.373
 -11107175.284 6  23181622.947 6  -8342137.73546  23181622.93146     -2938.432
 15  1  3  3 16 30.0000000  0  8G05G16G18G21G25G27G29G31
  -3194193.310 5  24874896.452 5  -2360482.56345  24874896.43645     -1907.325
 -14240755.176 6  22580758.418 6 -10435387.24946  22580759.61746      2752.109
  -2720614.978 5  24122932.034 5  -1998839.48245  24122933.51945      2930.491
 -19168056.207 7  21255500.945 7 -14767236.39847  21255501.41947       448.356
  -4931365.734 4  24458563.999 4  -3324896.63045  24458571.14245     -3526.447
  -2557859.815 3  24487833.393 3  -3406014.93445  24487839.98145      2937.230
 -15477306.249 7  22333462.673 7 -11709068.04546  22333463.35446     -2376.609
 -11018891.320 6  23198422.823 6  -8273345.04346  23198422.97846     -2947.162
 15  1  3  3 17  0.0000000  0  8G05G16G18G21G25G27G29G31
  -3136732.963 5  24885830.803 5  -2315708.26645  24885829.49945     -1923.376
 -14323190.915 6  22565071.406 6 -10499622.88046  22565071.99746      2743.584
  -2808479.725 5  24106211.897 5  -2067305.47945  24106213.00745      2927.178
 -19181294.951 7  21252981.689 7 -14777552.29647  21252982.10947       434.221
  -4825499.399 3  24478709.668 3  -3242403.41745  24478714.51845     -3531.257
  -2645939.269 3  24471072.398 3  -3474648.24445  24471077.36045      2934.762
 -15405930.289 7  22347045.066 7 -11653450.42646  22347045.78946     -2381.787
 -10930346.710 6  23215272.312 6  -8204349.25846  23215273.23546     -2955.790
 15  1  3  3 17 30.0000000  0  8G05G16G18G21G25G27G29G31
  -3078791.920 5  24896856.612 5  -2270559.30845  24896858.16745     -1939.373
 -14405369.846 6  22549433.261 6 -10563658.41546  22549434.02046      2735.007
  -2896243.764 5  24089510.912 5  -2135693.04545  24089511.40045      2923.770
 -19194109.800 7  21250543.099 7 -14787537.88847  21250543.50847       420.101
  -4719488.315 3  24498882.901 3  -3159797.36245  24498887.30945     -3536.113
  -2733943.749 3  24454325.716 3  -3543223.13545  24454328.95445      2932.228
 -15334398.586 6  22360657.109 6 -11597711.46046  22360658.08746     -2386.983
 -10841544.915 6  23232170.729 6  -8135153.06046  23232171.72146     -2964.315
 15  1  3  3 18  0.0000000  0  8G05G16G18G21G25G27G29G31
  -3020372.057 5  24907973.552 5  -2225037.35845  24907973.79445     -1955.298
 -14487290.358 6  22533844.302 6 -10627492.56846  22533844.85046      2726.333
  -2983904.360 5  24072829.611 5  -2203999.98545  24072832.47145      2920.270
 -19206501.767 7  21248184.995 7 -14797193.96147  21248185.42647       406.001
  -4613334.026 4  24519083.369 4  -3077079.75045  24519088.24545     -3540.830
  -2821872.786 4  24437593.388 4  -3611739.25345  24437598.45545      2929.713
 -15262712.018 6  22374298.614 6 -11541851.82146  22374299.82146     -2392.144
 -10752488.750 6  23249117.574 6  -8065758.66746  23249118.82046     -2972.735
 15  1  3  3 18 30.0000000  0  8G05G16G18G21G25G27G29G31
  -2961475.118 5  24919181.268 5  -2179143.63245  24919182.75745     -1971.139
 -14568949.391 6  22518305.109 6 -10691122.98246  22518305.94246      2717.582
  -3071459.224 5  24056168.477 5  -2272224.53845  24056169.36545      2916.730
 -19218470.452 7  21245907.420 7 -14806520.20147  21245907.71747       391.911
  -4507038.077 4  24539310.770 4  -2994251.76745  24539321.11345     -3545.542
  -2909725.886 4  24420875.439 4  -3680196.21545  24420880.03345      2927.162
 -15190870.917 6  22387969.518 6 -11485871.76846  22387970.23246     -2397.273
 -10663181.059 6  23266112.268 6  -7996168.27846  23266112.47746     -2981.087
 15  1  3  3 19  0.0000000  0  8G05G16G18G21G25G27G29G31
  -2902103.359 5  24930479.360 5  -2132879.90145  24930475.21645     -1986.953
 -14650345.033 6  22502816.030 6 -10754548.16146  22502816.47946      2708.785
  -3158905.418 5  24039527.926 5  -2340364.45245  24039529.34645      2913.028
 -19230016.496 7  21243710.271 7 -14815517.11947  21243710.46347       377.811
  -4400602.134 4  24559564.807 4  -2911314.62345  24559570.42845     -3550.183
  -2997502.608 4  24404172.095 4  -3748593.61845  24404178.32645      2924.594
 -15118876.076 6  22401669.702 6 -11429771.90646  22401671.07146     -2402.367
 -10573624.507 6  23283154.315 6  -7926383.94146  23283154.54046     -2989.333
 15  1  3  3 19 30.0000000  0  8G05G16G18G21G25G27G29G31
  -2842258.597 5  24941867.467 5  -2086247.60245  24941867.43445     -2002.714
 -14731475.196 6  22487377.478 6 -10817766.46646  22487377.80346      2699.891
  -3246240.536 5  24022908.639 5  -2408417.82645  24022910.11145      2909.292
 -19241140.270 7  21241593.489 7 -14824184.98947  21241594.17447       363.748
  -4294027.707 4  24579845.329 4  -2828269.62545  24579847.06445     -3554.761
  -3085202.522 4  24387483.365 4  -3816931.20745  24387488.66245      2922.044
 -15046728.522 6  22415398.958 6 -11373553.06146  22415400.00046     -2407.453
 -10483822.363 6  23300243.096 6  -7856408.28546  23300244.33646     -2997.466
 15  1  3  3 20  0.0000000  0  8G05G16G18G21G25G27G29G31
  -2781942.415 5  24953345.259 5  -2039247.97845  24953345.67445     -2018.373
 -14812337.330 6  22471989.913 6 -10880775.90646  22471990.38146      2690.909
  -3333461.724 5  24006311.006 5  -2476382.32845  24006312.75645      2905.450
 -19251842.212 7  21239556.968 7 -14832524.15947  21239557.35247       349.718
  -4187316.509 5  24600151.857 5  -2745117.99545  24600156.38945     -3559.306
  -3172825.059 4  24370809.340 4  -3885208.48045  24370813.92845      2919.466
 -14974428.749 6  22429157.154 6 -11317215.59346  22429158.04846     -2412.531
 -10393777.299 6  23317378.159 6  -7786243.30546  23317379.04746     -3005.519
 15  1  3  3 20 30.0000000  0  8G05G16G18G21G25G27G29G31
  -2721157.046 5  24964912.307 5  -1991882.75745  24964910.40545     -2033.994
 -14892929.381 6  22456653.753 6 -10943574.89446  22456654.37146      2681.872
  -3420566.468 5  23989735.527 5  -2544256.14745  23989736.62345      2901.520
 -19262123.466 7  21237600.506 7 -14840535.52547  21237601.03647       335.702
  -4080470.005 5  24620484.121 5  -2661860.96445  24620487.65545     -3563.815
  -3260369.805 3  24354150.067 3  -3953425.12345  24354156.16545      2916.861
 -14901977.157 6  22442944.264 6 -11260759.81746  22442945.19046     -2417.578
 -10303492.384 6  23334558.840 6  -7715891.42846  23334560.58246     -3013.473
 15  1  3  3 21  0.0000000  0  8G05G16G18G21G25G27G29G31
  -2659904.092 5  24976568.355 5  -1944153.19945  24976570.96845     -2049.526
 -14973249.015 6  22441369.437 6 -11006161.63046  22441370.30746      2672.753
  -3507551.875 5  23973182.801 5  -2612036.99245  23973185.72045      2897.500
 -19271983.745 7  21235724.149 7 -14848218.85547  21235724.60247       321.655
  -3973489.848 5  24640841.774 5  -2578499.83445  24640846.94045     -3568.220
  -3347836.334 4  24337505.776 4  -4021580.81445  24337507.49745      2914.224
 -14829374.549 6  22456760.098 6 -11204186.37946  22456761.43246     -2422.596
 -10212970.323 6  23351784.629 6  -7645354.77646  23351785.48346     -3021.327
 15  1  3  3 21 30.0000000  0  8G05G16G18G21G25G27G29G31
  -2598186.043 5  24988312.913 5  -1896061.12945  24988313.05245     -2065.021
 -15053294.579 6  22426137.276 6 -11068534.77746  22426138.68946      2663.588
  -3594415.801 5  23956653.132 5  -2679723.13045  23956654.51945      2893.399
 -19281423.241 7  21233927.877 7 -14855574.29947  21233928.46947       307.647
  -3866377.690 5  24661224.527 5  -2495035.77845  24661229.59645     -3572.583
  -3435224.069 5  24320876.457 5  -4089675.17145  24320880.89245      2911.603
 -14756621.628 6  22470604.542 6 -11147495.79846  22470605.52646     -2427.604
 -10122214.126 6  23369054.956 6  -7574635.68346  23369055.04146     -3029.071
 15  1  3  3 22  0.0000000  0  8G05G16G18G21G25G27G29G31
  -2536004.487 5  25000145.671 5  -1847607.99145  25000145.94245     -2080.411
 -15133063.779 6  22410957.685 6 -11130692.60046  22410958.47546      2654.323
  -3681155.312 5  23940147.174 5  -2747312.41545  23940149.23645      2889.200
 -19290442.921 7  21232211.492 7 -14862602.62247  21232212.14747       293.656
  -3759135.073 5  24681632.150 5  -2411470.14345  24681636.36945     -3576.914
  -3522532.560 5  24304262.238 5  -4157707.74045  24304266.73645      2908.967
 -14683719.137 6  22484477.450 6 -11090688.68946  22484478.34546     -2432.570
 -10031227.043 6  23386369.228 6  -7503736.65546  23386369.76046     -3036.718
 15  1  3  3 22 30.0000000  0  8G05G16G18G21G25G27G29G31
  -2473361.426 5  25012066.240 5  -1798795.21045  25012067.95145     -2095.772
 -15212553.499 6  22395831.280 6 -11192632.63646  22395831.87746      2644.985
  -3767767.673 5  23923665.401 5  -2814802.55545  23923668.31345      2884.940
 -19299042.939 7  21230574.958 7 -14869303.92747  21230575.24747       279.677
  -3651763.602 5  24702064.319 5  -2327804.01545  24702069.05645     -3581.174
  -3609761.379 5  24287663.099 5  -4225678.20045  24287666.77845      2906.306
 -14610667.515 6  22498378.717 6 -11033765.36046  22498379.78246     -2437.531
  -9940011.396 6  23403726.987 6  -7432659.54646  23403728.08646     -3044.294
 15  1  3  3 23  0.0000000  0  8G05G16G18G21G25G27G29G31
  -2410259.053 5  25024074.187 5  -1749624.58245  25024075.97745     -2111.048
 -15291762.024 6  22380758.408 6 -11254353.55846  22380758.87446      2635.569
  -3854250.571 5  23907208.237 5  -2882191.83145  23907208.33045      2880.583
 -19307224.081 7  21229018.130 7 -14875678.84447  21229018.85147       265.724
  -3544264.927 5  24722520.624 5  -2244038.83745  24722525.16645     -3585.395
  -3696910.021 5  24271079.241 5  -4293586.23845  24271080.84445      2903.603
 -14537467.599 6  22512308.198 6 -10976726.47546  22512309.42046     -2442.464
  -9848570.302 6  23421127.682 6  -7361406.76646  23421129.06946     -3051.766
 15  1  3  3 23 30.0000000  0  8G05G16G18G21G25G27G29G31
  -2346698.871 4  25036169.241 4  -1700097.15445  25036171.32845     -2126.276
 -15370687.283 6  22365739.424 6 -11315853.75746  22365740.43046      2626.085
  -3940601.244 5  23890776.222 5  -2949478.04345  23890778.64645      2876.161
 -19314986.853 7  21227540.916 7 -14881727.75247  21227541.37047       251.782
  -3436640.682 4  24743000.823 4  -2160175.74945  24743003.28945     -3589.516
  -3783977.970 5  24254510.756 5  -4361431.34345  24254513.33545      2900.901
 -14464119.931 6  22526265.812 6 -10919572.46546  22526267.25846     -2447.389
  -9756906.630 6  23438570.722 6  -7289980.54146  23438571.07746     -3059.131
 15  1  3  3 24  0.0000000  0  8G05G16G18G21G25G27G29G31
  -2282683.334 5  25048351.016 5  -1650214.91945  25048353.14545     -2141.408
 -15449327.082 6  22350774.765 6 -11377131.51446  22350775.32346      2616.553
  -4026816.833 5  23874369.936 5  -3016659.02345  23874372.80145      2871.584
 -19322331.656 7  21226143.242 7 -14887450.97147  21226143.74247       237.855
  -3328892.454 4  24763504.606 4  -2076216.15145  24763508.76145     -3593.660
  -3870964.795 5  24237957.669 5  -4429213.28945  24237960.57245      2898.191
 -14390625.098 6  22540251.400 6 -10862303.78946  22540252.61746     -2452.260
  -9665023.281 6  23456055.538 6  -7218383.15146  23456056.10346     -3066.414
 15  1  3  3 24 30.0000000  0  8G05G16G18G21G25G27G29G31
  -2218213.996 5  25060619.165 5  -1599979.05345  25060618.27545     -2156.500
 -15527679.262 7  22335864.847 7 -11438185.16346  22335865.07046      2606.908
  -4112894.885 5  23857989.839 5  -3083732.83245  23857990.09945      2866.988
 -19329259.193 7  21224824.959 7 -14892849.05247  21224825.23947       223.989
  -3221021.838 4  24784031.715 4  -1992161.10345  24784035.97145     -3597.680
  -3957869.901 5  24221420.163 5  -4496931.49745  24221422.52045      2895.465
 -14316984.251 6  22554264.782 6 -10804921.31946  22554265.56946     -2457.133
  -9572923.563 6  23473581.530 6  -7146617.14146  23473582.16646     -3073.560
 15  1  3  3 25  0.0000000  0  8G05G16G18G21G25G27G29G31
  -2153293.364 4  25072973.100 4  -1549391.58645  25072971.91445     -2171.538
 -15605741.180 6  22321010.164 6 -11499012.62446  22321010.95546      2597.221
  -4198833.255 5  23841636.317 5  -3150697.77645  23841636.56645      2862.237
 -19335770.045 7  21223585.971 7 -14897922.43447  21223586.30447       210.082
  -3113030.533 3  24804581.745 3  -1908012.04445  24804584.17945     -3601.687
  -4044692.887 5  24204898.289 5  -4564585.73845  24204903.55145      2892.717
 -14243197.404 6  22568305.965 6 -10747425.09946  22568306.96246     -2461.984
  -9480610.449 6  23491148.157 6  -7074684.85046  23491149.21146     -3080.631
 15  1  3  3 25 30.0000000  0  8G05G16G18G21G25G27G29G31
  -2087923.732 4  25085412.543 4  -1498454.19145  25085412.66345     -2186.452
 -15683511.017 7  22306211.060 7 -11559612.48746  22306212.03646      2587.427
  -4284628.656 5  23825309.952 5  -3217551.33345  23825310.52345      2857.442
 -19341864.149 7  21222426.311 7 -14902671.08847  21222426.72247       196.201
  -3004920.130 3  24825154.420 3  -1823770.15845  24825158.00745     -3605.634
  -4131433.253 5  24188392.118 5  -4632175.55645  24188395.82945      2889.974
 -14169265.466 6  22582374.755 6 -10689815.81746  22582375.92846     -2466.810
  -9388086.317 6  23508754.938 6  -7002588.13746  23508755.48446     -3087.617
 15  1  3  3 26  0.0000000  0  8G05G16G18G21G25G27G29G31
  -2022106.659 4  25097937.202 4  -1447168.21445  25097935.56945     -2201.323
 -15760985.897 7  22291468.086 7 -11619982.52146  22291468.92446      2577.561
  -4370278.512 5  23809011.402 5  -3284291.45745  23809013.52545      2852.548
 -19347542.584 7  21221345.731 7 -14907095.83647  21221345.92347       182.350
  -2896692.273 2  24845749.344 2  -1739436.78245  24845755.36345     -3609.525
  -4218090.508 5  24171901.788 5  -4699700.68045  24171905.44545      2887.185
 -14095188.978 6  22596471.032 6 -10632093.89346  22596472.37646     -2471.620
  -9295354.073 6  23526401.277 6  -6930329.26346  23526403.02746     -3094.512
 15  1  3  3 26 30.0000000  0  8G05G16G18G21G25G27G29G31
  -1955844.356 3  25110546.409 3  -1395535.25445  25110547.06245     -2216.163
 -15838164.096 7  22276781.561 7 -11680121.37846  22276782.31246      2567.629
  -4455780.320 5  23792740.922 5  -3350916.25145  23792742.37545      2847.577
 -19352806.029 7  21220344.129 7 -14911197.22147  21220344.69047       168.526
  -2788348.563 3  24866366.559 3  -1655013.07545  24866372.08445     -3613.385
  -4304664.178 5  24155427.323 5  -4767160.63945  24155430.92145      2884.373
 -14020968.749 6  22610594.680 6 -10574259.97246  22610596.05446     -2476.410
  -9202416.959 6  23544086.616 6  -6857910.76346  23544086.45346     -3101.276
 15  1  3  3 27  0.0000000  0  8G05G16G18G21G25G27G29G31
  -1889138.864 3  25123240.092 3  -1343556.93845  25123238.23645     -2230.911
 -15915043.332 7  22262151.912 7 -11740027.26446  22262152.69146      2557.631
  -4541131.703 5  23776499.011 5  -3417423.80845  23776499.35145      2842.492
 -19357654.980 7  21219421.407 7 -14914975.62047  21219421.98647       154.718
  -2679890.690 3  24887005.337 3  -1570500.54145  24887009.28445     -3617.164
  -4391153.729 5  24138968.910 5  -4834555.07545  24138971.91145      2881.574
 -13946604.963 6  22624745.668 6 -10516314.19046  22624746.94346     -2481.176
  -9109278.095 6  23561810.364 6  -6785335.02946  23561811.41746     -3107.959
 15  1  3  3 27 30.0000000  0  8G05G16G18G21G25G27G29G31
  -1821992.351 3  25136017.653 3  -1291235.04245  25136017.89945     -2245.542
 -15991621.519 7  22247579.582 7 -11799698.57646  22247580.87546      2547.556
  -4626329.487 5  23760286.451 5  -3483811.66645  23760287.62145      2837.352
 -19362089.764 7  21218577.507 7 -14918431.29047  21218577.66747       140.941
  -2571320.304 3  24907665.759 3  -1485900.21345  24907672.11745     -3620.849
  -4477558.678 5  24122526.596 5  -4901883.58845  24122530.46745      2878.736
 -13872098.526 6  22638923.768 6 -10458257.24446  22638925.17646     -2485.922
  -9015940.101 6  23579572.026 6  -6712604.13846  23579572.63146     -3114.553
 15  1  3  3 28  0.0000000  0  8G05G16G18G21G25G27G29G31
  -1754406.985 3  25148878.735 3  -1238571.13245  25148879.30345     -2260.164
 -16067896.231 7  22233064.978 7 -11859133.40746  22233065.89646      2537.402
  -4711371.523 5  23744103.429 5  -3550078.17545  23744103.44345      2832.107
 -19366111.645 7  21217812.161 7 -14921565.22147  21217812.42547       127.182
  -2462639.025 4  24928347.129 4  -1401213.51245  24928354.17245     -3624.539
  -4563878.516 5  24106100.462 5  -4969145.73545  24106104.96345      2875.903
 -13797449.979 6  22653128.915 6 -10400089.56946  22653129.59046     -2490.652
  -8922405.801 6  23597371.024 6  -6639720.27446  23597372.07046     -3121.058
 15  1  3  3 28 30.0000000  0  8G05G16G18G21G25G27G29G31
  -1686384.990 2  25161822.836 2  -1185566.94745  25161821.18845     -2274.657
 -16143864.895 7  22218608.602 7 -11918329.76846  22218609.20146      2527.168
  -4796254.940 5  23727950.666 5  -3616221.08945  23727951.82245      2826.770
 -19369720.448 7  21217125.408 7 -14924377.26947  21217125.77947       113.405
  -2353848.545 4  24949049.273 4  -1316441.70245  24949057.70445     -3628.152
  -4650112.750 5  24089690.581 5  -5036341.19045  24089694.16745      2873.052
 -13722660.054 6  22667360.963 6 -10341811.72046  22667362.16146     -2495.349
  -8828678.295 6  23615206.784 6  -6566685.85746  23615207.35046     -3127.439
 15  1  3  3 29  0.0000000  0  8G05G16G18G21G25G27G29G31
  -1617928.257 2  25174849.727 2  -1132224.07245  25174848.52245     -2289.092
 -16219525.628 7  22204210.818 7 -11977286.17946  22204211.55946      2516.867
  -4880977.029 5  23711828.583 5  -3682238.27645  23711830.56345      2821.358
 -19372916.634 7  21216517.183 7 -14926867.80047  21216517.54747        99.668
  -2244950.454 3  24969771.841 3  -1231586.15545  24969775.17345     -3631.687
  -4736260.844 5  24073297.114 5  -5103469.57345  24073300.37045      2870.154
 -13647729.339 6  22681619.810 6 -10283424.17446  22681621.24446     -2500.018
  -8734760.443 5  23633078.746 5  -6493503.15346  23633079.18346     -3133.732
 15  1  3  3 29 30.0000000  0  8G05G16G18G21G25G27G29G31
  -1549038.889 2  25187958.847 2  -1078544.11445  25187960.06145     -2303.535
 -16294876.218 7  22189872.054 7 -12036000.91746  22189872.76446      2506.484
  -4965535.482 5  23695737.604 5  -3748127.95345  23695738.88845      2815.845
 -19375701.761 7  21215987.190 7 -14929038.02747  21215987.65747        85.994
  -2135946.444 4  24990514.609 4  -1146647.84145  24990521.49745     -3635.216
  -4822322.335 5  24056920.117 5  -5170530.45445  24056925.47045      2867.266
 -13572658.478 6  22695905.341 6 -10224927.42446  22695906.46046     -2504.708
  -8640655.766 5  23650986.305 5  -6420174.83246  23650987.86846     -3139.906
 15  1  3  3 30  0.0000000  0  8G05G16G18G21G25G27G29G31
  -1479719.415 2  25201149.929 2  -1024528.95645  25201151.50745     -2317.821
 -16369914.392 7  22175592.759 7 -12094472.22246  22175593.37846      2496.028
  -5049927.681 5  23679678.313 5  -3813888.13845  23679678.30145      2810.275
 -19378075.971 7  21215535.391 7 -14930888.06147  21215535.75547        72.298
  -2026838.160 5  25011277.214 5  -1061628.32845  25011282.56045     -3638.684
  -4908296.666 5  24040559.709 5  -5237523.42245  24040563.48945      2864.356
 -13497448.041 6  22710217.410 6 -10166321.89746  22710218.20546     -2509.334
  -8546366.401 5  23668928.976 5  -6346702.62846  23668929.30646     -3146.025
 15  1  3  3 30 30.0000000  0  8G05G16G18G21G25G27G29G31
  -1409971.791 2  25214422.381 2   -970180.18945  25214424.00945     -2332.029
 -16444637.488 7  22161373.430 7 -12152698.00846  22161374.10346      2485.500
  -5134150.981 5  23663651.155 5  -3879516.68545  23663651.20545      2804.582
 -19380040.195 7  21215161.600 7 -14932418.61747  21215162.01247        58.650
  -1917627.262 4  25032059.376 4   -976528.93745  25032063.81345     -3642.056
  -4994183.380 5  24024216.001 5  -5304448.09045  24024219.55145      2861.415
 -13422098.585 6  22724555.966 6 -10107608.05246  22724556.83446     -2513.961
  -8451895.574 5  23686906.185 5  -6273089.01446  23686906.71546     -3152.004
 15  1  3  3 31  0.0000000  0  8G05G16G18G21G25G27G29G31
  -1339798.428 2  25227775.904 2   -915499.69245  25227774.63545     -2346.203
 -16519043.661 7  22147214.410 7 -12210676.84346  22147215.27146      2474.909
  -5218202.514 6  23647656.710 6  -3945011.37345  23647657.07445      2798.817
 -19381594.829 7  21214865.756 7 -14933630.01747  21214866.54947        45.012
  -1808315.416 4  25052860.694 4   -891350.89345  25052860.36045     -3645.353
  -5079981.899 5  24007889.067 5  -5371304.07845  24007893.12045      2858.477
 -13346610.662 6  22738920.862 6 -10048786.31546  22738922.42546     -2518.548
  -8357246.033 6  23704917.414 6  -6199336.12746  23704919.03446     -3157.943
 15  1  3  3 31 30.0000000  0  8G05G16G18G21G25G27G29G31
  -1269201.261 2  25241210.174 2   -860488.93045  25241210.77845     -2360.239
 -16593130.709 7  22133116.110 7 -12268407.00746  22133116.89346      2464.220
  -5302079.764 6  23631695.411 6  -4010370.26645  23631696.50445      2792.978
 -19382740.645 7  21214647.705 7 -14934522.86147  21214648.32847        31.387
  -1698904.345 3  25073680.884 3   -806095.44445  25073687.89945     -3648.683
  -5165691.722 5  23991579.004 5  -5438090.92645  23991583.94945      2855.519
 -13270984.985 6  22753311.961 6  -9989857.24346  22753313.06146     -2523.147
  -8262420.826 5  23722962.028 5  -6125446.36146  23722962.49446     -3163.730
 15  1  3  3 32  0.0000000  0  8G05G16G18G21G25G27G29G31
  -1198182.807 2  25254724.640 2   -805149.84645  25254724.75045     -2374.292
 -16666896.476 7  22119078.955 7 -12325886.82346  22119079.80446      2453.488
  -5385780.070 6  23615767.763 6  -4075591.30545  23615768.44245      2787.036
 -19383478.299 7  21214507.328 7 -14935097.64747  21214507.82047        17.781
  -1589395.576 3  25094519.678 3   -720763.96145  25094523.53445     -3651.901
  -5251312.363 5  23975285.898 5  -5504808.27745  23975290.31045      2852.531
 -13195221.874 6  22767729.226 6  -9930821.08646  22767730.71846     -2527.733
  -8167423.143 5  23741039.486 5  -6051422.21346  23741040.24646     -3169.424
 15  1  3  3 32 30.0000000  0  8G05G16G18G21G25G27G29G31
  -1126745.227 2  25268318.570 2   -749484.26545  25268317.10345     -2388.222
 -16740338.359 7  22105103.438 7 -12383114.26246  22105104.59846      2442.632
  -5469300.929 6  23599874.236 6  -4140672.46345  23599875.31045      2780.997
 -19383808.610 7  21214444.482 7 -14935355.03047  21214445.22747         4.238
  -1479790.897 3  25115376.801 3   -635357.66245  25115380.35545     -3655.058
  -5336843.254 5  23959009.879 5  -5571455.71345  23959013.04145      2849.529
 -13119322.239 6  22782172.463 6  -9871678.55446  22782173.81146     -2532.264
  -8072255.923 5  23759149.189 5  -5977265.94445  23759148.66245     -3175.049
 15  1  3  3 33  0.0000000  0  8G05G16G18G21G25G27G29G31
  -1054890.407 3  25281992.203 3   -693493.57145  25281993.60445     -2402.085
 -16813454.218 7  22091189.955 7 -12440087.65146  22091190.68346      2431.729
  -5552639.815 6  23584015.378 6  -4205611.84145  23584016.71545      2774.896
 -19383732.230 7  21214459.008 7 -14935295.51247  21214459.88847        -9.332
  -1370091.940 3  25136251.762 3   -549878.07045  25136258.85445     -3658.170
  -5422283.896 5  23942751.051 5  -5638032.79645  23942755.16345      2846.505
 -13043286.514 6  22796641.609 6  -9812429.96246  22796643.14146     -2536.785
  -7976921.826 5  23777290.682 5  -5902979.63946  23777291.75346     -3180.550
 15  1  3  3 33 30.0000000  0  8G05G16G18G21G25G27G29G31
   -982620.666 3  25295744.810 3   -637179.46045  25295747.58845     -2415.876
 -16886241.521 7  22077339.000 7 -12496805.02646  22077339.97446      2420.743
  -5635794.047 6  23568191.672 6  -4270407.35145  23568192.27845      2768.697
 -19383249.526 7  21214550.865 7 -14934919.37147  21214551.14547       -22.852
  -1260300.403 2  25157144.372 2   -464326.12045  25157155.91945     -3661.243
  -5507633.767 5  23926509.517 5  -5704539.18745  23926513.84645      2843.463
 -12967115.260 6  22811136.539 6  -9753075.76546  22811138.06746     -2541.285
  -7881423.908 5  23795463.345 5  -5828565.68946  23795464.43246     -3185.962
 15  1  3  3 34  0.0000000  0  8G05G16G18G21G25G27G29G31
   -909938.613 4  25309575.741 4   -580544.23345  25309576.71345     -2429.599
 -16958698.582 7  22063550.867 7 -12553265.07246  22063551.74146      2409.699
  -5718760.889 6  23552403.549 6  -4335056.78845  23552404.20845      2762.429
 -19382361.590 7  21214719.831 7 -14934227.46847  21214720.19747       -36.349
  -1150417.899 2  25178054.417 2   -378703.36945  25178057.31445     -3664.267
  -5592892.267 5  23910285.328 5  -5770974.37045  23910288.19345      2840.408
 -12890809.011 6  22825657.152 6  -9693616.37646  22825658.55146     -2545.790
  -7785765.312 5  23813666.573 5  -5754026.54346  23813666.13346     -3191.258
 15  1  3  3 34 30.0000000  0  8G05G16G18G21G25G27G29G31
   -836846.338 4  25323484.740 4   -523589.19845  25323487.07545     -2443.220
 -17030822.758 7  22049826.091 7 -12609465.72446  22049826.47046      2398.567
  -5801537.956 6  23536651.610 6  -4399558.42145  23536651.54145      2756.044
 -19381069.038 7  21214965.797 7 -14933220.28047  21214966.30347       -49.818
  -1040446.194 2  25198981.366 2   -293011.15845  25198991.15445     -3667.196
  -5678058.935 5  23894078.620 5  -5837337.98445  23894083.03245      2837.335
 -12814368.442 6  22840203.342 6  -9634052.31646  22840204.15746     -2550.258
  -7689948.534 5  23831899.965 5  -5679364.13146  23831899.54546     -3196.496
 15  1  3  3 35  0.0000000  0  8G05G16G18G21G25G27G29G31
   -763346.227 5  25337471.417 5   -466316.41145  25337473.29745     -2456.775
 -17102611.792 7  22036165.086 7 -12665405.22546  22036165.82446      2387.356
  -5884122.708 6  23520936.222 6  -4463910.13945  23520937.51945      2749.577
 -19379372.941 7  21215288.552 7 -14931898.64647  21215289.21847       -63.250
   -930386.922 2  25219924.889 2   -207250.76945  25219930.22745     -3670.121
  -5763133.212 5  23877889.539 5  -5903629.58145  23877891.98545      2834.270
 -12737793.962 6  22854775.024 6  -9574383.92346  22854775.97846     -2554.698
  -7593976.904 5  23850162.749 5  -5604581.05246  23850162.80446     -3201.615
 15  1  3  3 35 30.0000000  0  8G05G16G18G21G25G27G29G31
   -689440.517 5  25351535.231 5   -408727.54545  25351536.97845     -2470.265
 -17174063.627 7  22022568.252 7 -12721081.97446  22022569.00346      2376.091
  -5966512.259 6  23505257.987 6  -4528109.78045  23505259.41745      2743.040
 -19377273.981 7  21215687.962 7 -14930263.09047  21215688.09147       -76.668
   -820241.794 2  25240884.801 2                                     -3672.947
  -5848114.530 5  23861718.139 5  -5969848.77845  23861722.04545      2831.165
 -12661086.164 6  22869372.092 6  -9514611.63246  22869373.36546     -2559.142
  -7497853.059 5  23868454.543 5  -5529679.37346  23868454.79546     -3206.625
 15  1  3  3 36  0.0000000  0  8G05G16G18G21G25G27G29G31
   -615131.419 4  25365675.733 4   -350824.41245  25365678.31345     -2483.648
 -17245176.587 7  22009035.889 7 -12776494.65446  22009036.76146      2364.735
  -6048703.896 6  23489617.431 6  -4592155.20045  23489618.88845      2736.415
 -19374772.793 7  21216163.937 7 -14928314.11147  21216164.31647       -90.059
   -710012.491 2  25261860.793 2                                     -3675.709
  -5933002.378 5  23845564.513 5  -6035995.11145  23845567.47445      2828.019
 -12584245.747 6  22883994.339 6  -9454736.01046  22883995.39946     -2563.550
  -7401580.237 5  23886774.687 5  -5454661.60446  23886775.48746     -3211.554
 15  1  3  3 36 30.0000000  0  8G05G16G18G21G25G27G29G31
   -540421.403 5  25379892.655 5   -292608.86045  25379893.28145     -2497.007
 -17315947.275 7  21995568.704 7 -12831640.65446  21995569.58646      2353.307
  -6130695.527 6  23474014.929 6  -4656044.77345  23474016.20345      2729.708
 -19371870.250 7  21216716.269 7 -14926052.39047  21216716.84047      -103.438
   -599700.708 2  25282852.488 2        -3.21755  25282856.11745     -3678.400
  -6017796.198 5  23829428.742 5  -6102068.20846  23829431.77346      2824.851
 -12507273.191 6  22898641.741 6  -9394757.43546  22898643.08346     -2567.950
  -7305161.053 5  23905122.649 5  -5379529.78446  23905123.44846     -3216.362
 15  1  3  3 37  0.0000000  0  8G05G16G18G21G25G27G29G31
   -465312.767 5  25394185.501 5   -234082.66445  25394186.31545     -2510.237
 -17386373.986 7  21982166.944 7 -12886518.60646  21982167.58446      2341.795
  -6212484.162 6  23458451.076 6  -4719776.15045  23458452.42645      2722.905
 -19368566.812 7  21217344.887 7 -14923478.27947  21217345.29047      -116.778
   -489308.111 3  25303859.488 3     86016.99945  25303862.47845     -3681.045
  -6102495.423 5  23813311.018 5  -6168067.57845  23813314.67645      2821.724
 -12430169.251 6  22913314.131 6  -9334676.46046  22913315.04146     -2572.335
  -7208598.491 5  23923497.899 5  -5304286.24046  23923498.46046     -3221.141
 15  1  3  3 37 30.0000000  0  8G05G16G18G21G25G27G29G31
   -389807.655 5  25408553.634 5   -175247.51445  25408554.44145     -2523.426
 -17456454.287 7  21968831.097 7 -12941126.62746  21968831.94046      2330.208
  -6294067.390 6  23442926.306 6  -4783347.48045  23442927.53845      2715.982
 -19364863.714 7  21218049.548 7 -14920592.75547  21218049.82647      -130.069
   -378836.478 3  25324881.525 3    172098.82845  25324885.87545     -3683.642
  -6187099.537 5  23797211.378 5  -6233992.84646  23797213.75446      2818.537
 -12352934.121 6  22928011.514 6  -9274493.25446  22928012.52346     -2576.660
  -7111895.690 5  23941899.834 5  -5228933.43446  23941899.86846     -3225.697
 15  1  3  3 38  0.0000000  0  8G05G16G18G21G25G27G29G31
   -313908.444 5  25422996.833 5   -116105.34445  25422995.75745     -2536.509
 -17526185.969 7  21955561.592 7 -12995462.99646  21955562.23346      2318.574
  -6375442.721 6  23427441.110 6  -4846756.82245  23427441.92845      2709.001
 -19360761.906 7  21218830.090 7 -14917396.53947  21218830.55747      -143.375
   -268287.405 4  25345918.348 4    258240.94545  25345921.80745     -3686.216
  -6271607.980 5  23781129.950 5  -6299843.55146  23781133.87646      2815.336
 -12275568.516 6  22942733.734 6  -9214208.40246  22942735.17446     -2581.005
  -7015055.823 5  23960327.883 5  -5153473.80346  23960327.84546     -3230.256
 15  1  3  3 38 30.0000000  0  8G05G16G18G21G25G27G29G31
   -237617.677 5  25437514.527 5    -56657.98645  25437515.80445     -2549.526
 -17595567.400 7  21942358.743 7 -13049526.45346  21942359.58046      2306.822
  -6456607.461 6  23411995.954 6  -4910002.07646  23411996.39746      2701.954
 -19356261.756 7  21219686.438 7 -14913889.92447  21219687.02247      -156.645
   -157662.635 4  25366969.608 4    344442.00945  25366972.15545     -3688.746
  -6356020.172 5  23765066.849 5  -6365619.25346  23765070.72346      2812.128
 -12198073.014 6  22957480.666 6  -9153822.32246  22957481.08846     -2585.358
  -6918081.515 5  23978781.470 5  -5077909.41846  23978782.02346     -3234.692
 15  1  3  3 39  0.0000000  0  8G05G16G18G21G25G27G29G31
   -160937.568 5  25452106.291 5      3092.66845  25452108.30545     -2562.495
 -17664595.433 7  21929223.142 7 -13103314.52646  21929223.90146      2295.030
  -6537559.033 6  23396591.378 6  -4973081.22945  23396592.84545      2694.800
 -19351364.542 7  21220618.324 7 -14910073.91247  21220618.80947      -169.850
    -46963.893 4  25388034.789 4    430700.79045  25388036.87045     -3691.162
  -6440335.572 5  23749022.148 5  -6431319.53446  23749026.26446      2808.891
 -12120448.525 6  22972252.156 6  -9093335.72046  22972253.35046     -2589.631
  -6820975.237 5  23997260.199 5  -5002242.20346  23997261.05246     -3239.031
 15  1  3  3 39 30.0000000  0  8G05G16G18G21G25G27G29G31
    -83870.579 5  25466771.728 5     63144.85545  25466771.96845     -2575.319
 -17733268.362 7  21916155.125 7 -13156825.90246  21916156.04446      2283.148
  -6618294.822 6  23381227.815 6  -5035992.19745  23381230.05145      2687.587
 -19346070.590 7  21221625.722 7 -14905948.74947  21221626.26847      -183.079
     63807.207 4  25409113.747 4    517015.87845  25409120.88245     -3693.573
  -6524553.638 5  23732995.970 5  -6496943.99546  23732999.79346      2805.633
 -12042695.034 6  22987048.158 6  -9032748.59846  22987049.34646     -2593.935
  -6723740.686 5  24015763.312 5  -4926475.02845  24015764.08145     -3243.254
 15  1  3  3 40  0.0000000  0  8G05G16G18G21G25G27G29G31
     -6418.943 5  25481510.294 5    123496.71345  25481507.52845     -2588.110
 -17801583.892 7  21903155.114 7 -13210058.77446  21903155.71546      2271.193
  -6698812.159 6  23365905.866 6  -5098732.97545  23365907.85045      2680.232
 -19340380.891 7  21222708.434 7 -14901515.21647  21222709.06047      -196.250
    174648.869 4  25430206.261 4    603386.16245  25430208.91945     -3695.887
  -6608673.773 5  23716988.429 5  -6562492.11946  23716992.35646      2802.360
 -11964813.327 6  23001868.574 6  -8972061.58446  23001869.43346     -2598.195
  -6626380.496 5  24034290.351 5  -4850609.95446  24034290.19646     -3247.407
 15  1  3  3 40 30.0000000  0  8G05G16G18G21G25G27G29G31
     71414.686 5  25496321.559 5    184146.41944  25496320.74444     -2600.808
 -17869539.736 7  21890223.557 7 -13263011.37446  21890224.21846      2259.184
  -6779108.768 6  23350625.940 6  -5161301.75645  23350627.64545      2672.848
 -19334296.220 7  21223866.320 7 -14896773.91247  21223867.16647      -209.399
    285559.443 4  25451311.817 4    689810.00045  25451306.82345     -3698.135
  -6692695.416 5  23700999.635 5  -6627963.50146  23701003.63546      2799.068
 -11886803.655 6  23016713.376 6  -8911274.87046  23016714.73446     -2602.452
  -6528897.424 5  24052840.786 5  -4774649.12245  24052841.67645     -3251.452
 15  1  3  3 41  0.0000000  0  8G05G16G18G21G25G27G29G31
    149628.119 5  25511205.085 5                                     -2613.412
 -17937133.360 7  21877360.928 7 -13315681.72946  21877361.83846      2247.052
  -6859181.978 6  23335388.512 6  -5223696.45046  23335388.83446      2665.357
 -19327817.788 7  21225099.124 7 -14891725.77447  21225099.69147      -222.498
    396537.242 4  25472430.178 4    776286.25545  25472435.46645     -3700.339
  -6776617.974 5  23685029.685 5  -6693357.67846  23685033.02246      2795.758
 -11808666.695 6  23031582.391 6  -8850388.95346  23031584.46546     -2606.689
  -6431294.519 5  24071414.027 5  -4698594.95345  24071415.38845     -3255.393
 15  1  3  3 41 30.0000000  0  8G05G16G18G21G25G27G29G31
    228218.926 4  25526160.390 4                                     -2625.957
 -18004362.696 7  21864567.615 7 -13368068.22346  21864568.12146      2234.873
  -6939029.142 6  23320194.072 6  -5285915.03145  23320194.89645      2657.765
 -19320946.645 6  21226406.648 6 -14886371.63347  21226406.71747      -235.591
    507580.501 4  25493561.030 4    862813.47145  25493567.72645     -3702.512
  -6860440.934 5  23669078.688 5  -6758674.26046  23669081.05946      2792.431
 -11730402.710 6  23046475.554 6  -8789404.05346  23046476.54346     -2610.898
  -6333575.176 5  24090009.421 5  -4622450.02646  24090010.91546     -3259.228
 15  1  3  3 42  0.0000000  0  9G05G16G18G21G22G25G27G29G31
    307184.578 4  25541187.036 4     22593.10742  25541187.85842     -2638.413
 -18071225.663 7  21851844.011 7 -13420169.23446  21851844.64646      2222.634
  -7018647.797 6  23305043.146 6  -5347955.51945  23305045.01045      2650.121
 -19313683.105 7  21227788.850 7 -14880711.73447  21227789.27747      -248.645
    -13566.172 4  25317673.970 4                                      3392.482
    618687.553 3  25514704.013 3    949390.26743  25514707.01443     -3704.630
  -6944163.638 5  23653146.784 5  -6823912.69246  23653149.15046      2789.080
 -11652012.839 6  23061392.665 6  -8728321.04946  23061394.36246     -2615.092
  -6235741.536 5  24108626.561 5  -4546216.01545  24108626.01345     -3262.995
 15  1  3  3 42 30.0000000  0  9G05G16G18G21G22G25G27G29G31
    386523.130 5  25556284.689 5                                     -2650.798
 -18137720.558 7  21839190.460 7 -13471983.43746  21839191.43746      2210.319
  -7098035.362 6  23289936.154 6  -5409815.96146  23289937.01446      2642.352
 -19306028.314 7  21229245.496 7 -14874746.95847  21229246.15447      -261.671
   -115377.700 5  25298299.950 5                                      3394.947
    729856.681 3  25535858.839 3                                     -3706.650
  -7027785.564 5  23637234.004 5  -6889072.63146  23637236.48946      2785.719
 -11573497.594 6  23076333.630 6  -8667140.36646  23076334.24846     -2619.264
  -6137796.631 5  24127264.858 5  -4469895.33145  24127264.71445     -3266.645
 15  1  3  3 43  0.0000000  0  9G05G16G18G21G22G25G27G29G31
    466231.566 4  25571452.766 4                                     -2663.082
 -18203844.207 7  21826607.540 7 -13523508.35246  21826608.03546      2197.912
  -7177189.068 6  23274873.719 6  -5471494.16846  23274875.60146      2634.548
 -19297983.369 7  21230776.414 7 -14868478.16247  21230776.90947      -274.669
   -217262.848 4  25278911.717 4                                      3397.387
    841086.182 3  25557025.020 3                                     -3708.589
  -7111306.046 5  23621340.561 5  -6954153.49646  23621344.39546      2782.328
 -11494857.210 6  23091298.425 6  -8605862.15946  23091299.84946     -2623.432
  -6039743.590 5  24145923.698 5  -4393490.37745  24145924.80045     -3270.247
 15  1  3  3 43 30.0000000  0  9G05G16G18G21G22G25G27G29G31
    546307.603 3  25586690.789 3                                     -2675.289
 -18269594.664 7  21814095.625 7 -13574742.46746  21814096.74846      2185.437
  -7256106.636 6  23259856.204 6  -5532988.36146  23259856.63346      2626.627
 -19289548.658 7  21232381.492 7 -14861905.66047  21232381.72347      -287.627
   -319219.228 4  25259509.966 4    -52967.85245  25259506.83345      3399.699
    952374.350 2  25578202.496 2                                     -3710.608
  -7194724.595 5  23605466.510 5  -7019154.91746  23605470.41546      2778.928
 -11416092.054 6  23106286.923 6  -8544486.73346  23106287.65646     -2627.578
  -5941585.577 5  24164602.541 5  -4317003.61445  24164602.49645     -3273.648
 15  1  3  3 44  0.0000000  0  9G05G16G18G21G22G25G27G29G31
    626749.070 3  25601998.336 3                                     -2687.468
 -18334969.958 7  21801655.125 7 -13625684.25446  21801655.65846      2172.890
  -7334785.670 6  23244884.094 6  -5594296.68046  23244885.28146      2618.608
 -19280725.693 7  21234060.449 7 -14855030.62247  21234061.03247      -300.570
   -421244.657 4  25240095.154 4   -132468.17945  25240095.02345      3401.916
   1063719.447 2  25599390.836 2                                     -3712.400
  -7278040.599 5  23589611.969 5  -7084076.46046  23589614.60446      2775.475
 -11337202.684 6  23121299.068 6  -8483014.52346  23121300.99446     -2631.704
  -5843325.610 5  24183300.769 5  -4240437.43845  24183301.92645     -3277.007
 15  1  3  3 44 30.0000000  0  8G16G18G21G22G25G27G29G31
 -18399967.659 7  21789286.473 7 -13676331.80246  21789287.32946      2160.283
  -7413223.336 6  23229957.903 6  -5655416.94346  23229958.73646      2610.543
 -19271515.181 7  21235813.160 7 -14847853.59947  21235813.45147      -313.470
   -523336.609 5  25220667.683 5   -212020.35345  25220667.56145      3404.179
   1175119.722 2  25620589.571 2                                     -3714.253
  -7361253.411 5  23573777.059 5  -7148917.59046  23573780.24246      2772.034
 -11258189.652 6  23136334.770 6  -8421445.96946  23136336.35946     -2635.854
  -5744966.193 5  24202017.941 5  -4163793.71545  24202017.39645     -3280.286
 15  1  3  3 45  0.0000000  0  7G16G18G21G22G27G29G31
 -18464585.773 7  21776990.036 7 -13726683.57546  21776990.69846      2147.576
  -7491417.175 6  23215078.116 6  -5716347.17346  23215078.28646      2602.374
 -19261917.904 7  21237639.473 7 -14840375.20047  21237639.84647      -326.333
   -625492.512 4  25201228.009 4   -291622.35145  25201227.77645      3406.235
  -7444362.500 5  23557961.904 5  -7213677.89546  23557966.57046      2768.560
 -11179053.610 6  23151393.846 6  -8359781.54246  23151395.50946     -2639.892
  -5646510.066 5  24220753.530 5  -4087074.66745  24220754.44545     -3283.450
 15  1  3  3 45 30.0000000  0  7G16G18G21G22G27G29G31
 -18528821.838 7  21764766.311 7 -13776737.65046  21764766.81446      2134.817
  -7569364.694 6  23200245.191 6  -5777085.48046  23200246.75446      2594.127
 -19251934.980 7  21239539.144 7 -14832596.29447  21239539.44247      -339.186
   -727710.126 4  25181776.592 4   -371272.46845  25181776.74545      3408.302
  -7527367.241 5  23542166.605 5  -7278356.88946  23542169.28446      2765.076
 -11099795.079 6  23166476.258 6  -8298021.66746  23166477.92246     -2643.996
  -5547960.228 5  24239506.947 5  -4010282.61645  24239506.94045     -3286.518
 15  1  3  3 46  0.0000000  0  7G16G18G21G22G27G29G31
 -18592673.702 7  21752615.702 7 -13826492.34246  21752616.40746      2121.962
  -7647063.451 6  23185459.619 6  -5837629.97346  23185460.99846      2585.775
 -19241567.533 7  21241511.999 7 -14824517.75747  21241512.27847      -351.996
   -829987.127 4  25162313.925 4   -450968.83545  25162312.30945      3410.190
  -7610267.002 5  23526391.291 5  -7342954.07646  23526395.16646      2761.553
 -11020414.514 6  23181581.883 6  -8236166.72046  23181584.58646     -2648.047
  -5449319.816 5  24258277.597 5  -3933419.92645  24258277.17045     -3289.508
 15  1  3  3 46 30.0000000  0  7G16G18G21G22G27G29G31
 -18656138.974 7  21740538.667 7 -13875945.79246  21740539.13646      2109.045
  -7724510.907 6  23170721.861 6  -5897978.60846  23170723.87646      2577.363
 -19230816.335 7  21243557.888 7 -14816140.20247  21243558.22847      -364.747
   -932321.302 3  25142840.394 3   -530709.77045  25142841.53645      3412.073
  -7693061.208 5  23510636.048 5  -7407469.03846  23510640.18246      2758.030
 -10940912.476 6  23196710.621 6  -8174217.10446  23196711.28746     -2652.084
  -5350591.831 5  24277064.902 5  -3856489.07145  24277065.71445     -3292.346
 15  1  3  3 47  0.0000000  0  7G16G18G21G22G27G29G31
 -18719215.611 7  21728535.582 7 -13925096.41646  21728536.51546      2096.052
  -7801704.831 6  23156032.321 6  -5958129.71346  23156033.35346      2568.880
 -19219682.364 7  21245676.599 7 -14807464.37947  21245677.07747      -377.510
  -1034710.082 2  25123356.436 2   -610493.23845  25123356.28745      3413.863
  -7775749.227 5  23494901.010 5  -7471901.24246  23494904.17046      2754.503
 -10861289.442 6  23211862.410 6  -8112173.21246  23211864.40046     -2656.107
  -5251779.051 5  24295868.350 5  -3779492.08945  24295867.31445     -3295.094
 15  1  3  3 47 30.0000000  0  7G16G18G21G22G27G29G31
 -18781901.456 7  21716606.846 7 -13973942.52546  21716607.72946      2082.989
  -7878642.156 6  23141391.617 6  -6018080.86946  23141393.33146      2560.285
 -19208166.464 7  21247867.984 7 -14798490.95147  21247868.24247      -390.227
  -1137151.050 1  25103862.467 1   -690317.35845  25103862.23445      3415.554
  -7858330.482 5  23479186.334 5  -7536250.24146  23479190.09146      2750.932
 -10781545.716 6  23227037.155 6  -8050035.24746  23227037.70046     -2660.131
  -5152884.261 5  24314687.510 5  -3702431.25245  24314687.79245     -3297.838
 15  1  3  3 48  0.0000000  0  7G16G18G21G22G27G29G31
 -18844194.643 7  21704752.836 7 -14022482.66546  21704753.37146      2069.853
  -7955320.693 6  23126800.156 6  -6077830.37546  23126800.58746      2551.609
 -19196269.785 7  21250131.849 7 -14789220.80747  21250132.25947      -402.894
  -1239641.806 1  25084359.046 1   -770180.22545  25084360.51245      3417.155
  -7940804.295 5  23463492.053 5  -7600515.55046  23463495.66146      2747.330
 -10701682.074 6  23242234.742 6  -7987803.84646  23242236.70546     -2664.120
  -5053910.561 5  24333521.490 5  -3625308.86645  24333523.49245     -3300.393
 15  1  3  3 48 30.0000000  0  7G16G18G21G22G27G29G31
 -18906092.607 7  21692974.026 7 -14070714.83946  21692974.87746      2056.656
  -8031737.868 6  23112258.421 6  -6137376.20646  23112259.24446      2542.858
 -19183993.231 7  21252468.012 7 -14779654.65447  21252468.62547      -415.538
  -1342179.918 2  25064846.664 2   -850080.04145  25064851.84645      3418.635
  -8023170.064 5  23447818.354 5  -7664696.65646  23447821.86946      2743.731
 -10621698.812 6  23257455.073 6  -7925479.25246  23257456.00746     -2668.107
  -4954860.599 5  24352370.102 5  -3548127.10345  24352371.26745     -3302.903
 15  1  3  3 49  0.0000000  0  7G16G18G21G22G27G29G31
 -18967593.110 7  21681270.858 7 -14118637.30646  21681271.59946      2043.367
  -8107891.218 6  23097766.890 6  -6196716.48346  23097768.30346      2534.026
 -19171337.940 7  21254876.239 7 -14769793.39247  21254876.60247      -428.160
  -1444763.097 3  25045325.861 3   -930014.94345  25045327.40845      3420.156
  -8105427.189 5  23432165.345 5  -7728793.08346  23432167.23946      2740.087
 -10541596.144 6  23272698.121 6  -7863061.60946  23272699.87246     -2672.075
  -4855737.375 5  24371232.695 5  -3470888.25345  24371234.63245     -3305.302
 15  1  3  3 49 30.0000000  0  7G16G18G21G22G27G29G31
 -19028694.043 7  21669643.758 7 -14166248.42147  21669644.59847      2030.017
  -8183778.410 6  23083326.021 6  -6255849.35846  23083327.84746      2525.095
 -19158304.421 7  21257356.443 7 -14759637.39947  21257356.84247      -440.752
  -1547388.465 3  25025796.863 3  -1009982.76645  25025797.70745      3421.526
  -8187574.977 5  23416533.107 5  -7792804.32646  23416536.35446      2736.439
 -10461374.763 6  23287963.776 6  -7800551.44946  23287965.36546     -2676.022
  -4756543.779 5  24390108.647 5  -3393594.56545  24390110.65145     -3307.594
 15  1  3  3 50  0.0000000  0  7G16G18G21G22G27G29G31
 -19089393.107 7  21658093.102 7 -14213546.38846  21658094.09446      2016.584
  -8259396.971 6  23068936.277 6  -6314772.88046  23068937.23046      2516.110
 -19144894.277 7  21259908.318 7 -14749187.93747  21259908.80647      -453.262
  -1650054.046 5  25006260.363 5  -1089981.93445  25006261.33245      3422.834
  -8269612.853 5  23400921.796 5  -7856729.94646  23400924.87346      2732.754
 -10381035.571 6  23303251.812 6  -7737949.47946  23303252.55746     -2679.944
  -4657282.601 5  24408997.369 5  -3316248.17145  24408998.67645     -3309.795
 15  1  3  3 50 30.0000000  0  7G16G18G21G22G27G29G31
 -19149688.517 7  21646619.252 7 -14260529.81146  21646619.95146      2003.092
  -8334744.121 6  23054598.192 6  -6373484.95146  23054599.40146      2507.018
 -19131108.510 7  21262531.663 7 -14738445.78047  21262532.27947      -465.781
  -1752757.264 5  24986716.634 5  -1170010.44145  24986716.78545      3424.028
  -8351540.204 6  23385331.537 6  -7920569.39946  23385334.86446      2729.071
 -10300578.850 6  23318562.221 6  -7675255.96846  23318563.81046     -2683.840
  -4557956.910 5  24427898.499 5  -3238851.54345  24427899.09345     -3311.898
 15  1  3  3 51  0.0000000  0  7G16G18G21G22G27G29G31
 -19209577.993 7  21635222.653 7 -14307196.93747  21635223.78747      1989.544
  -8409817.643 6  23040312.162 6  -6431983.78646  23040313.51246      2497.862
 -19116947.927 7  21265226.334 7 -14727411.55247  21265226.69547      -478.257
  -1855495.596 5  24967166.217 5  -1250066.29945  24967167.69645      3425.168
  -8433356.339 5  23369762.415 5  -7984322.22246  23369766.05146      2725.341
 -10220004.794 6  23333894.960 6  -7612471.02446  23333896.36146     -2687.758
  -4458569.524 5  24446811.253 5  -3161406.81945  24446810.78645     -3313.926
 15  1  3  3 51 30.0000000  0  7G16G18G21G22G27G29G31
 -19269059.529 7  21623903.688 7 -14353546.18747  21623904.67247      1975.887
  -8484614.957 6  23026078.708 6  -6490267.40546  23026079.49246      2488.617
 -19102413.920 7  21267992.054 7 -14716086.35747  21267992.36847      -490.684
  -1958266.905 5  24947609.500 5  -1330147.84545  24947609.81945      3426.236
  -8515060.639 5  23354214.581 5  -8047987.89946  23354217.91346      2721.611
 -10139314.017 6  23349249.908 6  -7549595.10646  23349250.92746     -2691.639
  -4359122.997 5  24465735.381 5  -3083916.04245  24465735.75245     -3315.828
 15  1  3  3 52  0.0000000  0  7G16G18G21G22G27G29G31
 -19328130.446 7  21612662.851 7 -14399575.46247  21612663.44547      1962.169
  -8559133.807 6  23011898.266 6  -6548334.01046  23011899.41946      2479.290
 -19087507.061 7  21270828.734 7 -14704470.62147  21270829.26547      -503.102
  -2061068.600 5  24928047.033 5  -1410253.15245  24928044.51945      3427.203
  -8596652.442 6  23338688.192 6  -8111565.88546  23338691.27046      2717.853
 -10058507.236 6  23364626.937 6  -7486628.79746  23364628.80646     -2695.492
  -4259620.707 5  24484670.000 5  -3006381.77345  24484671.34245     -3317.642
 15  1  3  3 52 30.0000000  0  7G16G18G21G22G27G29G31
 -19386788.876 7  21601500.509 7 -14445283.32847  21601501.21847      1948.393
  -8633371.538 6  22997771.306 6  -6606181.60046  22997772.08946      2469.879
 -19072228.490 7  21273736.159 7 -14692565.23947  21273736.57647      -515.475
  -2163897.976 5  24908479.293 5  -1490379.97344  24908476.01144      3428.079
  -8678131.082 5  23323183.284 5  -8175055.72146  23323185.27446      2714.072
  -9977584.668 6  23380026.005 6  -7423572.26246  23380027.77546     -2699.343
  -4160065.268 5  24503614.790 5  -2928806.14045  24503615.61145     -3319.349
 15  1  3  3 53  0.0000000  0  7G16G18G21G22G27G29G31
 -19445032.541 7  21590417.106 7 -14490667.99947  21590418.08047      1934.505
  -8707325.764 6  22983698.275 6  -6663808.26146  22983698.96546      2460.359
 -19056579.286 7  21276714.102 7 -14680371.05547  21276714.44747      -527.807
  -2266752.757 5  24888906.718 5  -1570526.64345  24888902.59145      3428.886
  -8759495.923 5  23307700.071 5  -8238456.88046  23307702.50246      2710.244
  -9896546.899 6  23395446.975 6  -7360425.99746  23395448.46546     -2703.190
  -4060459.704 5  24522569.110 5  -2851191.41745  24522569.32945     -3320.987
