     2.11           OBSERVATION DATA    G (GPS)             RINEX VERSION / TYPE
teqc  2011Oct11     IGN-E (SPG)         20150104 01:26:03UTCPGM / RUN BY / DATE
Linux 2.4.21-27.ELsmp|Opteron|gcc -static|Linux x86_64|=+   COMMENT
BIT 2 OF LLI FLAGS DATA COLLECTED UNDER A/S CONDITION       COMMENT
YEBE                                                        MARKER NAME
13420M001                                                   MARKER NUMBER
Programas GeodesicosInstituto Geografico Nacional           OBSERVER / AGENCY
4644124596          TRIMBLE NETRS       1.2-5               REC # / TYPE / VERS
0180418             TRM29659.00     NONE                    ANT # / TYPE
  4848724.9142  -261632.4716  4123093.9223                  APPROX POSITION XYZ
        0.0000        0.0000        0.0000                  ANTENNA: DELTA H/E/N
     1     1                                                WAVELENGTH FACT L1/2
     6    L1    L2    C1    P2    S1    S2                  # / TYPES OF OBSERV
    16                                                      LEAP SECONDS
 SNR is mapped to RINEX snr flag value [0-9]                COMMENT
  L1 & L2: min(max(int(snr_dBHz/6), 0), 9)                  COMMENT
  2015     1     3     0     0    0.0000000     GPS         TIME OF FIRST OBS
                                                            END OF HEADER
 15  1  3  0  0  0.0000000  0  8G12G29G31G06G25G24G14G02
  -6064007.68447  -4099876.59845  22016329.2424   22016315.3674         44.0004
        34.2504
 -18464278.65248 -14194318.09447  20316767.2034   20316754.0314         48.0004
        42.0004
 -14149088.53147 -10275869.06645  22498734.3984   22498720.4654         43.0004
        31.5004
    767779.53145   -192462.27043  25212898.7114   25212888.4104         34.2504
        18.5004
 -19564537.82048 -13021503.53946  20338314.8134   20338304.5704         48.5004
        41.7504
 -10744330.78946  -6834185.35943  23291504.8834   23291494.9924         37.5004
        22.7504
 -22913772.82047 -15331851.54345  21497038.0474   21497024.9344         44.5004
        33.7504
  -5949543.77746  -5839607.25044  23445942.0704   23445926.5554         40.2504
        25.7504
 15  1  3  0  0 30.0000000  0  8G12G29G31G06G25G24G14G02
  -5994473.86747  -4045694.42245  22029560.5864   22029546.9454         43.2504
        34.5004
 -18511076.82447 -14230784.19146  20307862.1644   20307849.0514         47.5004
        41.7504
 -14232434.77047 -10340814.17245  22482874.1804   22482859.6604         43.0004
        31.2504
    829745.69545   -144176.97343  25224690.0864   25224679.8444         34.5004
        19.2504
 -19551424.95348 -13011285.72347  20340810.3594   20340800.1174         48.2504
        42.2504
 -10649112.87546  -6759989.60544  23309624.6884   23309614.6214         38.0004
        26.0004
 -22878785.03947 -15304588.34445  21503695.7274   21503682.7894         44.7504
        34.0004
  -5944971.19546  -5836044.18744  23446812.3444   23446797.1214         39.7504
        24.7504
 15  1  3  0  1  0.0000000  0  8G12G29G31G06G25G24G14G02
  -5924820.48447  -3991419.08645  22042815.0864   22042802.1484         44.5004
        34.0004
 -18557358.41047 -14266847.75447  20299054.4534   20299041.9264         47.7504
        42.0004
 -14315609.18747 -10405625.39145  22467046.1884   22467032.0784         42.5004
        31.2504
    892143.54745    -95555.26242  25236564.3674   25236554.0664         35.0004
        17.7504
 -19538045.33248 -13000860.04747  20343356.1484   20343345.7304         48.2504
        42.0004
 -10553685.50046  -6685630.64144  23327783.8524   23327774.1954         38.5004
        25.5004
 -22843250.18747 -15276898.85945  21510457.5084   21510444.3954         44.5004
        33.2504
  -5939909.85946  -5832100.28544  23447775.8204   23447759.6024         39.7504
        25.2504
 15  1  3  0  1 30.0000000  0  8G12G29G31G06G25G24G14G02
  -5855047.70747  -3937050.70745  22056091.9694   22056078.7384         43.2504
        33.0004
 -18603122.35248 -14302507.96147  20290346.3284   20290333.5664         48.0004
        42.0004
 -14398609.45347 -10470300.90245  22451251.3364   22451237.8714         42.5004
        31.7504
    954971.03945    -46598.73042  25248519.7344   25248509.1994         34.7504
        17.7504
 -19524399.42248 -12990226.87147  20345952.9454   20345942.5274         48.7504
        42.2504
 -10458049.75446  -6611109.30144  23345982.9614   23345973.3054         38.7504
        26.2504
 -22807169.63347 -15248784.14545  21517323.6094   21517310.6724         44.5004
        33.2504
  -5934359.25046  -5827775.13744  23448831.4534   23448815.8794         39.5004
        24.5004
 15  1  3  0  2  0.0000000  0  8G12G29G31G06G25G24G14G02
  -5785155.74647  -3882589.45745  22069392.4694   22069378.8874         43.2504
        33.5004
 -18648367.87547 -14337764.19947  20281736.5944   20281723.1884         47.7504
        42.5004
 -14481433.55547 -10534839.14845  22435489.8284   22435477.0084         43.0004
        31.7504
   1018226.35945      2691.12142  25260557.2114   25260547.2034         34.2504
        16.7504
 -19510487.60548 -12979386.50047  20348600.7734   20348590.1804         48.2504
        42.0004
 -10362206.86746  -6536426.57044  23364222.1484   23364211.6134         38.2504
        24.5004
 -22770544.80547 -15220245.32445  21524293.2344   21524280.0044         44.2504
        33.2504
  -5928319.00446  -5823068.43744  23449979.9694   23449965.2734         39.5004
        25.5004
 15  1  3  0  2 30.0000000  0  8G12G29G31G06G25G24G14G02
  -5715145.65247  -3828036.16445  22082714.0164   22082701.6644         42.7504
        33.5004
 -18693094.12548 -14372615.81647  20273225.2664   20273211.8014         48.0004
        42.5004
 -14564079.70747 -10599238.71545  22419763.1884   22419750.0744         42.7504
        31.2504
   1081907.41045     52312.71143  25272675.4774   25272665.2344         35.2504
        19.5004
 -19496310.34448 -12968339.27746  20351298.7584   20351287.5204         48.0004
        41.7504
 -10266158.02046  -6461583.33244  23382499.8444   23382488.9574         39.0004
        26.0004
 -22733377.54747 -15191283.83245  21531365.8134   21531352.9344         43.2504
        32.5004
  -5921789.12146  -5817980.21544  23451223.3914   23451208.8134         38.7504
        24.2504
 15  1  3  0  3  0.0000000  0  8G12G29G31G06G25G24G14G02
  -5645018.50447  -3773391.64545  22096059.0864   22096046.4414         43.0004
        33.5004
 -18737300.51647 -14407062.34047  20264813.0944   20264800.3914         47.0004
        42.5004
 -14646545.96947 -10663498.12545  22404070.0864   22404057.0904         43.0004
        32.0004
   1146012.39145    102264.66042  25284875.1334   25284863.8954         34.2504
        16.2504
 -19481868.10547 -12957085.58647  20354046.2424   20354035.8244         47.5004
        42.2504
 -10169905.03146  -6386581.03944  23400815.6414   23400805.0474         38.5004
        25.2504
 -22695669.44547 -15161900.91445  21538541.3364   21538528.5164         43.2504
        32.5004
  -5914769.21946  -5812510.16844  23452558.9384   23452544.5944         38.5004
        25.0004
 15  1  3  0  3 30.0000000  0  8G12G29G31G06G25G24G14G02
  -5574775.19947  -3718656.62945  22109425.9924   22109413.5824         42.5004
        33.5004
 -18780986.25448 -14441103.16847  20256500.0864   20256486.8554         48.0004
        42.5004
 -14728830.21547 -10727615.69945  22388412.3054   22388399.3674         42.2504
        31.0004
   1210539.20745    152545.30543  25297154.6564   25297142.8914         34.0004
        18.5004
 -19467161.26648 -12945625.71947  20356845.2504   20356834.6564         48.0004
        42.5004
 -10073448.96546  -6311420.47344  23419170.7894   23419159.3754         39.0004
        24.7504
 -22657421.95747 -15132097.68745  21545819.2664   21545806.5634         43.2504
        32.7504
  -5907259.03946  -5806658.06644  23453987.6724   23453973.2704         39.5004
        24.2504
 15  1  3  0  4  0.0000000  0  8G12G29G31G06G25G24G14G02
  -5504415.61347  -3663831.00045  22122815.2034   22122802.3834         42.7504
        33.0004
 -18824150.60547 -14474737.71547  20248285.8914   20248272.9534         47.7504
        42.2504
 -14810930.88346 -10791590.22345  22372788.8914   22372776.0124         41.7504
        32.0004
   1275485.83645    203153.03942  25309511.9304   25309501.8054         34.0004
        16.2504
 -19452190.32047 -12933960.04746  20359693.8674   20359683.5664         47.2504
        41.7504
  -9976791.25446  -6236102.77744  23437563.4304   23437552.7774         38.5004
        25.0004
 -22618636.96147 -15101875.63745  21553200.4144   21553187.5354         44.2504
        33.5004
  -5899258.29346  -5800423.70744  23455511.2974   23455496.2504         40.0004
        28.0004
 15  1  3  0  4 30.0000000  0  8G12G29G31G06G25G24G14G02
  -5433940.65647  -3608915.46945  22136225.8134   22136213.2274         42.5004
        33.0004
 -18866793.35248 -14507965.81647  20240171.7114   20240158.7154         48.0004
        42.5004
 -14892845.72347 -10855419.96945  22357201.0234   22357188.2624         42.2504
        31.7504
   1340850.26645    254086.40642  25321951.9454   25321940.2974         33.2504
        16.2504
 -19436955.64147 -12922088.87547  20362593.2114   20362582.3834         47.7504
        42.0004
  -9879933.00446  -6160628.87144  23455995.7974   23455984.4414         38.2504
        24.2504
 -22579316.12947 -15071236.03945  21560682.9224   21560669.9844         44.2504
        33.7504
  -5890767.15246  -5793807.23444  23457127.3984   23457111.9414         40.0004
        24.2504
 15  1  3  0  5  0.0000000  0  8G12G29G31G06G25G24G14G02
  -5363350.99647  -3553910.56245  22149659.0784   22149646.2584         43.2504
        33.2504
 -18908913.15247 -14540786.43047  20232156.2114   20232143.2154         47.5004
        42.5004
 -14974572.64547 -10919103.28545  22341648.6644   22341635.8444         42.7504
        32.0004
   1406630.57445    305343.71542  25334468.5234   25334458.1644         32.5004
        15.5004
 -19421457.68748 -12910012.54747  20365542.5234   20365531.6954         48.0004
        42.0004
  -9782876.10246  -6085000.14543  23474464.8054   23474453.5664         37.5004
        23.7504
 -22539460.80947 -15040179.95745  21568267.4694   21568254.0634         44.5004
        34.0004
  -5881785.28546  -5786808.36344  23458836.7194   23458820.9104         41.0004
        25.7504
 15  1  3  0  5 30.0000000  0  8G12G29G31G06G25G24G14G02
  -5292647.21147  -3498816.72345  22163113.8984   22163100.6094         43.7504
        33.5004
 -18950509.58248 -14573199.23047  20224240.6954   20224228.1684         48.5004
        42.5004
 -15056109.27747 -10982638.31645  22326132.6884   22326120.2194         42.7504
        32.0004
   1472824.59845    356923.39842  25347063.8054   25347054.6174         32.0004
        14.7504
 -19405696.85548 -12897731.38346  20368541.6414   20368530.6954         48.2504
        41.7504
  -9685621.30546  -6009217.16843  23492971.2584   23492960.1954         36.7504
        22.0004
 -22499073.04347 -15008708.99245  21575952.4614   21575939.6994         44.2504
        33.0004
  -5872312.66846  -5779427.10544  23460639.3674   23460623.5594         40.5004
        25.0004
 15  1  3  0  6  0.0000000  0  8G12G29G31G06G25G24G14G02
  -5221830.02347  -3443634.51245  22176590.2194   22176576.8134         43.5004
        33.5004
 -18991581.91047 -14605203.63347  20216425.0314   20216411.6254         47.5004
        42.5004
 -15137454.50447 -11046024.19945  22310653.5784   22310640.2304         42.7504
        32.5004
   1539430.40655    408824.09852  25359739.8914   25359729.5904         30.5004
        13.7504
 -19389673.57448 -12885245.71546  20371590.6024   20371579.6564         48.0004
        41.7504
  -9588170.43746  -5933281.44943  23511515.0234   23511505.1914         37.5004
        22.2504
 -22458154.39847 -14976824.34045  21583738.8984   21583726.1954         44.5004
        33.5004
  -5862348.94546  -5771663.14844  23462534.2504   23462518.7344         40.0004
        24.7504
 15  1  3  0  6 30.0000000  0  8G12G29G31G06G25G24G14G02
  -5150899.98847  -3388364.37545  22190087.8914   22190074.6604         43.7504
        32.5004
 -19032129.77747 -14636799.36747  20208708.8594   20208695.9804         47.7504
        42.5004
 -15218605.94947 -11109259.09445  22295210.6024   22295197.6054         42.5004
        33.5004
   1606445.93845    461044.00842  25372491.5704   25372483.0274         32.7504
        16.7504
 -19373388.29748 -12872555.89546  20374689.0554   20374678.8714         48.0004
        41.5004
  -9490524.82046  -5857194.00043  23530097.4924   23530086.3714         37.7504
        22.7504
 -22416706.86747 -14944527.56645  21591626.0234   21591613.2624         44.0004
        32.7504
  -5851894.10246  -5763516.52043  23464524.8284   23464508.5514         40.0004
        23.7504
 15  1  3  0  7  0.0000000  0  8G12G29G31G06G25G24G14G02
  -5079857.53547  -3333006.63745  22203606.5474   22203592.7894         43.0004
        33.0004
 -19072152.42247 -14667985.84047  20201092.6644   20201079.6684         47.7504
        42.7504
 -15299561.60947 -11172341.41445  22279806.0164   22279792.4924         43.2504
        32.5004
   1673869.09445    513581.46142  25385322.4454   25385314.1954         31.0004
        15.5004
 -19356841.40647 -12859662.21946  20377838.0944   20377827.6174         47.5004
        41.5004
  -9392685.60946  -5780955.67243  23548714.7584   23548704.9844         37.2504
        22.7504
 -22374732.03947 -14911819.92245  21599613.4144   21599600.8874         43.5004
        32.5004
  -5840948.46546  -5754987.43444  23466606.9454   23466591.6644         39.2504
        24.2504
 15  1  3  0  7 30.0000000  0  8G12G29G31G06G25G24G14G02
  -5008703.39847  -3277561.86745  22217146.8524   22217132.9184         43.0004
        32.7504
 -19111649.15248 -14698762.49647  20193576.7894   20193563.9104         48.0004
        42.5004
 -15380319.33647 -11235269.50845  22264437.5314   22264424.4774         43.2504
        33.2504
   1741697.79345    566435.04342  25398229.0084   25398221.1684         31.7504
        16.2504
 -19340033.27048 -12846564.97346  20381036.6804   20381026.2624         48.0004
        41.5004
  -9294654.06646  -5704567.47743  23567370.3674   23567360.0664         37.7504
        23.0004
 -22332231.71147 -14878702.79345  21607701.5554   21607688.3834         44.0004
        32.5004
  -5829511.89546  -5746075.82044  23468782.6254   23468767.6954         39.5004
        24.2504
 15  1  3  0  8  0.0000000  0  8G12G29G31G06G25G24G14G02
  -4937438.93447  -3222031.14845  22230707.5554   22230694.3244         43.2504
        32.7504
 -19150619.73047 -14729129.16847  20186161.0164   20186147.6094         47.7504
        42.7504
 -15460877.03547 -11298041.73845  22249107.9304   22249095.0514         44.0004
        33.0004
   1809929.80545    619602.70342  25411213.4144   25411205.5744         30.5004
        15.5004
 -19322964.45348 -12833264.59846  20384285.0004   20384274.2894         48.0004
        41.5004
  -9196432.09445  -5628030.92243  23586060.1564   23586050.6764         35.5004
        21.5004
 -22289207.53947 -14845177.48445  21615888.1954   21615875.6094         42.7504
        31.7504
  -5817583.89546  -5736781.27343  23471053.0554   23471037.5394         40.2504
        22.7504
 15  1  3  0  8 30.0000000  0  8G12G29G31G06G25G24G14G02
  -4866064.18447  -3166414.46545  22244290.6954   22244276.5274         43.5004
        32.0004
 -19189063.55148 -14759085.39147  20178845.2814   20178832.3444         48.2504
        42.7504
 -15541233.28547 -11360656.99245  22233816.9774   22233804.2734         43.7504
        33.5004
   1878563.17255    673083.26252  25424273.8984   25424266.9384         30.0004
        13.7504
 -19305635.16448 -12819761.25446  20387582.5164   20387571.9224         48.2504
        41.5004
  -9098021.01245  -5551346.99243  23604787.8204   23604777.8714         35.5004
        21.5004
 -22245661.57447 -14811245.57845  21624175.8204   21624161.7704         42.2504
        31.5004
  -5805164.77346  -5727104.02744  23473416.6724   23473400.8634         39.7504
        24.5004
 15  1  3  0  9  0.0000000  0  8G12G29G31G06G25G24G14G02
  -4794578.99247  -3110711.73845  22257892.2974   22257880.0634         43.0004
        31.0004
 -19226980.14547 -14788630.78547  20171629.7894   20171616.9104         47.7504
        43.0004
 -15621385.06647 -11423112.91845  22218564.8754   22218551.4104         44.0004
        33.2504
   1947595.898 5                  25437410.766                          31.750

 -19288045.94547 -12806055.36746  20390929.8054   20390919.2114         47.2504
        41.0004
  -8999422.25045  -5474516.80143  23623550.0704   23623540.2974         34.5004
        20.5004
 -22201595.69547 -14776908.54345  21632560.4924   21632547.6724         42.2504
        31.5004
  -5792254.47346  -5717044.05144  23475873.5314   23475857.4884         39.0004
        24.5004
 15  1  3  0  9 30.0000000  0  8G12G29G31G06G25G24G14G02
  -4722984.69147  -3054924.01245  22271517.6024   22271503.1994         43.0004
        31.7504
 -19264368.86348 -14817764.84447  20164514.9224   20164502.1604         48.2504
        42.7504
 -15701331.19547 -11485408.59845  22203351.3594   22203338.1884         43.5004
        33.2504
   2017025.777 5                  25450624.297                          30.000

 -19270197.15648 -12792147.22346  20394326.2344   20394315.6994         48.2504
        41.5004
  -8900636.91445  -5397541.29743  23642347.1954   23642338.1844         33.5004
        19.2504
 -22157011.52047 -14742167.63745  21641045.2894   21641031.2974         42.5004
        31.7504
  -5778853.26246  -5706601.56244  23478423.5704   23478408.4064         38.5004
        24.0004
 15  1  3  0 10  0.0000000  0  8G12G29G31G06G25G24G14G02
  -4651281.80947  -2999051.64545  22285161.9774   22285148.3954         43.5004
        31.7504
 -19301229.03548 -14846487.03947  20157500.4694   20157487.7074         48.5004
        42.5004
 -15781069.55547 -11547542.38745  22188178.1254   22188164.1334         44.0004
        33.5004
   2086850.60515                  25463910.797                          31.000

 -19252089.19947 -12778037.13346  20397771.7734   20397761.7074         47.7504
        41.5004
  -8801666.65245  -5320421.61743  23661180.1254   23661171.4064         33.7504
        19.7504
 -22111911.37147 -14707024.67645  21649626.6954   21649614.1094         43.5004
        32.0004
  -5764960.91046  -5695776.34044  23481066.6564   23481051.8444         38.7504
        24.5004
 15  1  3  0 10 30.0000000  0  8G12G29G31G06G25G24G14G02
  -4579470.94547  -2943095.14145  22298827.0474   22298813.6414         42.5004
        31.2504
 -19337560.41848 -14874797.19947  20150587.1954   20150574.4924         48.0004
        43.0004
 -15860597.83647 -11609512.46145  22173044.3364   22173030.9884         44.5004
        33.7504
   2157068.29314                  25477275.016                          29.750

 -19233722.47348 -12763725.40246  20401266.9534   20401256.2424         48.2504
        41.5004
  -8702513.00445  -5243159.05943  23680047.9694   23680040.1294         32.5004
        18.2504
 -22066297.09847 -14671481.10245  21658307.3284   21658293.9224         43.5004
        32.0004
  -5750577.63346  -5684568.58643  23483803.1414   23483789.1484         38.2504
        22.2504
 15  1  3  0 11  0.0000000  0  8G12G29G31G06G25G24G14G02
  -4507552.90647  -2887055.13745  22312513.1484   22312498.7464         43.2504
        31.5004
 -19373362.35248 -14902694.79347  20143774.3134   20143760.9064         48.2504
        42.7504
 -15939913.80147 -11671317.10245  22157950.4774   22157938.0084         43.7504
        33.5004
   2227676.67215                  25490709.469                          31.250

 -19215097.37148 -12749212.34446  20404811.3984   20404800.6294         48.2504
        41.7504
  -8603176.63345  -5165754.14842  23698951.6884   23698943.3204         32.5004
        17.2504
 -22020170.28947 -14635538.15645  21667084.4844   21667071.8404         42.7504
        32.2504
  -5735703.52346  -5672978.37943  23486634.3674   23486619.4964         38.0004
        22.7504
 15  1  3  0 11 30.0000000  0  8G12G29G31G06G25G24G14G02
  -4435527.50047  -2830931.46145  22326218.3524   22326205.0634         42.5004
        30.7504
 -19408634.71148 -14930179.74647  20137062.3204   20137049.2664         48.5004
        43.2504
 -16019015.62547 -11732954.88345  22142898.6024   22142884.6094         43.7504
        33.5004
   2298673.60915                  25504220.484                          30.750

 -19196214.30148 -12734498.25446  20408404.6954   20408394.3954         48.2504
        41.7504
  -8503660.00845  -5088208.75443  23717890.9224   23717880.5044         34.0004
        19.2504
 -21973532.95747 -14599197.38745  21675959.2974   21675946.3594         44.0004
        32.7504
  -5720338.89146  -5661005.92643  23489557.6174   23489542.5124         38.5004
        22.5004
 15  1  3  0 12  0.0000000  0  8G12G29G31G06G25G24G14G02
  -4363395.66047  -2774724.84845  22339944.3364   22339931.2814         43.0004
        31.5004
 -19443377.02748 -14957251.68047  20130451.0864   20130438.0314         48.7504
        43.2504
 -16097901.35247 -11794424.26645  22127886.8284   22127873.7734         44.5004
        34.0004
   2370056.859 5                  25517802.695                          32.000

 -19177073.63348 -12719583.45346  20412046.8674   20412036.5664         48.2504
        41.7504
  -8403964.41045  -5010523.89143  23736862.6334   23736852.6844         34.7504
        20.2504
 -21926387.22347 -14562460.46945  21684930.9384   21684918.4104         43.7504
        33.5004
  -5704483.54346  -5648651.11343  23492574.7504   23492559.9384         38.2504
        22.7504
 15  1  3  0 12 30.0000000  0  8G12G29G31G06G25G24G14G02
  -4291158.43047  -2718436.12545  22353691.6174   22353677.3914         43.5004
        30.7504
 -19477589.03548 -14983910.38347  20123940.0944   20123927.7424         48.0004
        43.0004
 -16176568.63347 -11855723.43045  22112916.9144   22112903.1564         44.5004
        34.0004
   2441824.43815                  25531461.922                          31.000

 -19157675.75048 -12704468.22346  20415738.3594   20415727.5904         48.2504
        41.5004
  -8304090.91846  -4932700.42243  23755867.5164   23755858.7384         36.0004
        21.5004
 -21878735.31647 -14525329.12545  21693998.7734   21693985.9534         43.7504
        32.7504
  -5688137.87946  -5635914.21144  23495685.8134   23495670.6484         37.5004
        25.2504
 15  1  3  0 13  0.0000000  0  8G12G29G31G06G25G24G14G02
  -4218815.73047  -2662065.21145  22367456.8204   22367443.8244         43.0004
        31.0004
 -19511270.34048 -15010155.55147  20117531.1174   20117517.8284         48.2504
        42.5004
 -16255015.68447 -11916851.00045  22097988.7664   22097975.1844         44.5004
        34.7504
   2513974.145 5                  25545191.094                          31.250

 -19138021.05948 -12689152.88746  20419478.9304   20419467.7504         49.0004
        41.5004
  -8204041.15645  -4854739.60943  23774906.2734   23774896.9694         35.2504
        21.2504
 -21830579.03147 -14487804.76245  21703163.0234   21703149.7344         43.7504
        31.7504
  -5671301.81246  -5622795.19143  23498890.4224   23498874.2624         40.2504
        22.7504
 15  1  3  0 13 30.0000000  0  8G12G29G31G06G25G24G14G02
  -4146369.02747  -2605613.25045  22381243.7274   22381230.2624         43.0004
        31.0004
 -19544420.78947 -15035987.05947  20111222.8284   20111209.9494         47.7504
        43.0004
 -16333240.73047 -11977805.56645  22083103.0314   22083089.5084         45.0004
        33.5004
   2586503.813 5                  25558992.406                          33.000

 -19118109.93048 -12673637.72346  20423267.3284   20423256.9104         48.5004
        41.7504
  -8103816.71145  -4776642.66043  23793979.0474   23793969.2734         35.0004
        21.5004
 -21781920.37947 -14449888.94145  21712422.4774   21712409.5984         43.2504
        31.7504
  -5653975.73846  -5609294.35244  23502187.4454   23502171.1094         39.7504
        24.5004
 15  1  3  0 14  0.0000000  0  8G12G29G31G06G25G24G14G02
  -4073817.93047  -2549079.94945  22395049.3284   22395035.8054         42.7504
        31.2504
 -19577039.76248 -15061404.43447  20105015.5394   20105002.7774         48.0004
        43.0004
 -16411241.41047 -12038585.31645  22068260.4844   22068246.8444         45.0004
        34.0004
   2659411.125 5                  25572864.625                          30.250

 -19097942.73448 -12657923.02746  20427104.8524   20427094.4924         48.7504
        41.5004
  -8003418.50846  -4698410.36343  23813083.6484   23813074.9304         36.2504
        22.5004
 -21732761.29347 -14411583.17645  21721777.2114   21721763.6884         43.2504
        30.7504
  -5636159.65246  -5595411.67244  23505577.3134   23505561.4454         40.2504
        24.7504
 15  1  3  0 14 30.0000000  0  8G12G29G31G06G25G24G14G02
  -4001162.69147  -2492465.48845  22408875.1414   22408861.9104         42.7504
        32.0004
 -19609126.84047 -15086407.34047  20098909.7034   20098897.0594         47.7504
        43.5004
 -16489015.43447 -12099188.43745  22053460.1254   22053446.4844         45.0004
        34.2504
                                  25586808.047                          26.750

 -19077519.86748 -12642009.10947  20430991.2504   20430981.1844         49.0004
        42.0004
  -7902848.39146  -4620044.05143  23832222.0234   23832212.4844         36.2504
        21.5004
 -21683103.98447 -14372889.18745  21731226.4454   21731213.6844         43.0004
        31.2504
  -5617854.18046  -5581147.68443  23509059.8594   23509044.6374         39.7504
        22.7504
 15  1  3  0 15  0.0000000  0  8G12G29G31G06G25G24G14G02
  -3928404.24247  -2435770.61745  22422720.8364   22422707.7234         42.7504
        31.0004
 -19640681.77348 -15110995.60247  20092905.1254   20092892.0124         48.5004
        44.0004
 -16566560.44947 -12159613.11745  22038703.9924   22038690.1764         45.0004
        33.7504
                                  25600824.398                          26.750

 -19056841.70747 -12625896.25446  20434926.1804   20434916.0554         47.7504
        41.5004
  -7802108.08245  -4541545.14843  23851391.8914   23851382.8794         35.0004
        21.5004
 -21632950.79747 -14333808.79345  21740770.1484   21740757.3874         43.2504
        31.2504
  -5599059.31246  -5566502.34443  23512637.4614   23512621.6524         38.2504
        22.5004
 15  1  3  0 15 30.0000000  0  7G12G29G31G25G24G14G02
  -3855544.05147  -2378996.46545  22436585.8444   22436572.7304         43.2504
        32.0004
 -19671704.70748 -15135169.30147  20087001.6724   20086988.7344         48.0004
        43.7504
 -16643874.84447 -12219858.09045  22023991.0394   22023978.0434         45.0004
        33.0004
 -19035908.59048 -12609584.73046  20438909.3134   20438899.0704         48.0004
        41.7504
  -7701198.76245  -4462914.55543  23870595.2344   23870585.6954         35.7504
        22.0004
 -21582303.50847 -14294343.39545  21750408.4924   21750395.3794         43.5004
        31.5004
  -5579775.41046  -5551475.93044  23516306.9694   23516291.5704         39.5004
        24.5004
 15  1  3  0 16  0.0000000  0  7G12G29G31G25G24G14G02
  -3782581.46947  -2322142.52745  22450469.8444   22450457.0824         43.7504
        30.7504
 -19702195.21948 -15158928.12547  20081199.2504   20081186.5474         48.5004
        43.5004
 -16720956.53147 -12279921.73845  22009323.1804   22009309.4804         44.2504
        33.7504
 -19014720.93048 -12593074.87146  20442941.8984   20442931.2464         48.5004
        41.7504
  -7600122.12546  -4384153.59443  23889830.1954   23889819.9534         38.0004
        22.5004
 -21531164.12947 -14254494.53945  21760140.0004   21760126.8284         43.7504
        31.5004
  -5560002.46146  -5536068.43043  23520069.3984   23520053.7074         40.7504
        22.5004
 15  1  3  0 16 30.0000000  0  7G12G29G31G25G24G14G02
  -3709517.05147  -2265209.24245  22464373.4384   22464360.5594         42.7504
        30.2504
 -19732153.07448 -15182271.89847  20075498.3444   20075485.5234         48.5004
        43.5004
 -16797803.53547 -12339802.51645  21994699.5234   21994686.0004         45.5004
        34.0004
 -18993279.05548 -12576366.91846  20447021.9924   20447011.4574         48.2504
        41.7504
  -7498879.68746  -4305263.41443  23909095.4694   23909085.5204         38.5004
        22.5004
 -21479535.05147 -14214264.09445  21769964.4384   21769951.1484         44.2504
        31.5004
  -5539741.05946  -5520280.30944  23523924.8284   23523909.6054         40.2504
        25.2504
 15  1  3  0 17  0.0000000  0  7G12G29G31G25G24G14G02
  -3636351.72747  -2208197.30545  22478296.7584   22478283.1764         43.2504
        30.2504
 -19761578.05948 -15205200.45347  20069899.5234   20069886.3524         48.5004
        44.0004
 -16874413.43447 -12399498.53545  21980121.1334   21980108.0784         44.5004
        33.5004
 -18971583.34448 -12559461.17246  20451150.8444   20451139.9574         48.2504
        41.2504
  -7397472.83646  -4226245.05943  23928392.3914   23928381.0944         37.2504
        20.0004
 -21427418.53947 -14173653.82845  21779882.2034   21779868.8554         44.2504
        33.0004
  -5518991.58646  -5504111.87144  23527873.2344   23527858.0704         40.0004
        26.2504
 15  1  3  0 17 30.0000000  0  7G12G29G31G25G24G14G02
  -3563085.83647  -2151107.02345  22492238.4844   22492225.4304         43.0004
        30.0004
 -19790469.91448 -15227713.59047  20064401.2734   20064388.1024         48.7504
        43.7504
 -16950784.25447 -12459008.26645  21965588.8754   21965574.6484         44.5004
        34.0004
 -18949634.14547 -12542357.90646  20455327.3754   20455316.7234         47.7504
        41.2504
  -7295902.59446  -4147099.43443  23947720.4614   23947710.3954         37.5004
        22.0004
 -21374816.74647 -14132665.43045  21789891.8134   21789878.2894         44.0004
        31.2504
  -5497754.29346  -5487563.34843  23531914.4454   23531899.2814         39.5004
        23.2504
 15  1  3  0 18  0.0000000  0  7G12G29G31G25G24G14G02
  -3489720.17647  -2093938.98445  22506199.7114   22506186.3634         43.0004
        30.0004
 -19818828.71948 -15249811.35547  20059004.9144   20058991.9184         49.0004
        43.7504
 -17026914.00047 -12518330.13345  21951101.9384   21951087.8284         44.5004
        34.5004
 -18927431.84448 -12525057.41446  20459552.2114   20459541.7934         48.5004
        41.5004
  -7194171.05546  -4067828.16043  23967080.4924   23967069.0204         38.0004
        22.7504
 -21321731.94147 -14091300.65645  21799993.1094   21799980.0554         43.7504
        32.0004
  -5476029.57046  -5470634.99244  23536047.9694   23536033.2734         38.5004
        24.2504
 15  1  3  0 18 30.0000000  0  7G12G29G31G25G24G14G02
  -3416255.27747  -2036693.63345  22520179.2424   22520166.8914         42.7504
        31.2504
 -19846654.16448 -15271493.51647  20053710.1254   20053696.7194         48.7504
        44.0004
 -17102800.50447 -12577462.46945  21936661.0704   21936647.7814         44.5004
        35.5004
 -18904976.76248 -12507559.95746  20463825.5474   20463814.6024         48.5004
        41.0004
  -7092279.55946  -3988432.25043  23986468.5944   23986458.8204         36.7504
        22.0004
 -21268166.18747 -14049561.11345  21810186.6564   21810173.8364         43.7504
        31.5004
  -5453817.78946  -5453327.10544  23540275.6254   23540260.1684         39.7504
        25.5004
 15  1  3  0 19  0.0000000  0  7G12G29G31G25G24G14G02
  -3342691.35947  -1979371.13745  22534177.9844   22534165.2814         42.5004
        31.0004
 -19873946.17248 -15292760.00847  20048516.4064   20048503.0004         48.7504
        44.0004
 -17178441.66447 -12636403.62945  21922267.2504   21922253.1414         44.7504
        34.5004
 -18882269.26647 -12489865.80946  20468146.3284   20468136.0274         47.7504
        41.5004
  -6990229.69545  -3908912.90243  24005887.4774   24005878.2304         35.5004
        20.5004
 -21214121.62547 -14007448.47745  21820471.0474   21820458.1684         43.0004
        32.5004
  -5431119.57046  -5435640.18443  23544594.9304   23544579.1214         38.7504
        22.7504
 15  1  3  0 19 30.0000000  0  7G12G29G31G25G24G14G02
  -3269028.26647  -1921971.33645  22548196.2664   22548182.7424         43.0004
        30.7504
 -19900704.63348 -15313610.74647  20043424.2734   20043411.5124         49.0004
        44.5004
 -17253835.16047 -12695151.80545  21907920.1644   21907906.2304         45.5004
        35.5004
 -18859309.69548 -12471975.23046  20472515.6334   20472504.8634         48.2504
        40.7504
  -6888022.91045  -3829271.30543  24025337.7894   24025327.4304         34.5004
        20.5004
 -21159600.73447 -13964964.69145  21830846.8914   21830833.2504         43.5004
        33.0004
  -5407935.28546  -5417574.48843  23549006.4534   23548990.9384         39.0004
        22.5004
 15  1  3  0 20  0.0000000  0  7G12G29G31G25G24G14G02
  -3195267.27047  -1864495.25445  22562232.8134   22562218.7034         42.5004
        30.5004
 -19926929.69548 -15334045.84847  20038433.7894   20038420.6174         48.7504
        44.5004
 -17328979.03947 -12753705.46945  21893620.8364   21893606.9024         45.7504
        35.0004
 -18836098.43448 -12453888.53946  20476932.7274   20476921.6644         48.2504
        41.0004
  -6785660.75845  -3749508.62143  24044815.9454   24044806.3484         35.0004
        19.7504
 -21104605.74247 -13922111.48045  21841311.7814   21841298.1994         42.5004
        32.0004
  -5384264.86346  -5399129.98443  23553511.0164   23553495.5004         39.5004
        23.7504
 15  1  3  0 20 30.0000000  0  7G12G29G31G25G24G14G02
  -3121408.73447  -1806943.16044  22576287.1174   22576273.7704         42.5004
        29.7504
 -19952621.23448 -15354065.22347  20033544.3984   20033531.8714         49.0004
        44.2504
 -17403871.18047 -12812062.97345  21879369.5164   21879355.4654         45.7504
        35.7504
 -18812635.77747 -12435605.95746  20481397.4924   20481386.4884         47.7504
        41.0004
  -6683145.02045  -3669626.30143  24064324.5004   24064314.7854         34.0004
        19.7504
 -21049138.70747 -13878890.42645  21851866.7664   21851853.3594         42.0004
        31.2504
  -5360109.09046  -5380307.30943  23558108.0634   23558092.0204         40.2504
        23.5004
 15  1  3  0 21  0.0000000  0  7G12G29G31G25G24G14G02
  -3047453.10547  -1749315.41845  22590360.6724   22590347.0314         42.7504
        30.7504
 -19977778.97748 -15373668.65247  20028757.3054   20028744.3094         48.5004
        44.0004
 -17478509.52747 -12870222.72346  21865166.2424   21865152.5434         46.2504
        36.0004
 -18788922.05948 -12417127.73846  20485910.0474   20485899.1604         48.5004
        40.7504
  -6580476.73045  -3589625.10243  24083860.2344   24083852.2774         33.5004
        18.5004
 -20993202.03146 -13835303.41445  21862510.8914   21862498.0704         41.7504
        30.7504
  -5335468.67246  -5361106.98844  23562796.5394   23562781.1994         40.5004
        25.2504
 15  1  3  0 21 30.0000000  0  7G12G29G31G25G24G14G02
  -2973400.60247  -1691612.19945  22604452.3984   22604439.0514         43.0004
        30.5004
 -20002402.99648 -15392856.19147  20024071.6644   20024058.8444         49.0004
        44.2504
 -17552891.87547 -12928182.98846  21851011.6254   21850997.4574         46.0004
        36.0004
 -18764957.68748 -12398454.21146  20490470.2344   20490459.4654         48.5004
        41.5004
  -6477657.66845  -3509506.42243  24103427.8834   24103418.1684         34.7504
        19.0004
 -20936798.22347 -13791352.43045  21873243.6644   21873231.0204         42.0004
        30.7504
  -5310343.92246  -5341529.24244  23567578.8984   23567561.9774         40.0004
        25.5004
 15  1  3  0 22  0.0000000  0  7G12G29G31G25G24G14G02
  -2899252.06647  -1633834.14545  22618561.7664   22618549.2384         42.5004
        30.5004
 -20026493.43448 -15411627.96147  20019487.5394   20019474.3674         48.7504
        44.0004
 -17627016.14147 -12985942.14546  21836906.1174   21836892.6524         46.0004
        36.2504
 -18740742.97348 -12379585.60946  20495078.0084   20495067.7074         48.0004
        41.0004
  -6374690.02045  -3429271.91443  24123021.0394   24123010.9734         35.0004
        18.5004
 -20879929.55946 -13747039.21145  21884065.5164   21884052.4614         41.2504
        30.5004
  -5284735.47346  -5321574.59443  23572451.4774   23572434.8484         38.0004
        22.7504
 15  1  3  0 22 30.0000000  0  7G12G29G31G25G24G14G02
  -2825007.78947  -1575981.49645  22632690.5084   22632677.5704         42.5004
        30.2504
 -20050050.25448 -15429983.91847  20015004.8914   20014991.7774         49.0004
        44.5004
 -17700880.17247 -13043498.52346  21822850.2424   21822836.8364         46.0004
        36.5004
 -18716278.18447 -12360522.14146  20499733.3984   20499722.9224         47.5004
        40.7504
  -6271574.46945  -3348922.16842  24142643.0394   24142633.2664         33.5004
        17.7504
 -20822598.35247 -13702365.55545  21894975.8594   21894962.4534         42.0004
        30.5004
  -5258643.81246  -5301243.45343  23577415.4144   23577399.7814         37.0004
        22.0004
 15  1  3  0 23  0.0000000  0  7G12G29G31G25G24G14G02
  -2750668.61347  -1518054.88745  22646837.2664   22646823.4494         42.0004
        30.5004
 -20073073.55948 -15447924.14547  20010623.5864   20010610.6484         49.5004
        45.0004
 -17774481.79747 -13100850.43446  21808844.5164   21808830.4064         46.0004
        36.7504
 -18691563.72748 -12341264.12146  20504436.6094   20504426.1334         48.2504
        41.5004
  -6168312.62145  -3268458.46542  24162293.6884   24162283.3874         33.5004
        17.2504
 -20764806.78547 -13657333.18745  21905973.1804   21905960.1254         42.5004
        30.7504
  -5232069.41446  -5280536.13343  23582472.9614   23582457.0944         39.5004
        23.5004
 15  1  3  0 23 30.0000000  0  7G12G29G31G25G24G14G02
  -2676234.22346  -1460054.07844  22661000.4844   22660987.4884         41.7504
        29.5004
 -20095563.35248 -15465448.64847  20006343.8834   20006331.2384         49.0004
        45.0004
 -17847818.94147 -13157996.25046  21794888.4694   21794874.5944         45.7504
        36.0004
 -18666599.89148 -12321811.78546  20509186.8284   20509176.4694         48.5004
        41.5004
  -6064906.58645  -3187882.36342  24181970.2814   24181960.9774         34.2504
        17.7504
 -20706557.71947 -13611944.32444  21917057.5084   21917044.2774         42.0004
        29.5004
  -5205012.90646  -5259453.13743  23587621.7584   23587605.7734         38.5004
        22.5004
 15  1  3  0 24  0.0000000  0  7G12G29G31G25G24G14G02
  -2601704.93746  -1401979.32444  22675182.5864   22675170.1174         41.2504
        28.7504
 -20117519.92248 -15482557.64847  20002165.8204   20002152.8244         49.5004
        45.0004
 -17920889.43447 -13214934.28545  21780983.9774   21780969.9844         45.7504
        35.5004
 -18641387.02347 -12302165.39846  20513984.8834   20513974.4064         47.5004
        40.5004
  -5961357.49245  -3107194.79342  24201676.0234   24201665.7814         33.7504
        16.7504
 -20647853.38347 -13566200.69144  21928228.2894   21928215.0594         43.2504
        29.5004
  -5177474.77746  -5237994.84443  23592861.8134   23592846.3554         39.0004
        23.0004
 15  1  3  0 24 30.0000000  0  7G12G29G31G25G24G14G02
  -2527081.82846  -1343831.47744  22689383.6174   22689370.9144         41.0004
        29.5004
 -20138943.05148 -15499250.98847  19998089.1954   19998075.9064         49.2504
        45.0004
 -17993691.11347 -13271662.85246  21767129.7194   21767116.1374         46.0004
        36.2504
 -18615925.40648 -12282325.18446  20518830.3204   20518819.3164         48.0004
        41.0004
  -5857666.62945  -3026396.78942  24221405.8754   24221397.6254         31.5004
        16.2504
 -20588695.95747 -13520104.00844  21939485.8364   21939472.1954         43.2504
        29.7504
  -5149455.77046  -5216161.85243  23598193.4304   23598178.0314         39.0004
        22.2504
 15  1  3  0 25  0.0000000  0  7G12G29G31G25G24G14G02
  -2452365.44946  -1285610.96144  22703601.4694   22703589.4694         41.0004
        29.2504
 -20159832.88348 -15515528.77747  19994113.6564   19994100.5434         49.2504
        45.0004
 -18066221.91447 -13328180.36346  21753327.9694   21753314.4454         46.2504
        36.0004
 -18590215.40247 -12262291.41046  20523722.6334   20523711.8634         47.5004
        40.7504
  -5753836.01645  -2945489.88742  24241164.9144   24241157.0164         33.7504
        17.2504
 -20529087.96947 -13473656.23045  21950829.0704   21950815.8404         43.0004
        30.5004
  -5120956.38346  -5193954.52343  23603616.5944   23603601.3714         37.7504
        23.7504
 15  1  3  0 25 30.0000000  0  7G12G29G31G25G24G14G02
  -2377556.29746  -1227318.14844  22717837.4534   22717824.4574         40.5004
        29.0004
 -20180189.83248 -15531391.32847  19990239.9144   19990227.0944         49.5004
        45.0004
 -18138479.89147 -13384485.27746  21739577.6094   21739564.0864         45.7504
        36.5004
 -18564257.30948 -12242064.33246  20528661.9224   20528651.2704         48.0004
        41.0004
  -5649867.35545  -2864475.38343  24260950.2894   24260941.3364         34.2504
        19.2504
 -20469031.95347 -13426859.34445  21962257.0004   21962244.0634         43.7504
        30.2504
  -5091977.70346  -5171373.74644  23609131.3284   23609115.8714         40.5004
        24.5004
 15  1  3  0 26  0.0000000  0  7G12G29G31G25G24G14G02
  -2302653.92246  -1168952.67644  22732091.4534   22732078.2814         41.0004
        29.2504
 -20200013.84448 -15546838.60947  19986467.6174   19986454.4454         49.2504
        44.7504
 -18210462.47347 -13440575.59446  21725880.2114   21725866.2774         46.0004
        36.0004
 -18538051.41448 -12221644.16046  20533649.1724   20533638.3444         48.2504
        40.5004
  -5545761.63345  -2783354.08642  24280759.8984   24280751.5314         32.7504
        16.7504
 -20408530.57847 -13379715.42244  21973770.4304   21973757.2584         42.7504
        29.2504
  -5062520.27046  -5148419.89844  23614737.8524   23614721.6914         39.5004
        25.2504
 15  1  3  0 26 30.0000000  0  7G12G29G31G25G24G14G02
  -2227659.21546  -1110515.26644  22746361.7114   22746348.8914         40.5004
        28.2504
 -20219305.07048 -15561870.72747  19982796.6564   19982783.7774         49.5004
        45.7504
 -18282167.43047 -13496449.58245  21712234.9304   21712220.9384         45.7504
        35.7504
 -18511598.05947 -12201031.16446  20538683.0864   20538672.1994         47.0004
        40.5004
  -5441521.07045  -2702127.70342  24300596.9844   24300588.4414         33.2504
        15.5004
 -20347586.09047 -13332226.23445  21985367.3914   21985354.6294         43.0004
        31.0004
  -5032584.46146  -5125093.30543  23620433.6564   23620418.3164         39.2504
        23.2504
 15  1  3  0 27  0.0000000  0  7G12G29G31G25G24G14G02
  -2152572.80146  -1052006.38744  22760650.3444   22760637.6994         40.5004
        28.7504
 -20238063.76648 -15576487.88347  19979227.1724   19979214.0594         49.0004
        45.7504
 -18353593.21947 -13552106.04346  21698643.2034   21698629.0944         46.2504
        36.0004
 -18484897.59048 -12180225.60546  20543763.7734   20543753.0634         48.0004
        40.7504
  -5337147.32045  -2620797.59043  24320459.7584   24320450.6294         34.0004
        19.2504
 -20286200.70347 -13284393.48044  21997048.5394   21997035.8954         42.2504
        29.0004
  -5002171.10246  -5101394.59043  23626221.3204   23626206.1564         39.0004
        23.7504
 15  1  3  0 27 30.0000000  0  7G12G29G31G25G24G14G02
  -2077394.69146   -993426.07844  22774956.6484   22774943.5354         41.0004
        28.5004
 -20256290.58248 -15590690.58647  19975758.4304   19975745.7854         49.5004
        45.7504
 -18424737.38747 -13607543.05546  21685104.8364   21685090.6684         46.2504
        36.2504
 -18457950.25447 -12159227.68446  20548892.0944   20548881.2074         47.7504
        40.5004
  -5232641.40645  -2539364.46943  24340346.6644   24340337.5944         35.0004
        19.7504
 -20224377.26247 -13236219.38344  22008812.9534   22008800.6604         42.5004
        28.5004
  -4971280.88346  -5077324.28544  23632098.8834   23632084.5984         39.7504
        24.5004
 15  1  3  0 28  0.0000000  0  7G12G29G31G25G24G14G02
  -2002125.50446   -934774.79344  22789279.8444   22789266.9654         40.0004
        28.7504
 -20273985.17648 -15604478.57847  19972391.2504   19972378.1374         49.5004
        45.7504
 -18495597.77747 -13662758.93046  21671619.9694   21671606.4454         46.0004
        36.2504
 -18430756.32448 -12138037.61346  20554066.6954   20554055.8674         48.0004
        40.7504
  -5128005.24645  -2457829.89843  24360258.2814   24360249.1524         33.0004
        18.5004
 -20162118.46147 -13187706.05944  22020660.7194   22020647.4884         42.2504
        29.7504
  -4939914.60546  -5052883.02744  23638067.7194   23638053.4344         39.5004
        24.5004
 15  1  3  0 28 30.0000000  0  7G12G29G31G25G24G14G02
  -1926765.55546   -876052.78944  22803620.0784   22803607.4344         39.5004
        28.7504
 -20291148.12948 -15617852.29747  19969125.4534   19969112.4574         49.2504
        45.5004
 -18566172.23447 -13717752.01246  21658190.3984   21658176.5234         46.5004
        36.2504
 -18403316.17648 -12116655.69546  20559288.3914   20559277.4454         48.2504
        40.5004
  -5023240.33645  -2376194.96143  24380194.1644   24380184.6844         33.2504
        18.2504
 -20099426.52046 -13138855.21944  22032590.6954   22032577.6994         41.7504
        29.7504
  -4908073.10946  -5028071.46144  23644127.7734   23644112.7274         40.0004
        25.2504
 15  1  3  0 29  0.0000000  0  7G12G29G31G25G24G14G02
  -1851315.51246   -817260.57044  22817978.2584   22817964.9104         40.2504
        27.5004
 -20307779.58248 -15630811.86347  19965960.2274   19965947.2894         50.0004
        45.2504
 -18636458.62547 -13772520.62146  21644814.8134   21644801.6414         46.0004
        36.2504
 -18375630.07047 -12095082.10546  20564556.7894   20564545.9024         47.5004
        40.2504
  -4918348.39145  -2294460.96142  24400154.8444   24400145.4804         34.2504
        17.2504
 -20036303.96147 -13089668.83644  22044602.8754   22044589.7034         42.0004
        28.2504
  -4875757.10246  -5002890.14544  23650276.5634   23650261.9844         40.0004
        24.5004
 15  1  3  0 29 30.0000000  0  7G12G29G31G25G24G14G02
  -1775775.58246   -758398.30544  22832353.6884   22832339.8134         41.5004
        28.2504
 -20323880.00048 -15643357.64147  19962896.6174   19962883.7384         49.2504
        45.5004
 -18706454.81247 -13827063.10546  21631495.1174   21631481.9454         46.2504
        36.2504
 -18347698.28148 -12073317.07846  20569872.4454   20569861.3834         48.2504
        40.7504
  -4813330.93045  -2212629.25443  24420139.3444   24420129.8054         35.5004
        20.0004
 -19972753.69146 -13040149.17244  22056695.8834   22056683.1804         41.0004
        29.7504
  -4842967.50446  -4977339.80543  23656516.9534   23656501.3794         39.5004
        23.7504
 15  1  3  0 30  0.0000000  0  7G12G29G31G25G24G14G02
  -1700146.05146   -699466.23044  22846744.8284   22846731.1884         41.0004
        27.5004
 -20339449.69548 -15655489.86347  19959933.9224   19959920.6914         49.7504
        45.5004
 -18776158.39547 -13881377.57846  21618231.0234   21618217.7934         45.5004
        36.5004
 -18319521.14548 -12051360.87146  20575233.7814   20575223.3054         48.0004
        40.5004
  -4708189.32845  -2130700.81243  24440147.0784   24440137.5394         33.2504
        18.2504
 -19908778.12146 -12990298.10544  22068869.8524   22068857.2664         41.0004
        29.0004
  -4809704.96546  -4951420.93044  23662846.0234   23662830.8594         39.7504
        24.7504
 15  1  3  0 30 30.0000000  0  7G12G29G31G25G24G14G02
  -1624427.29346   -640464.62544  22861153.9064   22861140.5594         41.0004
        27.2504
 -20354488.88348 -15667208.71547  19957072.1804   19957058.7734         49.5004
        45.7504
 -18845567.51247 -13935462.60246  21605022.9774   21605009.6294         46.5004
        37.0004
 -18291098.92248 -12029213.68746  20580642.8134   20580631.7504         48.0004
        40.0004
  -4602925.76255  -2048677.36752  24460176.4224   24460169.2274         32.7504
        17.2504
 -19844379.97346 -12940117.76244  22081124.0944   22081111.5084         41.5004
        28.2504
  -4775970.49246  -4925134.32443  23669265.8594   23669250.2854         39.7504
        23.5004
 15  1  3  0 31  0.0000000  0  7G12G29G31G25G24G14G02
  -1548619.76646   -581393.88344  22875580.0784   22875566.5554         41.0004
        28.5004
 -20368997.93048 -15678514.46147  19954310.8984   19954297.7274         50.2504
        45.5004
 -18914679.94147 -13989316.45346  21591871.2194   21591857.8134         46.5004
        37.0004
 -18262431.89848 -12006875.75046  20586098.0784   20586086.8984         48.0004
        40.7504
  -4497541.23845  -1966559.64543  24480232.6954   24480221.9264         35.0004
        19.0004
 -19779561.70747 -12889610.04744  22093459.5004   22093446.6804         42.5004
        28.7504
  -4741764.80146  -4898480.54344  23675774.5704   23675758.9964         40.2504
        24.7504
 15  1  3  0 31 30.0000000  0  7G12G29G31G25G24G14G02
  -1472723.91846   -522254.29344  22890022.1414   22890008.7344         41.0004
        27.0004
 -20382977.20348 -15689407.39147  19951650.5704   19951637.6334         49.7504
        45.5004
 -18983493.57447 -14042937.45346  21578777.0554   21578763.2974         46.7504
        37.0004
 -18233520.39547 -11984347.31646  20591599.5394   20591588.7704         47.7504
        40.7504
  -4392038.05545  -1884349.37543  24500308.7974   24500298.9654         34.2504
        19.0004
 -19714325.76647 -12838776.86344  22105872.3054   22105860.0704         42.5004
        28.5004
  -4707088.61746  -4871460.13743  23682373.1094   23682357.8284         40.5004
        23.7504
 15  1  3  0 32  0.0000000  0  7G12G29G31G25G24G14G02
  -1396740.40646   -463046.38344  22904480.5784   22904468.2274         41.0004
        28.5004
 -20396427.40648 -15699888.06247  19949091.2584   19949078.3794         49.7504
        45.5004
 -19052006.20747 -14096323.91446  21565739.1954   21565726.0234         46.5004
        37.7504
 -18204364.64848 -11961628.55146  20597147.6024   20597136.7734         48.5004
        41.0004
  -4286417.40245  -1802047.61743  24520407.6484   24520398.0514         32.2504
        18.2504
 -19648675.07847 -12787620.50044  22118366.2504   22118353.0784         43.0004
        28.7504
  -4671943.23846  -4844074.11343  23689061.7814   23689045.2704         40.0004
        22.2504
 15  1  3  0 32 30.0000000  0  7G12G29G31G25G24G14G02
  -1320668.72346   -403769.77044  22918955.7894   22918943.4384         40.5004
        27.7504
 -20409348.70348 -15709956.60247  19946632.4384   19946619.6174         49.7504
        46.0004
 -19120215.81247 -14149474.25446  21552759.1954   21552745.9064         46.5004
        37.5004
 -18174964.93747 -11938719.69546  20602742.1564   20602731.5044         47.5004
        41.0004
  -4180680.63345  -1719655.43042  24540528.5314   24540519.5784         32.0004
        17.2504
 -19582612.20347 -12736142.95344  22130937.3054   22130924.3674         42.7504
        29.0004
  -4636329.16046  -4816322.91443  23695837.4454   23695822.9844         39.7504
        23.0004
 15  1  3  0 33  0.0000000  0  7G12G29G31G25G24G14G02
  -1244509.78146   -344425.16044  22933449.3524   22933436.1804         39.7504
        26.5004
 -20421741.33248 -15719613.19147  19944274.4304   19944261.2584         49.5004
        46.0004
 -19188120.00447 -14202386.60246  21539837.9454   21539823.6024         46.5004
        37.2504
 -18145321.56648 -11915620.96546  20608383.3134   20608372.4844         48.2504
        40.7504
  -4074829.94945  -1637174.48843  24560671.0084   24560662.2304         31.5004
        18.5004
 -19516139.85247 -12684346.33244  22143585.9694   22143573.9104         42.5004
        28.5004
  -4600247.43446  -4788207.26643  23702703.7424   23702688.1684         39.7504
        22.5004
 15  1  3  0 33 30.0000000  0  7G12G29G31G25G24G14G02
  -1168263.73446   -285012.69144  22947958.4694   22947946.0594         40.0004
        28.0004
 -20433606.26648 -15728858.59047  19942016.6484   19942003.5354         49.5004
        46.0004
 -19255716.52347 -14255059.21146  21526974.1334   21526960.9024         46.0004
        37.0004
 -18115434.75448 -11892332.55146  20614070.5004   20614059.9654         48.0004
        40.7504
  -3968866.86345  -1554605.94542  24580835.0864   24580826.9534         32.0004
        17.7504
 -19449260.48447 -12632232.56244  22156312.7344   22156300.7344         42.5004
        28.2504
  -4563699.12946  -4759728.05943  23709659.8054   23709643.4104         40.0004
        22.5004
 15  1  3  0 34  0.0000000  0  7G12G29G31G25G24G14G02
  -1091931.44546   -225533.01644  22962484.7114   22962471.5984         40.7504
        28.5004
 -20444943.53148 -15737692.82047  19939859.0004   19939845.9454         49.7504
        45.7504
 -19323003.44947 -14307490.57046  21514170.0474   21514156.8164         46.0004
        37.2504
 -18085304.84448 -11868854.70346  20619803.9614   20619793.6604         48.0004
        41.2504
  -3862792.77345  -1471950.92642  24601020.5864   24601011.7504         31.7504
        16.7504
 -19381976.94147 -12579803.83644  22169116.8754   22169104.2304         43.0004
        29.0004
  -4526685.10946  -4730885.99243  23716702.7734   23716686.4964         40.0004
        22.5004
 15  1  3  0 34 30.0000000  0  7G12G29G31G25G24G14G02
  -1015513.16446   -165986.34044  22977026.2814   22977013.5204         39.7504
        28.2504
 -20455753.60548 -15746116.24647  19937801.6564   19937788.9534         49.0004
        45.5004
 -19389978.41447 -14359678.84046  21501425.5314   21501411.3634         45.7504
        37.0004
 -18054932.04748 -11845187.59046  20625583.5554   20625573.1954         48.2504
        40.5004
  -3756609.46545  -1389210.69942  24621225.0784   24621218.5864         31.2504
        16.2504
 -19314292.01247 -12527062.34444  22181997.4924   22181984.1454         42.2504
        28.5004
  -4489206.45746  -4701681.83244  23723834.8204   23723818.7774         40.5004
        25.0004
 15  1  3  0 35  0.0000000  0  7G12G29G31G25G24G14G02
   -939008.76246   -106372.53944  22991585.2344   22991571.4184         41.2504
        28.7504
 -20466037.40648 -15754129.59047  19935844.7974   19935831.8594         49.2504
        45.7504
 -19456639.64547 -14411622.64846  21488740.3594   21488726.3094         46.2504
        37.2504
 -18024316.63348 -11821331.42646  20631409.5234   20631398.8134         48.0004
        40.5004
  -3650318.59845  -1306386.77742  24641453.8204   24641445.2774         31.7504
        15.5004
 -19246208.35547 -12474010.16844  22194952.6724   22194940.3794         43.0004
        28.2504
  -4451263.84846  -4672116.14843  23731055.3914   23731039.2894         40.2504
        23.5004
 15  1  3  0 35 30.0000000  0  7G12G29G31G25G24G14G02
   -862418.65246    -46691.96144  23006159.8284   23006146.3634         41.2504
        27.7504
 -20475795.58248 -15761733.35547  19933988.2274   19933975.2894         49.5004
        46.2504
 -19522985.02347 -14463320.34446  21476114.9384   21476101.0044         46.2504
        37.0004
 -17993458.89848 -11797286.44946  20637281.4064   20637271.2814         48.0004
        40.5004
  -3543922.07045  -1223480.52042  24661699.4694   24661691.5124         31.7504
        16.2504
 -19177728.47747 -12420649.24644  22207983.8834   22207971.2384         42.0004
        28.0004
  -4412858.68046  -4642190.05544  23738363.6024   23738347.9694         39.7504
        24.5004
 15  1  3  0 36  0.0000000  0  7G12G29G31G25G24G14G02
   -785743.27346     13055.04744  23020750.6174   23020737.2114         41.2504
        27.5004
 -20485027.92648 -15768927.39547  19932231.1094   19932218.4064         49.5004
        46.2504
 -19589012.04347 -14514769.96146  21463550.5084   21463536.3404         45.7504
        37.5004
 -17962359.06648 -11773052.80946  20643199.6024   20643189.4184         48.0004
        40.0004
  -3437421.32445  -1140493.00842  24681967.6564   24681957.6484         33.2504
        16.7504
 -19108855.41847 -12366981.94944  22221089.8674   22221077.2234         42.0004
        27.2504
  -4373991.82846  -4611904.21143  23745760.1334   23745743.5634         39.5004
        22.2504
 15  1  3  0 36 30.0000000  0  7G12G29G31G25G24G14G02
   -708982.56247     72868.56344  23035358.5004   23035344.3914         42.0004
        28.2504
 -20493735.34848 -15775712.38747  19930574.3054   19930561.1914         49.7504
        46.5004
 -19654718.32047 -14565969.64546  21451047.3594   21451032.8984         45.7504
        37.7504
 -17931017.42647 -11748630.75846  20649163.8364   20649153.3594         47.5004
        40.2504
  -3330817.70745  -1057425.32842  24702253.1334   24702244.0634         33.5004
        14.7504
 -19039591.84846 -12313010.33644  22234270.7894   22234257.5004         41.7504
        27.2504
  -4334664.35546  -4581259.44944  23753243.3054   23753227.6134         39.0004
        24.5004
 15  1  3  0 37  0.0000000  0  7G12G29G31G25G24G14G02
   -632137.56246    132747.74644  23049981.0474   23049967.7584         41.7504
        27.5004
 -20501918.94148 -15782089.21147  19929016.7734   19929003.8954         49.2504
        46.0004
 -19720102.28947 -14616918.18746  21438604.8524   21438590.9774         46.2504
        38.0004
 -17899434.22747 -11724020.47746  20655174.0474   20655163.4534         47.5004
        40.0004
  -3224113.35245   -974279.12142  24722558.7664   24722548.2894         33.2504
        14.7504
 -18969940.36346 -12258736.46944  22247525.2584   22247512.3204         41.2504
        27.0004
  -4294877.15246  -4550256.43043  23760814.6564   23760799.3164         39.5004
        22.7504
 15  1  3  0 37 30.0000000  0  7G12G29G31G25G24G14G02
   -555208.30146    192692.58644  23064620.2424   23064606.4264         41.2504
        27.0004
 -20509578.50448 -15788057.69147  19927559.1484   19927546.3874         49.2504
        46.0004
 -19785161.54747 -14667613.70746  21426224.5944   21426211.0124         45.7504
        37.5004
 -17867609.68447 -11699222.13746  20661230.0704   20661219.5944         47.2504
        40.2504
  -3117309.50045   -891055.44542  24742881.6564   24742872.7624         33.2504
        16.2504
 -18899903.77346 -12204162.52744  22260852.1884   22260840.3054         41.2504
        26.2504
  -4254631.51246  -4518896.19543  23768473.0394   23768457.4064         38.5004
        22.7504
 15  1  3  0 38  0.0000000  0  7G12G29G31G25G24G14G02
   -478195.17646    252702.77344  23079274.9774   23079261.5124         40.7504
        27.0004
 -20516714.93448 -15793618.53147  19926201.0704   19926188.2504         49.7504
        46.0004
 -19849893.77047 -14718054.38346  21413906.3204   21413892.5044         46.0004
        37.7504
 -17835544.08647 -11674235.95746  20667331.7424   20667321.1484         47.5004
        39.7504
  -3010408.52345   -807756.07442  24763225.6484   24763215.4064         34.0004
        16.7504
 -18829484.94946 -12149290.72744  22274252.4844   22274239.7234         40.7504
        25.0004
  -4213928.41046  -4487179.51643  23776218.3834   23776202.6334         39.0004
        22.7504
 15  1  3  0 38 30.0000000  0  7G12G29G31G25G24G14G02
   -401098.48846    312778.07044  23093945.3444   23093932.8164         40.7504
        26.5004
 -20523329.12948 -15798772.45347  19924942.8524   19924929.3874         49.7504
        46.0004
 -19914297.09447 -14768238.78946  21401650.8054   21401636.9884         46.2504
        37.7504
 -17803237.67647 -11649062.12946  20673479.8984   20673469.1884         47.0004
        40.2504
  -2903411.58245   -724381.95742  24783586.3134   24783576.4804         34.2504
        16.2504
 -18758686.62546 -12094123.20744  22287725.7194   22287713.0164         41.0004
        27.0004
  -4172768.88746  -4455107.14143  23784051.4454   23784035.5204         38.5004
        22.7504
 15  1  3  0 39  0.0000000  0  7G12G29G31G25G24G14G02
   -323918.52346    372918.29344  23108632.5944   23108619.6564         41.2504
        27.0004
 -20529421.83248 -15803519.99647  19923783.2894   19923770.2344         50.0004
        46.5004
 -19978369.36747 -14818165.22746  21389458.4144   21389444.3634         47.0004
        38.0004
 -17770690.68747 -11623700.84446  20679673.3524   20679662.9924         47.2504
        40.0004
  -2796320.18045   -640934.19542  24803964.1254   24803954.8794         34.2504
        16.7504
 -18687511.74246 -12038662.28544  22301268.9304   22301256.8134         40.5004
        27.0004
  -4131154.11746  -4422680.07043  23791969.8284   23791954.1954         38.2504
        22.0004
 15  1  3  0 39 30.0000000  0  7G12G29G31G25G24G14G02
   -246655.61746    433123.12944  23123335.7734   23123322.2504         41.0004
        26.5004
 -20534993.47348 -15807861.52747  19922722.8834   19922709.9454         49.7504
        46.5004
 -20042108.24647 -14867831.87946  21377329.3594   21377315.3094         46.5004
        39.0004
 -17737903.33647 -11598152.27346  20685912.2894   20685901.9304         47.5004
        40.0004
  -2689136.12945   -557414.19542  24824359.6254   24824351.8444         34.2504
        15.5004
 -18615963.09046 -11982910.12144  22314884.4614   22314872.1684         40.5004
        26.5004
  -4089085.39846  -4389899.25843  23799975.6954   23799960.1214         38.0004
        22.7504
 15  1  3  0 40  0.0000000  0  7G12G29G31G25G24G14G02
   -169310.00046    493392.42644  23138053.5394   23138040.8364         40.7504
        26.0004
 -20540044.52048 -15811797.41047  19921761.5634   19921748.9774         49.5004
        46.5004
 -20105511.80547 -14917237.24246  21365263.9614   21365249.9104         46.5004
        38.5004
 -17704875.91847 -11572416.62946  20692197.3364   20692186.8014         47.0004
        40.0004
  -2581861.08645   -473823.30542  24844774.6094   24844765.2464         34.2504
        16.2504
 -18544043.26246 -11926868.70744  22328570.7424   22328558.2154         40.7504
        25.7504
  -4046563.75446  -4356765.50843  23808066.8594   23808051.8714         38.0004
        22.5004
 15  1  3  0 40 30.0000000  0  7G12G29G31G25G24G14G02
    -91882.07446    553725.83244  23152787.8204   23152775.2344         40.7504
        26.7504
 -20544576.23448 -15815328.60947  19920899.3754   19920886.2034         49.5004
        46.5004
 -20168577.59847 -14966379.41446  21353262.9454   21353249.0704         46.0004
        38.5004
 -17671608.60247 -11546494.05546  20698527.7504   20698517.2154         47.0004
        40.0004
  -2474496.75445   -390162.90242  24865205.7734   24865196.5864         33.5004
        15.5004
 -18471755.24246 -11870540.41444  22342325.9384   22342313.2344         40.2504
        25.2504
  -4003590.00446  -4323279.46543  23816244.1334   23816229.2624         38.0004
        22.7504
 15  1  3  0 41  0.0000000  0  7G12G29G31G25G24G14G02
    -14372.25846    614123.06344  23167538.1564   23167524.3984         41.5004
        27.0004
 -20548588.77748 -15818455.25447  19920135.8834   19920122.7704         49.5004
        46.0004
 -20231303.55147 -15015256.77746  21341326.5234   21341313.1174         46.2504
        38.5004
 -17638101.68048 -11520384.77046  20704903.8674   20704893.5084         48.0004
        39.5004
  -2367045.28145   -306434.62542  24885652.0554   24885644.2734         32.2504
        16.2504
 -18399101.73446 -11813927.31644  22356152.2114   22356138.7464         40.5004
        25.7504
  -3960165.93746  -4289442.55943  23824507.8444   23824492.9144         38.5004
        22.2504
 15  1  3  0 41 30.0000000  0  8G12G08G29G31G25G24G14G02
     63219.75846    674584.35244  23182302.7814   23182289.5514         41.2504
        26.0004
    -34365.87516                  26006537.086                          36.000

 -20552083.16048 -15821178.14147  19919470.8594   19919457.8054         48.5004
        46.0004
 -20293687.71147 -15063867.80546  21329454.7504   21329441.2854         45.5004
        38.5004
 -17604355.35247 -11494088.93046  20711325.3444   20711314.9264         47.7504
        40.5004
  -2259507.69945   -222639.21542  24906116.5864   24906108.2774         33.7504
        15.5004
 -18326085.82846 -11757031.82844  22370045.9924   22370033.2894         41.0004
        26.2504
  -3916292.64546  -4255255.55943  23832856.3204   23832841.0984         38.2504
        22.5004
 15  1  3  0 42  0.0000000  0  8G12G08G29G31G25G24G14G02
    140893.10546    735109.00444  23197084.1954   23197070.4384         41.0004
        24.2504
   -141060.13314                  25986234.328                          29.750

 -20555060.33248 -15823498.01647  19918904.4454   19918891.4494         49.5004
        46.2504
 -20355727.98447 -15112210.87946  21317649.2584   21317636.0274         45.5004
        38.5004
 -17570369.89547 -11467606.76646  20717792.4774   20717782.1764         47.2504
        40.0004
  -2151885.79745   -138778.07442  24926596.7584   24926587.0434         33.7504
        17.2504
 -18252710.27346 -11699856.10244  22384010.0704   22383996.4304         40.7504
        26.5004
  -3871971.12146  -4220719.32843  23841290.6094   23841275.7974         37.5004
        22.5004
 15  1  3  0 42 30.0000000  0  8G12G08G29G31G25G24G14G02
    218647.48046    795696.81344  23211879.9304   23211867.0514         39.7504
        25.5004
   -247837.992 5                  25965915.422                          34.000

 -20557520.96548 -15825415.37947  19918436.2274   19918422.8204         49.5004
        46.7504
 -20417422.17247 -15160284.26646  21305909.2034   21305895.8554         46.0004
        38.2504
 -17536145.45347 -11440938.37146  20724305.3364   20724295.0944         47.0004
        39.5004
  -2044181.45745    -54852.70742  24947092.8524   24947083.0204         33.7504
        16.2504
 -18178977.92246 -11642402.34444  22398039.8594   22398027.1564         40.0004
        26.0004
  -3827202.81246  -4185834.94543  23849809.9064   23849795.0354         38.2504
        22.0004
 15  1  3  0 43  0.0000000  0  8G12G08G29G31G25G24G14G02
    296483.06646    856347.88344  23226691.7734   23226678.8364         40.7504
        27.2504
   -354698.566 5                  25945580.758                          34.500

 -20559465.80548 -15826930.83647  19918066.4694   19918053.0634         49.5004
        46.7504
 -20478767.84047 -15208086.08646  21294235.3284   21294221.5704         46.0004
        38.5004
 -17501682.29747 -11414083.96546  20730863.3754   20730853.1334         47.5004
        40.0004
  -1936396.40245     29135.60542  24967602.0554   24967593.7464         32.7504
        16.2504
 -18104891.57846 -11584672.74644  22412137.9694   22412125.6174         40.5004
        27.2504
  -3781988.83646  -4150603.27343  23858413.5234   23858398.9454         38.5004
        21.5004
 15  1  3  0 43 30.0000000  0  8G12G08G29G31G25G24G14G02
    374399.21146    917061.72344  23241518.3204   23241506.0274         39.7504
        26.2504
   -461640.230 5                  25925231.016                          31.000

 -20560895.87948 -15828045.17247  19917793.8204   19917780.9414         48.7504
        46.5004
 -20539763.36347 -15255615.06246  21282628.3984   21282614.5234         46.0004
        38.0004
 -17466980.67647 -11387043.74246  20737466.8054   20737456.8554         47.5004
        39.5004
  -1828532.21945    113185.48842  24988128.8834   24988119.9304         32.0004
        15.5004
 -18030454.25846 -11526669.67644  22426303.5234   22426290.4104         41.0004
        27.2504
  -3736330.32046  -4115025.21943  23867102.7894   23867087.0984         38.5004
        22.2504
 15  1  3  0 44  0.0000000  0  8G12G08G29G31G25G24G14G02
    452395.62146    977838.12944  23256360.8364   23256347.6644         40.0004
        24.5004
   -568661.656 5                  25904865.445                          32.750

 -20561811.68048 -15828758.77747  19917620.1024   19917606.8714         49.0004
        46.5004
 -20600406.44947 -15302869.41046  21271088.6334   21271074.6414         47.5004
        38.5004
 -17432040.75847 -11359817.84046  20744115.4614   20744105.6884         47.5004
        40.0004
  -1720590.81645    197295.52042  25008669.5164   25008661.0904         32.5004
        14.7504
 -17955669.14146 -11468395.57444  22440534.3984   22440521.1684         40.7504
        26.2504
  -3690228.69146  -4079101.86743  23875875.4454   23875860.6334         37.7504
        22.5004
 15  1  3  0 44 30.0000000  0  8G12G08G29G31G25G24G14G02
    530471.92246   1038676.78144  23271217.7584   23271205.6994         40.0004
        24.0004
   -675761.633 5                  25884485.523                          33.250

 -20562214.14548 -15829072.38347  19917542.5864   19917529.8834         48.7504
        46.2504
 -20660694.77047 -15349847.30946  21259616.1804   21259602.1884         47.2504
        38.0004
 -17396862.80948 -11332406.45346  20750810.2584   20750799.8984         48.2504
        39.7504
  -1612573.77345    281464.70742  25029224.1484   25029216.4844         32.7504
        16.2504
 -17880538.62547 -11409852.35244  22454831.8834   22454818.2424         42.2504
        27.0004
  -3643685.27346  -4042834.27743  23884732.8134   23884717.5904         38.5004
        22.7504
 15  1  3  0 45  0.0000000  0  8G12G08G29G31G25G24G14G02
    608628.27746   1099577.82444  23286089.5864   23286077.5864         39.5004
        24.2504
   -782938.316 5                  25864089.852                          33.250

 -20562103.88748 -15828986.45747  19917564.1724   19917550.7664         48.5004
        46.2504
 -20720626.04747 -15396546.99646  21248211.4384   21248197.2704         47.0004
        38.0004
 -17361446.98447 -11304809.71546  20757549.4924   20757538.7234         47.5004
        39.5004
  -1504482.60945    365691.45342  25049792.5314   25049786.5084         33.2504
        15.5004
 -17805065.42246 -11351042.06644  22469194.0634   22469180.1884         41.7504
        27.0004
  -3596701.46546  -4006223.50843  23893673.1094   23893657.7704         38.0004
        22.2504
 15  1  3  0 45 30.0000000  0  8G12G08G29G31G25G24G14G02
    686863.91446   1160540.60944  23300978.3054   23300965.9534         40.5004
        25.5004
   -890190.281 5                  25843679.859                          33.250

 -20561482.23448 -15828502.05547  19917682.4454   19917669.3324         49.2504
        46.5004
 -20780198.46147 -15442967.05946  21236874.6094   21236860.9694         46.2504
        38.0004
 -17325793.56647 -11277027.83646  20764334.4614   20764323.5744         47.5004
        40.2504
  -1396319.168 5                  25070376.406                          32.250

 -17729252.76646 -11291967.30944  22483620.5234   22483607.8204         41.5004
        28.2504
  -3549278.42246  -3969270.49243  23902696.9844   23902682.1724         38.0004
        22.0004
 15  1  3  0 46  0.0000000  0  8G12G08G29G31G25G24G14G02
    765178.91446   1221565.25444  23315881.4304   23315869.1954         40.5004
        25.5004
   -997515.930 5                  25823256.180                          32.500

 -20560349.94548 -15827619.74647  19917897.9224   19917884.7504         49.0004
        46.7504
 -20839409.97347 -15489105.89546  21225607.2504   21225593.7854         46.2504
        39.0004
 -17289902.72348 -11249060.94146  20771164.1094   20771153.3404         48.0004
        39.7504
  -1288084.898 5                  25090971.625                          31.750

 -17653103.84846 -11232630.52744  22498110.6484   22498098.0634         41.5004
        27.7504
  -3501417.58246  -3931976.34443  23911805.1334   23911789.9104         37.2504
        22.5004
 15  1  3  0 46 30.0000000  0  8G12G08G29G31G25G24G14G02
    843573.06346   1282651.56644  23330799.2664   23330787.3834         40.2504
        25.2504
  -1104914.355 5                  25802819.141                          32.500

 -20558708.00848 -15826340.31247  19918209.9144   19918197.0354         49.7504
        46.5004
 -20898258.48047 -15534961.87146  21214408.7584   21214395.5864         47.0004
        38.5004
 -17253774.65247 -11220909.20746  20778039.4454   20778027.9144         47.7504
        39.2504
                                  25111582.242                          31.750

 -17576621.55546 -11173033.94144  22512664.8284   22512651.8914         40.7504
        27.0004
  -3453120.22746  -3894342.03143  23920995.5004   23920979.8674         38.2504
        21.0004
 15  1  3  0 47  0.0000000  0  8G12G08G29G31G25G24G14G02
    922045.43846   1343798.84044  23345732.8524   23345719.8554         40.7504
        25.7504
  -1212383.824 5                  25782368.734                          32.500

 -20556557.62548 -15824664.68047  19918619.5394   19918606.4264         49.2504
        46.5004
 -20956741.69947 -15580533.21546  21203280.0164   21203266.3754         46.2504
        38.7504
 -17217409.60247 -11192572.81246  20784959.0164   20784948.1294         47.5004
        39.0004
  -1071411.87515                  25132204.500                          31.750

 -17499808.56247 -11113179.69544  22527282.7114   22527269.0124         42.0004
        27.2504
  -3404387.69146  -3856368.65643  23930269.0004   23930253.5434         37.7504
        21.5004
 15  1  3  0 47 30.0000000  0  8G12G08G29G31G25G24G14G02
   1000596.65646   1405007.52744  23360680.0474   23360667.9884         40.0004
        24.5004
  -1319922.645 5                  25761903.766                          32.500

 -20553899.15648 -15822593.13747  19919125.6254   19919112.3954         49.0004
        46.7504
 -21014857.77347 -15625818.45746  21192220.8524   21192207.3874         46.2504
        39.0004
 -17180807.72747 -11164051.87946  20791924.0004   20791913.5824         47.0004
        39.5004
   -962976.30945    489512.01652  25152839.2194   25152830.3834         32.2504
        14.7504
 -17422667.96147 -11053070.16044  22541962.0004   22541949.1214         42.0004
        28.7504
  -3355221.61746  -3818057.42243  23939624.3204   23939609.9774         37.2504
        20.5004
 15  1  3  0 48  0.0000000  0  8G12G08G29G31G25G24G14G02
   1079226.17646   1466277.25843  23375642.8134   23375629.9924         40.5004
        23.7504
  -1427529.629 5                  25741425.563                          32.750

 -20550733.65648 -15820126.50847  19919727.7664   19919714.8284         48.5004
        46.2504
 -21072604.41447 -15670815.83646  21181231.9064   21181218.9694         46.5004
        39.0004
 -17143969.26647 -11135346.59846  20798934.0704   20798923.4774         46.7504
        39.5004
   -854477.12545    574056.73842  25173484.8134   25173478.3204         32.7504
        13.7504
 -17345202.75447 -10992707.71144  22556702.4614   22556689.7584         42.0004
        26.5004
  -3305623.10546  -3779409.25043  23949063.9774   23949048.6374         37.5004
        20.7504
 15  1  3  0 48 30.0000000  0  8G12G08G29G31G25G24G14G02
   1157933.64846   1527607.76244  23390620.2734   23390606.1054         40.2504
        25.0004
  -1535202.922 5                  25720936.516                          32.250

 -20547062.58648 -15817265.93747  19920426.0164   19920413.5474         48.7504
        46.2504
 -21129979.46547 -15715523.66446  21170314.1334   21170300.3164         45.7504
        38.7504
 -17106894.41447 -11106457.10246  20805989.5784   20805978.0474         46.5004
        39.0004
   -745915.75445    658649.95742  25194144.5864   25194137.2154         33.2504
        15.5004
 -17267415.89546 -10932094.59844  22571505.1564   22571492.1604         41.7504
        26.7504
  -3255593.84846  -3740425.40643  23958584.1804   23958568.4884         38.0004
        20.7504
 15  1  3  0 49  0.0000000  0  8G12G08G29G31G25G24G14G02
   1236718.52746   1588998.54344  23405613.2114   23405599.6884         39.5004
        24.5004
  -1642940.977 5                  25700434.891                          32.000

 -20542886.85248 -15814012.11747  19921221.0554   19921207.4734         48.5004
        46.2504
 -21186980.98047 -15759940.43446  21159467.1804   21159453.1884         45.5004
        39.0004
 -17069583.37147 -11077383.57446  20813089.0164   20813078.4804         47.2504
        39.2504
   -637293.99245    743290.23042  25214815.0944   25214807.9574         33.0004
        14.7504
 -17189310.25846 -10871233.07044  22586368.1954   22586355.1994         41.2504
        26.7504
  -3205135.08646  -3701106.88743  23968185.4534   23968170.4654         37.7504
        20.0004
 15  1  3  0 49 30.0000000  0  8G12G08G29G31G25G24G14G02
   1315580.96946   1650449.77044  23420619.3594   23420606.5394         38.7504
        24.5004
  -1750742.324 5                  25679921.289                          33.000

 -20538207.12148 -15810365.56647  19922111.3204   19922097.9734         49.5004
        46.5004
 -21243606.69547 -15804064.36346  21148691.5944   21148677.7774         46.5004
        39.0004
 -17032036.31247 -11048126.11746  20820234.3364   20820223.2154         47.0004
        39.5004
   -528613.72345    827976.10542  25235495.0394   25235489.1914         31.5004
        14.7504
 -17110888.62946 -10810125.35244  22601291.0634   22601278.6524         41.5004
        26.2504
  -3154248.17246  -3661454.74643  23977868.1094   23977853.8244         36.5004
        19.5004
 15  1  3  0 50  0.0000000  0  8G12G08G29G31G25G24G14G02
   1394520.37146   1711960.94143  23435640.0314   23435628.6764         38.5004
        23.5004
  -1858605.47345    -23199.66053  25659395.5944   25659383.9454         33.2504
        18.5004
 -20533024.54748 -15806327.18747  19923097.8674   19923084.5784         49.2504
        46.5004
 -21299854.55547 -15847893.85546  21137987.6484   21137974.8874         46.0004
        39.5004
 -16994253.45347 -11018684.94146  20827424.2664   20827413.3204         45.7504
        39.0004
   -419876.68045    912706.13342  25256187.3054   25256181.9844         32.0004
        14.7504
 -17032154.35246 -10748774.00044  22616273.8594   22616261.3914         40.7504
        26.0004
  -3102934.80946  -3621470.29343  23987633.0394   23987617.8164         37.5004
        19.5004
 15  1  3  0 50 30.0000000  0  8G12G08G29G31G25G24G14G02
   1473536.94546   1773532.27043  23450676.3524   23450664.5274         38.7504
        23.0004
  -1966529.00045   -107295.94542  25638859.0004   25638848.5234         32.5004
        15.5004
 -20527340.35248 -15801897.94547  19924179.7344   19924166.2704         48.5004
        46.7504
 -21355722.75047 -15891427.51646  21127356.4384   21127343.0314         45.7504
        40.0004
 -16956234.99247 -10989060.17646  20834658.8594   20834648.1484         45.7504
        39.5004
   -311084.25015                  25276889.445                          30.500

 -16953110.43746 -10687181.34044  22631314.7814   22631302.3714         41.2504
        25.7504
  -3051196.09046  -3581154.42243  23997479.6334   23997463.2384         37.0004
        18.5004
 15  1  3  0 51  0.0000000  0  8G12G08G29G31G25G24G14G02
   1552630.33646   1835163.46943  23465728.7894   23465714.9144         39.5004
        22.5004
  -2074510.85245   -191437.70742  25618310.5394   25618300.7664         33.5004
        14.7504
 -20521155.40648 -15797078.50447  19925356.3674   19925343.5474         49.5004
        46.5004
 -21411209.23447 -15934663.73446  21116797.8594   21116784.8054         46.2504
        40.0004
 -16917981.07447 -10959251.93446  20841938.4454   20841927.6764         46.2504
        39.2504
                                  25297604.117                          31.000

 -16873759.69546 -10625349.60944  22646414.8984   22646403.0744         40.2504
        25.7504
  -2999033.98046  -3540508.63343  24007405.2974   24007389.1954         37.5004
        19.2504
 15  1  3  0 51 30.0000000  0  8G12G08G29G31G25G24G14G02
   1631799.98046   1896854.09443  23480793.8284   23480780.1884         39.0004
        22.5004
  -2182549.65245   -275623.89542  25597751.4304   25597741.5984         32.5004
        13.7504
 -20514470.95748 -15791869.83647  19926628.2584   19926615.1454         49.0004
        46.2504
 -21466311.78147 -15977600.78146  21106311.6724   21106299.1454         46.2504
        39.5004
 -16879491.91047 -10929260.38346  20849262.5004   20849251.7304         46.5004
        40.0004
    -93340.98014                  25318326.352                          29.750

 -16794105.40646 -10563281.36344  22661572.7894   22661560.6134         40.0004
        26.0004
  -2946449.55146  -3499533.76243  24017411.8284   24017395.1994         38.2504
        20.2504
 15  1  3  0 52  0.0000000  0  8G12G08G29G31G25G24G14G02
   1711046.00446   1958604.22343  23495873.1564   23495861.0394         38.7504
        22.7504
  -2290643.59445   -359852.84442  25577181.5864   25577172.1054         34.7504
        16.7504
 -20507287.79748 -15786272.56247  19927995.1024   19927982.5164         48.7504
        46.2504
 -21521028.09047 -16020236.86746  21095899.9064   21095886.9104         46.2504
        40.0004
 -16840767.71547 -10899085.69146  20856631.1484   20856621.1414         46.2504
        39.2504
                                  25339057.766                          29.250

 -16714150.21546 -10500978.64144  22676787.8054   22676775.3364         39.7504
        24.0004
  -2893444.53546  -3458231.16443  24027498.6414   24027481.4844         38.2504
        20.0004
 15  1  3  0 52 30.0000000  0  8G12G08G29G31G25G24G14G02
   1790368.19146   2020413.65644  23510968.4774   23510956.4184         37.7504
        24.2504
  -2398791.00845   -444123.63742  25556602.4924   25556592.3674         33.5004
        15.5004
 -20499607.03148 -15780287.53947  19929456.6804   19929443.6254         49.5004
        46.5004
 -21575355.97747 -16062570.27746  21085561.1484   21085548.0944         46.5004
        39.2504
 -16801808.62947 -10868727.96946  20864044.5314   20864034.4064         46.2504
        39.5004
                                  25359800.086                          28.500

 -16633897.06246 -10438443.73044  22692060.2974   22692047.2424         39.5004
        24.5004
  -2840020.18746  -3416601.81643  24037665.8984   24037648.4494         37.7504
        19.7504
 15  1  3  0 53  0.0000000  0  7G12G08G29G31G25G14G02
   1869766.01246   2082282.02744  23526077.0164   23526064.6054         38.7504
        25.2504
  -2506990.23045   -528434.68042  25536012.8524   25536002.7274         34.0004
        16.2504
 -20491429.96148 -15773915.79347  19931013.0784   19930999.5554         48.5004
        46.2504
 -21629293.72347 -16104599.69146  21075297.3674   21075284.6644         46.2504
        39.5004
 -16762614.86347 -10838187.38346  20871503.0164   20871493.0664         46.0004
        39.0004
 -16553349.26646 -10375679.23443  22707387.3134   22707375.2544         39.5004
        22.7504
  -2786178.45346  -3374647.22743  24047910.4534   24047894.5274         38.0004
        19.7504
 15  1  3  0 53 30.0000000  0  7G12G08G29G31G25G14G02
   1949239.00446   2144209.02343  23541200.9144   23541187.9184         38.5004
        22.5004
  -2615239.48045   -612784.81242  25515412.9924   25515402.7504         32.5004
        13.7504
 -20482758.34848 -15767158.68747  19932663.2274   19932649.5274         49.5004
        46.2504
 -21682839.52747 -16146323.69546  21065107.9844   21065094.6374         46.2504
        39.5004
 -16723186.56247 -10807464.03146  20879005.9924   20878995.8674         46.0004
        39.2504
 -16472509.70746 -10312687.39843  22722770.3364   22722758.6294         39.0004
        22.5004
  -2731920.64546  -3332368.41443  24058235.3364   24058219.3524         37.7504
        20.0004
 15  1  3  0 54  0.0000000  0  7G12G08G29G31G25G14G02
   2028787.58646   2206194.89843  23556338.8754   23556325.9964         39.0004
        22.5004
  -2723537.28145   -697172.62942  25494805.1024   25494795.6214         32.7504
        14.7504
 -20473592.33648 -15760016.33647  19934407.3834   19934393.9184         49.2504
        46.2504
 -21735991.21147 -16187740.59046  21054993.2664   21054980.5634         46.0004
        40.0004
 -16683523.96147 -10776558.11746  20886554.0004   20886543.4654         47.0004
        39.0004
 -16391381.59446 -10249470.72743  22738209.4064   22738196.7624         39.0004
        22.0004
  -2677248.40246  -3289766.65643  24068639.4844   24068623.5594         38.0004
        19.7504
 15  1  3  0 54 30.0000000  0  7G12G08G29G31G25G14G02
   2108411.31346   2268239.37143  23571489.9924   23571477.5234         39.0004
        23.2504
  -2831881.91045   -781596.99642  25474186.5474   25474178.7074         31.7504
        16.2504
 -20463933.47748 -15752489.94947  19936245.2584   19936231.6174         49.5004
        46.0004
 -21788746.18447 -16228848.36346  21044954.8054   21044941.1644         46.2504
        40.2504
 -16643627.12147 -10745469.68046  20894146.4304   20894136.0704         47.0004
        38.7504
 -16309968.00046 -10186031.58243  22753702.6414   22753689.2934         38.7504
        22.2504
  -2622163.32846  -3246843.22743  24079122.0164   24079106.6174         38.7504
        20.5004
 15  1  3  0 55  0.0000000  0  7G12G08G29G31G25G14G02
   2188109.92646   2330342.12543  23586656.6644   23586644.2544         38.2504
        23.5004
  -2940271.36345   -866056.27742  25453562.8054   25453551.8014         33.2504
        14.7504
 -20453782.89148 -15744580.39847  19938176.8134   19938163.4654         49.0004
        46.0004
 -21841103.04747 -16269645.92246  21034991.6334   21034977.8164         46.2504
        40.0004
 -16603496.35547 -10714198.95746  20901783.1094   20901771.9884         46.2504
        39.0004
 -16228271.78546 -10122372.23043  22769248.0944   22769235.5664         38.5004
        22.0004
  -2566666.62146  -3203599.01243  24089681.7034   24089667.8874         38.0004
        20.0004
 15  1  3  0 55 30.0000000  0  8G12G21G08G29G31G25G14G02
   2267883.10946   2392503.00044  23601837.1334   23601824.4884         39.2504
        24.0004
    -48102.59415                  23971399.500                          31.000

  -3048704.09845   -950549.33242  25432927.6334   25432917.8014         33.2504
        15.5004
 -20443141.87548 -15736288.68047  19940201.8674   19940188.8134         49.7504
        46.2504
 -21893059.82447 -16310131.71146  21025104.3984   21025090.8164         47.0004
        40.2504
 -16563131.78547 -10682746.05946  20909463.3984   20909453.0394         46.0004
        38.5004
 -16146296.05146 -10058495.07443  22784847.9384   22784834.8244         38.7504
        20.5004
  -2510760.43446  -3160035.73843  24100320.5944   24100305.7234         38.0004
        21.2504
 15  1  3  0 56  0.0000000  0  8G12G21G08G29G31G25G14G02
   2347730.68846   2454721.86744  23617031.2584   23617019.1414         39.2504
        24.0004
   -140708.734 5                  23953777.938                          31.750

  -3157178.16445  -1035074.54342  25412285.5314   25412276.2854         33.0004
        17.7504
 -20432011.57448 -15727615.71947  19942319.7424   19942306.3954         48.7504
        46.5004
 -21944614.11747 -16350303.88346  21015294.3524   21015280.4184         47.0004
        39.7504
 -16522533.54347 -10651111.06246  20917189.2504   20917179.0084         45.7504
        38.7504
 -16064043.64846  -9994402.33643  22800499.8054   22800487.2194         38.7504
        22.0004
  -2454446.32446  -3116154.59843  24111036.8134   24111022.1174         38.5004
        21.5004
 15  1  3  0 56 30.0000000  0  8G12G21G08G29G31G25G14G02
   2427652.40646   2516998.48443  23632238.9224   23632227.4494         38.2504
        22.7504
   -233249.555 5                  23936167.055                          32.750

  -3265692.05145  -1119630.77043  25391636.5784   25391626.4534         34.0004
        18.5004
 -20420393.19148 -15718562.42247  19944530.2664   19944517.1524         48.7504
        46.2504
 -21995763.96947 -16390160.90646  21005560.9224   21005547.0474         46.2504
        40.0004
 -16481701.82847 -10619294.15246  20924959.1254   20924948.9414         45.5004
        38.5004
 -15981518.08246  -9930096.69943  22816204.4534   22816191.2234         38.5004
        20.2504
  -2397725.79346  -3071956.77743  24121830.3204   24121815.0984         38.0004
        19.7504
 15  1  3  0 57  0.0000000  0  8G12G21G08G29G31G25G14G02
   2507647.83246   2579332.57843  23647462.1564   23647450.0984         37.0004
        22.0004
   -325722.105 5                  23918570.313                          33.000

  -3374243.92645  -1204216.74242  25370980.4844   25370969.4804         34.2504
        15.5004
 -20408288.77748 -15709130.40647  19946833.5314   19946820.7704         49.0004
        46.2504
 -22046507.71547 -16429701.48446  20995904.2974   20995890.7734         47.0004
        40.5004
 -16440636.78147 -10587295.41846  20932773.1884   20932763.0634         45.0004
        38.7504
 -15898722.21146  -9865580.44943  22831959.6414   22831946.4104         38.2504
        19.5004
  -2340600.29346  -3027443.39843  24132700.5084   24132686.1054         37.5004
        21.5004
 15  1  3  0 57 30.0000000  0  8G12G21G08G29G31G25G14G02
   2587717.12546   2641724.18443  23662699.0004   23662686.4734         37.5004
        21.5004
   -418124.24645    -27263.81652  23900986.8284   23900973.8914         33.7504
        15.5004
  -3482832.20345  -1288830.91842  25350315.5784   25350305.8054         32.7504
        16.7504
 -20395698.44948 -15699319.75447  19949229.6564   19949216.7194         49.2504
        46.2504
 -22096843.16847 -16468923.91046  20986326.2894   20986312.5314         47.0004
        40.5004
 -16399338.62547 -10555115.04746  20940633.4614   20940622.1644         46.5004
        38.5004
 -15815659.27746  -9800856.12143  22847765.3834   22847752.5044         37.7504
        19.2504
  -2283071.49646  -2982615.75843  24143647.6804   24143633.0434         38.2504
        21.5004
 15  1  3  0 58  0.0000000  0  8G12G21G08G29G31G25G14G02
   2667860.39146   2704173.46943  23677950.3204   23677937.0904         38.0004
        22.0004
   -510453.72745    -99208.82842  23883416.7424   23883405.0354         33.7504
        16.2504
  -3591454.85545  -1373471.94142  25329645.3204   25329636.2504         32.0004
        16.2504
 -20382623.51248 -15689131.49247  19951717.7894   19951704.5594         48.5004
        46.0004
 -22146767.93747 -16507826.32046  20976825.2194   20976812.1054         46.0004
        40.0004
 -16357807.46547 -10522753.11346  20948536.1484   20948525.4964         45.7504
        38.5004
 -15732331.97746  -9735925.77043  22863622.7504   22863609.4024         37.5004
        18.5004
  -2225140.99246  -2937475.08643  24154672.0634   24154656.6644         37.5004
        20.7504
 15  1  3  0 58 30.0000000  0  8G12G21G08G29G31G25G14G02
   2748076.93046   2766679.81343  23693214.7814   23693202.1374         38.2504
        22.0004
   -602707.70345   -121255.01253  23865862.4534   23865847.6414         33.5004
        18.5004
  -3700110.01645  -1458138.24642  25308971.0474   25308959.9264         34.5004
        16.7504
 -20369065.70748 -15678566.96147  19954297.4924   19954284.4964         49.0004
        46.0004
 -22196280.58247 -16546407.59846  20967403.6484   20967390.0664         47.0004
        39.7504
 -16316043.51247 -10490209.77746  20956483.5234   20956472.7544         46.0004
        38.7504
 -15648743.48045  -9670791.89142  22879527.3444   22879515.6954         35.5004
        17.7504
  -2166810.76646  -2892022.96943  24165772.5704   24165756.8204         38.2504
        21.5004
 15  1  3  0 59  0.0000000  0  8G12G21G08G29G31G25G14G02
   2828366.54346   2829243.11743  23708494.0004   23708480.7704         38.7504
        22.5004
   -694883.65245   -193080.41842  23848321.6254   23848308.6884         34.0004
        15.5004
  -3808796.07845  -1542828.62542  25288287.5234   25288277.7504         33.5004
        17.2504
 -20355026.22748 -15667627.10247  19956969.1804   19956956.1844         48.5004
        46.0004
 -22245378.87947 -16584666.00446  20958060.5084   20958046.8674         47.0004
        40.0004
 -16274046.89847 -10457485.15646  20964475.5554   20964464.4344         47.0004
        38.7504
 -15564897.07846  -9605457.09042  22895483.7194   22895471.3094         36.0004
        16.2504
  -2108082.57846  -2846260.73043  24176947.3524   24176932.0124         39.0004
        21.0004
 15  1  3  0 59 30.0000000  0  8G12G21G08G29G31G25G14G02
   2908729.09846   2891863.28143  23723786.2974   23723772.6564         38.0004
        22.7504
   -786979.03145   -264842.97742  23830796.0164   23830784.2504         34.5004
        16.2504
  -3917511.19945  -1627541.67642  25267600.5314   25267589.8794         34.0004
        17.2504
 -20340506.23848 -15656312.82047  19959732.3754   19959719.4964         49.2504
        45.7504
 -22294060.90647 -16622600.04746  20948796.3834   20948782.9774         47.5004
        40.5004
 -16231817.77047 -10424579.34846  20972510.8054   20972500.4454         45.7504
        38.7504
 -15480795.85545  -9539923.72342  22911488.2664   22911474.9184         35.2504
        16.7504
  -2048957.50846  -2800189.23443  24188199.9694   24188182.9884         38.0004
        21.5004
 15  1  3  1  0  0.0000000  0  8G12G21G08G29G31G25G14G02
   2989163.88746   2954539.69543  23739092.5164   23739078.9924         38.0004
        22.2504
   -878991.50445   -336540.99242  23813286.7424   23813274.7424         34.7504
        16.7504
  -4026253.27345  -1712275.73842  25246907.6954   25246896.6334         33.7504
        17.2504
 -20325507.54748 -15644625.52047  19962586.5474   19962573.7274         49.0004
        46.0004
 -22342324.96147 -16660208.40646  20939611.9304   20939598.6994         47.0004
        40.0004
 -16189356.28147 -10391492.48046  20980591.2274   20980580.8674         47.0004
        38.2504
 -15396442.71145  -9474194.03942  22927539.4534   22927528.0394         35.0004
        17.7504
  -1989437.93746  -2753810.35243  24199525.8984   24199508.9774         38.0004
        20.5004
 15  1  3  1  0 30.0000000  0  8G12G21G08G29G31G25G14G02
   3069671.41846   3017272.81643  23754412.3524   23754399.5314         38.0004
        22.5004
   -970918.75045   -408172.54342  23795794.1414   23795781.3204         35.5004
        16.2504
  -4135020.81245  -1797029.61743  25226209.1884   25226198.5944         33.7504
        18.2504
 -20310030.88748 -15632565.78547  19965531.6024   19965518.8984         48.2504
        46.2504
 -22390168.78147 -16697489.30146  20930507.7814   20930494.3164         47.0004
        40.0004
 -16146662.62147 -10358224.69546  20988715.5084   20988704.7384         46.2504
        37.7504
 -15311840.75445  -9408270.44142  22943638.6724   22943627.0824         33.5004
        15.5004
  -1929525.33246  -2707125.24643  24210927.5164   24210909.8324         37.2504
        19.5004
 15  1  3  1  1  0.0000000  0  8G12G21G08G29G31G25G14G02
   3150251.41846   3080062.39543  23769746.2344   23769733.5314         37.7504
        22.0004
  -1062758.38345   -479735.87542  23778317.7734   23778304.2504         35.5004
        17.2504
  -4243811.73045  -1881801.78942  25205508.0554   25205495.5864         34.5004
        16.2504
 -20294077.77348 -15620134.78147  19968567.6644   19968554.9024         49.5004
        46.0004
 -22437590.57047 -16734441.34046  20921483.7194   20921470.1374         47.2504
        40.5004
 -16103736.96947 -10324776.14846  20996884.3444   20996873.1054         46.0004
        39.2504
 -15226993.18745  -9342155.47742  22959784.4064   22959773.8134         33.7504
        16.2504
  -1869221.47746  -2660135.19143  24222402.1174   24222384.8444         37.7504
        19.7504
 15  1  3  1  1 30.0000000  0  8G12G21G08G29G31G25G14G02
   3230903.45346   3142908.09843  23785094.9384   23785081.1804         39.0004
        23.0004
  -1154507.21946   -551228.45342  23760858.0634   23760844.4804         36.5004
        16.2504
  -4352624.00845  -1966590.53942  25184800.8444   25184789.8404         34.0004
        16.2504
 -20277649.95348 -15607333.87547  19971693.7114   19971680.6564         49.2504
        46.0004
 -22484588.26247 -16771062.91846  20912540.5944   20912527.1294         47.2504
        40.5004
 -16060579.42247 -10291146.89546  21005096.8674   21005085.6294         47.5004
        38.7504
 -15141903.02745  -9275851.46542  22975977.2974   22975966.8204         33.0004
        14.7504
  -1808528.09046  -2612841.65243  24233951.0004   24233935.1334         37.7504
        20.0004
 15  1  3  1  2  0.0000000  0  8G12G21G08G29G31G25G14G02
   3311627.56346   3205810.00044  23800456.2814   23800443.0514         37.7504
        24.0004
  -1246163.21546   -622648.71142  23743416.2974   23743402.7154         36.7504
        17.7504
  -4461456.00045  -2051394.66043  25164090.0004   25164079.6414         32.5004
        18.2504
 -20260748.41848 -15594163.84447  19974909.7274   19974896.8484         49.2504
        46.0004
 -22531160.08248 -16807352.64846  20903678.0634   20903664.3634         48.0004
        41.0004
 -16017190.13347 -10257337.07446  21013353.5944   21013342.8834         47.0004
        38.0004
 -15056573.42245  -9209360.97742  22992214.5084   22992205.3204         32.7504
        15.5004
  -1747446.71146  -2565245.74643  24245574.0004   24245558.6024         37.0004
        20.0004
 15  1  3  1  2 30.0000000  0  8G12G21G08G29G31G25G14G02
   3392423.42245   3268767.80143  23815829.9384   23815817.9384         35.0004
        22.7504
  -1337724.21146   -693994.88743  23725992.7504   23725978.9344         36.0004
        18.2504
  -4570305.77345  -2136212.60942  25143377.1414   25143366.3714         32.0004
        17.7504
 -20243374.57848 -15580625.78147  19978215.8834   19978203.1804         48.7504
        45.7504
 -22577303.92247 -16843308.88746  20894897.3364   20894883.4614         47.0004
        41.0004
 -15973569.28147 -10223346.80146  21021653.9774   21021643.3244         47.2504
        38.0004
 -14971007.559 5                  23008498.047                          33.250

  -1685979.27346  -2517349.07843  24257271.8364   24257255.9104         36.7504
        19.2504
 15  1  3  1  3  0.0000000  0  8G12G21G08G29G31G25G14G02
   3473290.89845   3331781.36343  23831217.4064   23831206.5784         34.5004
        21.0004
  -1429187.23046   -765264.76243  23708588.0704   23708574.8404         37.0004
        19.0004
  -4679171.50445  -2221043.02343  25122660.1884   25122649.7114         32.0004
        18.2504
 -20225530.01648 -15566720.92647  19981611.6414   19981598.5864         49.0004
        45.7504
 -22623017.94547 -16878930.19546  20886198.0314   20886184.6254         47.7504
        40.7504
 -15929717.00847 -10189176.21146  21029998.7504   21029988.3914         46.7504
        38.2504
 -14885208.352 5                  23024825.258                          32.500

  -1624127.41046  -2469152.79743  24269041.2664   24269026.2194         37.2504
        19.2504
 15  1  3  1  3 30.0000000  0  8G12G21G08G29G31G25G14G02
   3554229.70346   3394850.50843  23846620.9144   23846608.4454         37.0004
        21.7504
  -1520549.95746   -836456.45743  23691201.3834   23691188.6804         37.0004
        19.5004
  -4788051.22345  -2305884.29342  25101941.2894   25101929.8164         34.0004
        15.5004
 -20207216.09048 -15552450.32447  19985096.5784   19985083.9344         48.7504
        45.5004
 -22668300.34447 -16914215.18446  20877581.0394   20877567.5164         47.0004
        41.0004
 -15885633.44547 -10154825.39146  21038388.2664   21038377.2624         47.0004
        38.2504
                                  23041196.398                          31.500

  -1561893.04345  -2420658.48843  24280884.7664   24280869.2504         35.7504
        19.7504
 15  1  3  1  4  0.0000000  0  8G12G21G08G29G31G25G14G02
   3635239.44546   3457974.99243  23862036.1024   23862023.6914         36.5004
        22.2504
  -1611809.88346   -907568.04743  23673835.6884   23673823.2194         37.2504
        19.2504
  -4896942.94546  -2390734.97742  25081221.6414   25081207.7074         36.7504
        17.2504
 -20188434.10948 -15537815.01647  19988670.8134   19988657.8754         48.7504
        45.5004
 -22713149.00448 -16949162.18446  20869046.8364   20869033.0784         48.0004
        40.5004
 -15841318.75847 -10120294.47746  21046820.4774   21046810.0004         47.0004
        38.0004
 -14712922.660 5                  23057609.625                          31.000

  -1499278.07445  -2371867.57843  24292799.3444   24292784.8834         35.2504
        18.5004
 15  1  3  1  4 30.0000000  0  8G12G21G08G29G31G25G14G02
   3716319.99646   3521154.62543  23877465.8054   23877453.5124         36.5004
        21.0004
  -1702964.41046   -978597.53943  23656489.5634   23656477.0354         36.7504
        19.5004
  -5005844.71146  -2475593.44142  25060499.9064   25060485.1524         37.7504
        16.7504
 -20169185.16448 -15522815.83647  19992333.4454   19992321.0944         49.2504
        45.5004
 -22757562.39547 -16983770.02746  20860595.0164   20860581.1994         47.5004
        40.7504
 -15796773.07447 -10085583.57046  21055297.5704   21055286.6254         47.0004
        38.0004
 -14626442.305 5                  23074066.734                          30.500

  -1436284.09845  -2322781.36343  24304786.4224   24304772.1374         35.0004
        18.5004
 15  1  3  1  5  0.0000000  0  8G12G21G08G29G31G25G14G02
   3797471.21946   3584389.28543  23892907.3444   23892896.1644         36.7504
        21.5004
  -1794011.03946  -1049542.91443  23639163.9774   23639151.6254         37.5004
        20.5004
  -5114754.62546  -2560458.30143  25039774.1024   25039760.1684         38.0004
        19.0004
 -20149471.32048 -15507454.38747  19996085.1644   19996072.1094         49.5004
        45.5004
 -22801538.28947 -17018036.95346  20852226.6414   20852213.0004         46.7504
        41.0004
 -15751996.52747 -10050692.75446  21063818.1414   21063807.3714         46.2504
        38.2504
 -14539741.23815                  23090567.070                          30.500

  -1372913.10945  -2273401.34843  24316845.4384   24316830.9184         35.5004
        20.0004
 15  1  3  1  5 30.0000000  0  8G12G21G08G29G31G25G14G02
   3878693.25746   3647679.18543  23908364.7274   23908352.4344         38.0004
        22.2504
  -1884947.29746  -1120402.28943  23621859.4384   23621846.4414         37.7504
        19.2504
  -5223670.82446  -2645328.04343  25019046.7034   25019034.5864         37.5004
        18.5004
 -20129293.56248 -15491731.45347  19999924.5554   19999911.6174         49.5004
        45.5004
 -22845075.16848 -17051961.78546  20843942.0474   20843928.4064         48.0004
        40.7504
 -15706989.33247 -10015622.22346  21072382.5554   21072371.8444         46.2504
        38.0004
 -14452822.387 5                  23107107.000                          30.500

  -1309166.68745  -2223728.83242  24328974.7504   24328961.1684         35.0004
        17.2504
 15  1  3  1  6  0.0000000  0  8G12G21G08G29G31G25G14G02
   3959985.57846   3711023.80543  23923834.8754   23923821.4694         38.7504
        22.2504
  -1975770.77746  -1191173.81643  23604576.0234   23604563.8484         37.5004
        20.2504
  -5332591.38746  -2730201.16443  24998320.1094   24998307.4064         36.2504
        18.5004
 -20108653.87948 -15475648.58647  20003852.6174   20003839.7384         49.2504
        45.5004
 -22888170.86347 -17085542.84446  20835741.2504   20835727.6094         47.2504
        41.0004
 -15661751.52747  -9980371.99646  21080990.9454   21080980.4104         46.7504
        38.0004
 -14365689.055 5                  23123688.289                          30.000

  -1245046.85945  -2173765.29343  24341177.0864   24341162.4494         34.2504
        18.5004
 15  1  3  1  6 30.0000000  0  8G12G21G08G29G31G25G14G02
   4041348.09446   3774423.14543  23939317.0554   23939304.8204         39.5004
        22.5004
  -2066479.18046  -1261855.64843  23587315.1174   23587302.3554         37.7504
        21.5004
  -5441514.34446  -2815076.16043  24977591.8444   24977579.7274         36.0004
        18.5004
 -20087553.34448 -15459206.60947  20007867.7344   20007854.7974         48.7504
        45.5004
 -22930823.73447 -17118778.84046  20827624.5944   20827610.8364         46.5004
        41.2504
 -15616283.28947  -9944942.21546  21089643.1484   21089632.5554         45.5004
        37.5004
 -14278344.21114                  23140308.563                          28.000

  -1180555.48445  -2123512.25843  24353448.7194   24353435.1374         34.2504
        19.5004
 15  1  3  1  7  0.0000000  0  8G12G21G08G29G31G25G14G02
   4122780.87146   3837877.23443  23954814.2814   23954800.3484         40.0004
        22.7504
  -2157069.86346  -1332445.74643  23570076.0004   23570063.2384         37.7504
        21.5004
  -5550437.35546  -2899951.21143  24956865.5704   24956851.7544         36.0004
        18.2504
 -20065993.36748 -15442406.62147  20011970.3054   20011957.4264         48.7504
        45.2504
 -22973031.77347 -17151668.21946  20819592.7974   20819579.0394         47.7504
        41.0004
 -15570584.80947  -9909333.01646  21098339.5784   21098328.6914         46.2504
        37.7504
                                  23156969.617                          27.500

  -1115694.40245  -2072971.15243  24365791.8364   24365777.9024         34.5004
        19.2504
 15  1  3  1  7 30.0000000  0  7G12G21G08G29G31G25G02
   4204283.49246   3901385.77343  23970323.3444   23970309.2344         38.0004
        22.0004
  -2247539.98446  -1402941.91443  23552860.1954   23552847.3164         38.5004
        21.5004
  -5659358.53145  -2984824.83642  24936137.6254   24936125.4494         35.2504
        17.7504
 -20043975.77348 -15425250.04347  20016159.9144   20016147.5634         49.5004
        45.2504
 -23014793.28147 -17184209.65646  20811645.3594   20811632.3634         46.5004
        40.7504
 -15524656.18747  -9873544.48846  21107079.2974   21107068.5274         44.7504
        38.0004
  -1050465.49646  -2022143.43043  24378206.0554   24378190.8324         36.0004
        19.2504
 15  1  3  1  8  0.0000000  0  7G12G21G08G29G31G25G02
   4285855.75446   3964948.52343  23985844.9694   23985832.4414         37.2504
        22.0004
  -2337887.59846  -1473342.59043  23535667.9384   23535655.1764         38.5004
        21.7504
  -5768275.93045  -3069695.50442  24915410.7734   24915398.9494         35.2504
        17.7504
 -20021501.78948 -15407737.84847  20020436.9304   20020423.9924         49.0004
        45.0004
 -23056106.66447 -17216401.89846  20803784.0704   20803770.4304         46.7504
        40.7504
 -15478497.54747  -9837576.73046  21115862.8914   21115852.4734         45.2504
        37.2504
   -984870.61345  -1971030.53143  24390688.6644   24390672.8554         35.2504
        19.7504
 15  1  3  1  8 30.0000000  0  7G12G21G08G29G31G25G02
   4367497.56646   4028565.49243  24001380.4064   24001368.5234         37.5004
        22.5004
  -2428109.98846  -1543645.71943  23518498.7344   23518485.9734         38.0004
        21.5004
  -5877187.37946  -3154561.52742  24894687.5474   24894673.6724         36.2504
        17.2504
 -19998573.11348 -15389871.34447  20024800.0084   20024787.1884         49.0004
        44.5004
 -23096969.65647 -17248243.18746  20796008.0394   20795994.7504         47.7504
        40.7504
 -15432109.02047  -9801429.82046  21124690.4064   21124680.1054         46.0004
        37.2504
   -918911.44145  -1919633.75043  24403240.3134   24403224.6214         35.5004
        19.7504
 15  1  3  1  9  0.0000000  0  7G12G21G08G29G31G25G02
   4449208.54346   4092236.41843  24016929.9454   24016916.8914         36.5004
        21.7504
  -2518204.65246  -1613849.32843  23501354.9844   23501341.2274         37.7504
        20.5004
  -5986091.25446  -3239421.58642  24873962.6884   24873950.1604         36.5004
        16.2504
 -19975191.10548 -15371651.59447  20029249.2034   20029236.3244         48.0004
        44.5004
 -23137380.17247 -17279731.90246  20788318.3444   20788304.9384         46.7504
        41.5004
 -15385490.77747  -9765103.93746  21133561.1804   21133551.4064         45.7504
        37.2504
   -852590.18045  -1867954.84843  24415861.0634   24415845.1954         35.0004
        19.0004
 15  1  3  1  9 30.0000000  0  7G12G21G08G29G31G25G02
   4530988.56346   4155961.05943  24032491.7424   24032479.7424         36.0004
        22.0004
  -2608169.33646  -1683951.64543  23484234.5634   23484221.3324         38.2504
        21.5004
  -6094985.42646  -3324274.24642  24853240.2974   24853228.0634         36.5004
        16.7504
 -19951357.44148 -15353079.89847  20033784.6724   20033771.9104         49.0004
        44.7504
 -23177337.27047 -17310867.30146  20780714.7504   20780701.2854         47.5004
        41.0004
 -15338642.91847  -9728599.12546  21142476.2114   21142466.0274         45.5004
        38.0004
   -785908.89145  -1815995.41043  24428549.8834   24428534.4844         34.5004
        19.7504
 15  1  3  1 10  0.0000000  0  7G12G21G08G29G31G25G02
   4612837.56646   4219739.50043  24048066.7504   24048054.8094         37.5004
        22.5004
  -2698001.56646  -1753950.72743  23467140.0554   23467126.4734         38.0004
        21.0004
  -6203867.53145  -3409117.36742  24832519.5784   24832508.1644         34.7504
        17.2504
 -19927073.84848 -15334157.62147  20038405.7814   20038392.9614         49.0004
        44.5004
 -23216839.11348 -17341647.95346  20773198.0474   20773184.4654         48.2504
        41.2504
 -15291565.57447  -9691915.48446  21151434.7344   21151424.3754         46.5004
        37.7504
   -718868.89145  -1763756.41843  24441306.6334   24441291.5864         33.5004
        19.0004
 15  1  3  1 10 30.0000000  0  7G12G21G08G29G31G25G02
   4694754.78546   4283571.03543  24063655.3914   24063643.1564         37.2504
        22.5004
  -2787698.37946  -1823844.30943  23450071.0634   23450058.3014         38.0004
        21.2504
  -6312735.76645  -3493949.73042  24811803.2734   24811791.3914         35.0004
        15.5004
 -19902341.94948 -15314886.00447  20043112.5784   20043098.8794         49.0004
        44.7504
 -23255883.62947 -17372072.24646  20765767.9844   20765754.0514         47.7504
        41.2504
 -15244258.96947  -9655053.20346  21160437.4144   21160426.5864         46.7504
        37.5004
   -651472.46545  -1711239.74242  24454130.1644   24454116.7584         32.2504
        17.7504
 15  1  3  1 11  0.0000000  0  7G12G21G08G29G31G25G02
   4776740.55946   4347456.04343  24079257.2034   24079244.7344         37.5004
        22.0004
  -2877257.54746  -1893630.65643  23433028.8834   23433015.8284         38.2504
        22.2504
  -6421587.88345  -3578769.58642  24791088.6254   24791076.9184         34.5004
        16.2504
 -19877162.61348 -15295265.74247  20047904.0084   20047890.4844         49.0004
        44.5004
 -23294469.05147 -17402138.80946  20758425.3674   20758411.4924         47.5004
        41.7504
 -15196723.12147  -9618012.29346  21169483.2664   21169472.3204         46.5004
        37.2504
   -583721.16045  -1658446.53943  24467023.9774   24467007.9924         33.5004
        18.5004
 15  1  3  1 11 30.0000000  0  7G12G21G08G29G31G25G02
   4858795.22346   4411394.74643  24094871.5084   24094858.3954         37.5004
        21.0004
  -2966676.54346  -1963307.78943  23416012.6024   23415999.8404         38.5004
        21.7504
  -6530421.98445  -3663575.38742  24770379.1644   24770366.7544         35.0004
        16.2504
 -19851537.85548 -15275298.39847  20052780.2034   20052766.7974         48.5004
        44.5004
 -23332593.66848 -17431846.29346  20751170.5474   20751156.6724         48.0004
        41.7504
 -15148958.21547  -9580792.89846  21178572.5004   21178561.5554         47.2504
        37.7504
   -515617.32445  -1605378.59843  24479984.6884   24479968.1174         34.0004
        19.2504
 15  1  3  1 12  0.0000000  0  7G12G21G08G29G31G25G02
   4940918.15246   4475386.65243  24110499.3674   24110486.6644         37.7504
        21.5004
  -3055953.01246  -2032873.83243  23399023.2894   23399010.5864         37.5004
        21.7504
  -6639235.85945  -3748365.36342  24749669.8364   24749660.2384         33.0004
        16.2504
 -19825469.73448 -15254985.56647  20057740.3834   20057727.7974         48.0004
        44.0004
 -23370255.58247 -17461193.23846  20744003.3594   20743989.7774         47.7504
        41.2504
 -15100964.34847  -9543395.08246  21187705.7034   21187694.7584         47.2504
        37.5004
   -447162.81245  -1552037.39842  24493010.6414   24492994.5394         34.2504
        16.7504
 15  1  3  1 12 30.0000000  0  7G12G21G08G29G31G25G02
   5023109.12546   4539431.51643  24126139.7424   24126126.8634         37.5004
        20.7504
  -3145084.46146  -2102326.86343  23382063.0784   23382049.7304         38.0004
        21.7504
  -6748027.45745  -3833138.00442  24728969.2114   24728957.0944         34.0004
        15.5004
 -19798959.16048 -15234327.97347  20062785.2424   20062772.4224         48.0004
        44.0004
 -23407453.34048 -17490178.49646  20736925.1884   20736911.3134         48.0004
        41.5004
 -15052741.70747  -9505819.00046  21196881.8984   21196871.2464         47.0004
        37.7504
   -378359.64845  -1498424.56242  24506103.3364   24506086.5904         33.5004
        17.2504
 15  1  3  1 13  0.0000000  0  7G12G21G08G29G31G25G02
   5105367.54346   4603528.96543  24141794.2194   24141780.2854         38.2504
        22.2504
  -3234068.70746  -2171665.21543  23365129.1954   23365116.6094         37.5004
        22.2504
  -6856794.46945  -3917891.50442  24708271.1564   24708260.0354         35.2504
        14.7504
 -19772007.93748 -15213327.02047  20067913.8204   20067901.2934         48.0004
        44.5004
 -23444185.39548 -17518800.87146  20729935.2034   20729921.3874         48.0004
        41.5004
 -15004290.35247  -9468064.70746  21206102.1644   21206091.2774         47.2504
        37.2504
   -309209.62945  -1444541.48843  24519262.6804   24519245.9344         34.5004
        18.2504
 15  1  3  1 13 30.0000000  0  7G12G21G08G29G31G25G02
   5187694.01246   4667679.43443  24157460.4064   24157446.1804         37.5004
        22.5004
  -3322902.52346  -2240886.34443  23348225.0164   23348212.3714         36.7504
        21.5004
  -6965534.89145  -4002624.28542  24687579.0394   24687566.8054         35.5004
        16.7504
 -19744617.70347 -15191983.97347  20073126.2504   20073113.1374         47.5004
        44.0004
 -23480449.87547 -17547058.90646  20723034.1174   20723020.7114         47.5004
        41.2504
 -14955610.48447  -9430132.35246  21215365.5164   21215354.5704         46.2504
        37.0004
   -239714.80545  -1390389.66442  24532486.6334   24532469.4774         33.5004
        17.7504
 15  1  3  1 14  0.0000000  0  7G12G21G08G29G31G25G02
   5270087.48046   4731882.11743  24173139.1334   24173125.4344         37.5004
        21.7504
  -3411583.89546  -2309988.68443  23331349.6334   23331336.7544         36.5004
        21.0004
  -7074246.30146  -4087334.42242  24666891.7424   24666879.8014         36.7504
        17.7504
 -19716790.32448 -15170300.29747  20078421.6334   20078408.1684         48.0004
        44.0004
 -23516244.80947 -17574951.05946  20716222.6334   20716209.1094         47.0004
        41.0004
 -14906702.16847  -9392021.97746  21224672.4454   21224661.3834         46.5004
        37.5004
   -169877.17645  -1335970.73443  24545776.0784   24545760.0944         34.5004
        18.5004
 15  1  3  1 14 30.0000000  0  7G12G21G08G29G31G25G02
   5352548.39146   4796137.36743  24188830.0004   24188817.1214         36.5004
        20.5004
  -3500110.85546  -2378970.69143  23314503.8364   23314490.7234         37.0004
        21.7504
  -7182927.04746  -4172020.73842  24646211.2974   24646198.5354         36.5004
        17.7504
 -19688527.21148 -15148277.08647  20083799.6484   20083786.6524         48.2504
        44.0004
 -23551568.75048 -17602476.21146  20709500.4454   20709487.0394         48.0004
        41.5004
 -14857565.53147  -9353733.70746  21234022.5864   21234012.2854         46.7504
        37.2504
    -99698.73045  -1281286.25043  24559130.0234   24559114.9774         34.0004
        18.5004
 15  1  3  1 15  0.0000000  0  7G12G21G08G29G31G25G02
   5435076.79745   4860445.21143  24204533.9924   24204521.1724         35.2504
        21.5004
  -3588479.99246  -2447829.72343  23297687.1334   23297674.2544         36.7504
        22.0004
  -7291574.62946  -4256681.10243  24625536.0944   24625523.8594         36.2504
        18.2504
 -19659830.33648 -15125915.88347  20089260.7274   20089247.6134         48.7504
        43.7504
 -23586420.16447 -17629633.15246  20702868.7424   20702855.2774         47.7504
        41.5004
 -14808200.71947  -9315267.62546  21243416.8984   21243405.7194         46.7504
        38.0004
    -29181.44945  -1226337.68443  24572549.7584   24572534.7704         34.7504
        19.0004
 15  1  3  1 15 30.0000000  0  7G12G21G08G29G31G25G02
   5517672.21945   4924805.24643  24220252.5234   24220239.2934         35.7504
        21.7504
  -3676689.31646  -2516564.25043  23280901.3134   23280888.3164         36.5004
        21.7504
  -7400187.00846  -4341314.15242  24604867.4304   24604855.5474         36.0004
        16.7504
 -19630700.83248 -15103217.56247  20094803.9774   20094790.5704         48.5004
        44.0004
 -23620797.13748 -17656420.40247  20696326.8134   20696313.5234         48.0004
        42.5004
 -14758607.91047  -9276623.87946  21252854.0084   21252842.9454         46.5004
        37.5004
     41672.80145  -1171126.59443  24586032.5164   24586016.8244         34.7504
        19.2504
 15  1  3  1 16  0.0000000  0  7G12G21G08G29G31G25G02
   5600334.43845   4989217.31643  24235982.2734   24235969.9804         35.2504
        21.0004
  -3764736.50445  -2585172.37943  23264146.7504   23264134.2814         35.7504
        21.2504
  -7508762.12546  -4425918.11343  24584206.4924   24584193.9064         36.5004
        18.5004
 -19601140.44948 -15080183.49647  20100429.2584   20100416.1454         48.5004
        44.0004
 -23654698.24247 -17682836.84846  20689875.9694   20689862.1524         47.2504
        41.7504
 -14708787.16047  -9237802.52046  21262334.4454   21262323.7344         47.0004
        37.7504
    112861.92645  -1115654.57043  24599579.5164   24599563.9414         35.7504
        19.0004
 15  1  3  1 16 30.0000000  0  7G12G21G08G29G31G25G02
   5683063.19145   5053681.25443  24251723.6884   24251711.8634         35.0004
        19.7504
  -3852618.93446  -2653652.18443  23247422.9774   23247410.3914         36.5004
        22.0004
  -7617297.79346  -4510491.30943  24563552.6644   24563540.0204         37.0004
        18.5004
 -19571150.85248 -15056814.97347  20106135.6564   20106122.6024         48.0004
        44.0004
 -23688121.84048 -17708881.20747  20683515.5704   20683501.9304         48.0004
        42.5004
 -14658738.63347  -9198803.67646  21271858.2424   21271847.9414         46.5004
        38.0004
    184383.65245  -1059923.36343  24613189.2194   24613173.8794         35.5004
        19.7504
 15  1  3  1 17  0.0000000  0  7G12G21G08G29G31G25G02
   5765858.37545   5118196.94543  24267480.3834   24267467.7974         35.5004
        19.5004
  -3940334.12146  -2722001.65243  23230731.9694   23230718.7384         37.2504
        22.5004
  -7725791.86746  -4595032.14842  24542907.0944   24542893.9224         37.0004
        17.2504
 -19540734.15248 -15033113.63747  20111923.7734   20111910.6604         48.0004
        43.7504
 -23721066.19947 -17734552.13347  20677246.2344   20677232.9454         47.5004
        42.0004
 -14608462.43047  -9159627.42246  21281425.5394   21281415.2384         46.5004
        37.5004
    256236.32446  -1003934.25843  24626863.5944   24626847.0824         37.5004
        19.7504
 15  1  3  1 17 30.0000000  0  7G12G21G08G29G31G25G02
   5848719.79746   5182764.25043  24283248.1024   24283235.0474         38.2504
        20.0004
  -4027879.66046  -2790218.90643  23214072.5234   23214058.7074         36.5004
        22.7504
  -7834242.03546  -4679538.72743  24522269.8524   24522256.7974         37.2504
        18.2504
 -19509891.86748 -15009080.68747  20117792.9844   20117779.9304         48.0004
        43.5004
 -23753530.03148 -17759848.62547  20671068.9064   20671055.0314         48.2504
        42.0004
 -14557958.69947  -9120273.87146  21291036.0784   21291025.8954         46.5004
        37.0004
    328417.82846   -947688.90643  24640599.1254   24640582.4384         37.5004
        19.2504
 15  1  3  1 18  0.0000000  0  7G12G21G08G29G31G25G02
   5931647.20746   5247383.02343  24299028.9224   24299016.1024         36.7504
        20.2504
  -4115253.26246  -2858302.21143  23197446.0474   23197432.4654         37.2504
        22.0004
  -7942646.01646  -4764009.37943  24501640.1414   24501628.1414         36.2504
        18.5004
 -19478625.55947 -14984717.32847  20123742.4694   20123729.4734         47.7504
        43.5004
 -23785511.52348 -17784769.25847  20664982.8444   20664969.4964         48.5004
        42.5004
 -14507227.55147  -9080743.12146  21300689.9924   21300679.3404         46.5004
        37.5004
    400926.09445   -891188.94543  24654395.4144   24654380.3094         35.5004
        19.5004
 15  1  3  1 18 30.0000000  0  7G12G21G08G29G31G25G02
   6014640.69546   5312053.28142  24314822.0474   24314808.4064         36.7504
        17.2504
  -4202452.19546  -2926249.39843  23180852.1484   23180839.2114         37.2504
        22.0004
  -8051001.88746  -4848442.46942  24481022.0554   24481008.2974         37.5004
        17.7504
 -19446936.71147 -14960024.70347  20129772.7504   20129759.6954         47.5004
        43.7504
 -23817009.03947 -17809312.77347  20658989.0084   20658975.7774         47.7504
        42.2504
 -14456269.09847  -9041035.24246  21310386.6024   21310376.2424         46.2504
        37.2504
    473758.88746   -834436.11343  24668254.5394   24668240.1954         36.0004
        19.5004
 15  1  3  1 19  0.0000000  0  7G12G21G08G29G31G25G02
   6097699.73046   5376774.59843  24330628.1724   24330614.7074         38.2504
        20.5004
  -4289474.11346  -2994058.67243  23164292.4614   23164279.8164         37.5004
        22.5004
  -8159307.12946  -4932836.09843  24460411.7034   24460398.9414         36.0004
        18.5004
 -19414827.20347 -14935004.30147  20135883.4224   20135870.3094         47.5004
        43.7504
 -23848021.06647 -17833477.98847  20653087.8134   20653074.4064         47.5004
        42.5004
 -14405083.48447  -9001150.35246  21320126.8594   21320116.6174         46.0004
        36.5004
    546914.40246   -777431.82443  24682174.7034   24682161.1214         36.5004
        19.0004
 15  1  3  1 19 30.0000000  0  7G12G21G08G29G31G25G02
   6180824.47746   5441547.11343  24346445.8674   24346432.5784         37.5004
        21.5004
  -4376316.52746  -3061728.04343  23147766.9774   23147754.1564         37.5004
        22.5004
  -8267559.24646  -5017188.39543  24439811.7424   24439799.3324         37.0004
        19.2504
 -19382298.71948 -14909657.42247  20142073.3594   20142059.9534         48.5004
        44.0004
 -23878546.31247 -17857263.88347  20647278.6094   20647265.2624         47.7504
        42.2504
 -14353670.84047  -8961088.55546  21329910.3834   21329899.8484         45.7504
        37.0004
    620390.52046   -720177.67243  24696156.9774   24696143.1604         36.0004
        18.2504
 15  1  3  1 20  0.0000000  0  7G12G21G08G29G31G25G02
   6264014.68446   5506370.62543  24362276.5234   24362263.9384         38.5004
        21.5004
  -4462977.13346  -3129255.75443  23131276.4224   23131262.8404         37.5004
        22.5004
  -8375756.15246  -5101497.65243  24419221.7734   24419209.6564         37.0004
        19.0004
 -19349353.42248 -14883985.75447  20148342.7894   20148329.4414         48.0004
        44.0004
 -23908583.02347 -17880669.11347  20641562.8674   20641549.4024         47.5004
        42.2504
 -14302031.30147  -8920849.96546  21339736.9694   21339726.9024         46.0004
        36.5004
    694185.30546   -662675.22343  24710201.2894   24710185.8324         37.2504
        19.0004
 15  1  3  1 20 30.0000000  0  7G12G21G08G29G31G25G02
   6347270.19946   5571245.00843  24378119.7504   24378107.5164         38.2504
        22.2504
  -4549453.42646  -3196639.84443  23114820.2114   23114807.2734         37.2504
        22.5004
  -8483895.76246  -5185762.27043  24398644.0234   24398631.2034         37.0004
        19.0004
 -19315992.72347 -14857990.39147  20154690.8524   20154677.8554         47.5004
        43.7504
 -23938129.80547 -17903692.57447  20635940.4144   20635927.1844         47.2504
        42.0004
 -14250164.96547  -8880434.65246  21349607.0864   21349596.5514         46.2504
        36.5004
    768296.55946   -604926.19543  24724304.8204   24724288.7774         37.5004
        19.0004
 15  1  3  1 21  0.0000000  0  7G12G21G08G29G31G25G02
   6430590.75046   5636170.11743  24393975.3754   24393962.4384         38.5004
        21.2504
  -4635742.89146  -3263878.35243  23098400.4534   23098386.6954         38.5004
        22.5004
  -8591975.75046  -5269980.39543  24378076.8444   24378064.5514         37.2504
        19.0004
 -19282218.85248 -14831673.09047  20161117.4774   20161104.6564         48.0004
        43.5004
 -23967185.13747 -17926333.08247  20630411.1804   20630397.8324         47.5004
        42.0004
 -14198071.97747  -8839842.72746  21359520.6414   21359509.7544         47.0004
        36.5004
    842722.26246   -546932.20742  24738467.5864   24738451.0164         37.7504
        17.7504
 15  1  3  1 21 30.0000000  0  7G12G21G08G29G31G25G02
   6513976.33646   5701145.89543  24409842.9224   24409830.2194         37.5004
        20.0004
  -4721843.19546  -3330969.46143  23082015.0164   23082001.7274         38.5004
        22.7504
  -8699993.93046  -5354150.38342  24357521.7504   24357509.0474         37.0004
        17.2504
 -19248032.67647 -14805034.50447  20167623.0704   20167609.7814         47.5004
        43.5004
 -23995747.40647 -17948589.38747  20624976.2034   20624962.7974         47.0004
        42.2504
 -14145752.41447  -8799074.25046  21369476.1254   21369465.7074         46.2504
        36.2504
    917459.94946   -488694.99243  24752690.4224   24752672.6214         38.2504
        18.5004
 15  1  3  1 22  0.0000000  0  7G12G21G08G29G31G25G02
   6597426.60245   5766172.03942  24425722.5864   24425710.2344         35.7504
        17.7504
  -4807752.03446  -3397911.39744  23065667.7504   23065654.1684         38.5004
        24.5004
  -8807948.00846  -5438270.41843  24336979.7734   24336966.3674         37.7504
        18.5004
 -19213436.11348 -14778076.14147  20174206.8594   20174193.3954         48.0004
        43.7504
 -24023815.14848 -17970460.34847  20619635.2814   20619621.6414         48.0004
        42.5004
 -14093206.43447  -8758129.33646  21379475.5944   21379464.7074         46.2504
        36.2504
    992507.97346   -430216.05543  24766970.8914   24766953.1484         38.0004
        19.2504
 15  1  3  1 22 30.0000000  0  8G12G21G08G29G16G31G25G02
   6680940.92645   5831248.16842  24441615.2194   24441602.9264         35.5004
        16.7504
  -4893467.04746  -3464702.28943  23049356.8984   23049342.7894         38.7504
        22.5004
  -8915835.46146  -5522338.52943  24316450.1414   24316436.1484         38.7504
        20.5004
 -19178431.37947 -14750799.71947  20180867.7274   20180855.0824         47.5004
        43.7504
                                  25319942.898                          29.750

 -24051387.35947 -17991945.18447  20614388.4064   20614374.7074         47.0004
        42.2504
 -14040434.16847  -8717008.09046  21389517.7274   21389507.3094         46.0004
        36.5004
   1067864.19146   -371496.92242  24781310.9144   24781293.8754         38.0004
        17.7504
 15  1  3  1 23  0.0000000  0  8G12G21G08G29G16G31G25G02
   6764519.87945   5896374.55142  24457519.1644   24457507.3984         35.0004
        17.2504
  -4978985.21546  -3531339.80544  23033083.7664   23033069.8914         39.7504
        24.7504
  -9023654.12146  -5606353.02343  24295933.0634   24295918.8364         38.0004
        19.2504
 -19143020.26247 -14723206.63347  20187606.4774   20187593.4224         47.5004
        43.7504
                                  25303301.930                          31.500

 -24078462.09047 -18013042.37547  20609236.0784   20609222.6134         47.7504
        42.2504
 -13987435.71147  -8675710.60946  21399603.1564   21399592.3284         46.2504
        36.0004
   1143526.51646   -312539.30542  24795708.7034   24795692.2504         37.0004
        16.7504
 15  1  3  1 23 30.0000000  0  8G12G21G08G29G16G31G25G02
   6848162.99245   5961550.98442  24473436.7034   24473424.7034         34.5004
        17.2504
  -5064304.60946  -3597822.42243  23016846.7424   23016833.5704         38.7504
        22.7504
  -9131401.45346  -5690311.96143  24275429.1094   24275415.1174         39.5004
        19.7504
 -19107203.88348 -14695297.75047  20194421.8444   20194408.9064         48.0004
        43.7504
   -390079.26214                  25286659.484                          29.000

 -24105037.97347 -18033750.85247  20604178.7034   20604165.4734         47.5004
        42.5004
 -13934211.25047  -8634237.01246  21409731.0864   21409720.4924         46.0004
        36.7504
   1219492.76246   -253344.81642  24810163.8674   24810149.0554         37.7504
        16.7504
 15  1  3  1 24  0.0000000  0  8G12G21G08G29G16G31G25G02
   6931870.48445   6026777.55942  24489366.1174   24489353.5904         35.5004
        16.2504
  -5149422.69946  -3664148.21144  23000649.5314   23000636.3594         40.2504
        24.0004
  -9239075.43046  -5774213.71543  24254939.5474   24254925.7304         39.2504
        20.0004
 -19070984.34048 -14667074.71947  20201314.2974   20201301.4774         48.2504
        43.5004
   -477544.01214                  25270015.023                          27.250

 -24131113.46148 -18054069.41847  20599216.8364   20599203.1374         48.5004
        42.2504
 -13880760.84447  -8592587.34846  21419902.2814   21419892.0984         45.5004
        36.0004
   1295760.76646   -193915.19542  24824677.0164   24824662.6724         38.0004
        14.7504
 15  1  3  1 24 30.0000000  0  7G12G21G08G29G31G25G02
                                  24505305.898                          30.000

  -5234337.03146  -3730315.17644  22984490.9224   22984477.8094         39.7504
        25.5004
  -9346673.57046  -5858056.39143  24234464.1724   24234450.5314         39.5004
        20.5004
 -19034363.65247 -14638539.11347  20208282.5944   20208269.8914         47.2504
        43.5004
 -24156687.36347 -18073997.12947  20594350.3204   20594336.3874         47.7504
        42.5004
 -13827084.62947  -8550761.73446  21430116.5474   21430106.3634         45.7504
        36.2504
   1372328.57046   -134251.93742  24839248.2424   24839232.7274         36.5004
        15.5004
 15  1  3  1 25  0.0000000  0  6G21G08G29G31G25G02
  -5319045.63346  -3796321.85244  22968371.5474   22968358.0824         39.5004
        25.0004
  -9454193.31246  -5941838.02043  24214004.1334   24213990.5514         39.0004
        20.2504
 -18997343.74647 -14609692.42247  20215327.4064   20215314.4104         47.7504
        43.5004
 -24181758.54347 -18093533.10247  20589579.5704   20589565.6954         47.7504
        42.5004
 -13773182.77747  -8508760.30146  21440373.7734   21440363.4734         45.2504
        36.2504
   1449193.96946    -74356.81642  24853876.3524   24853860.1914         38.2504
        16.2504
 15  1  3  1 25 30.0000000  0  6G21G08G29G31G25G02
  -5403545.86746  -3862166.16444  22952291.5634   22952277.9804         40.0004
        24.2504
  -9561632.38346  -6025556.71543  24193558.9694   24193545.2704         39.0004
        19.7504
 -18959925.77347 -14580535.55947  20222447.8754   20222434.8204         47.5004
        43.7504
 -24206325.45748 -18112676.14847  20584904.9224   20584891.1054         48.0004
        42.7504
 -13719055.37147  -8466583.09845  21450673.9534   21450663.5944         45.2504
        35.7504
   1526354.80946    -14231.56642  24868559.4304   24868544.9104         39.0004
        15.5004
 15  1  3  1 26  0.0000000  0  7G12G21G08G29G31G25G02
    105248.99615                  24553205.195                          32.500

  -5487835.08246  -3927846.04744  22936251.9224   22936238.3404         39.5004
        24.7504
  -9668988.63146  -6109210.92443  24173129.7504   24173116.1094         38.5004
        20.0004
 -18922111.82847 -14551070.14147  20229643.8134   20229630.8164         47.7504
        43.2504
 -24230386.34448 -18131424.89147  20580326.4304   20580312.2624         48.0004
        42.5004
 -13664702.56247  -8424230.27345  21461017.0084   21461006.5904         45.0004
        35.5004
   1603808.90646     46122.34442  24883298.9064   24883284.8554         38.0004
        16.2504
 15  1  3  1 26 30.0000000  0  7G12G21G08G29G31G25G02
                                  24569193.156                          28.250

  -5571910.90246  -3993359.66044  22920251.9694   22920239.2074         38.7504
        24.5004
  -9776259.39846  -6192798.48843  24152717.1724   24152703.4144         38.2504
        18.5004
 -18883904.21947 -14521297.98047  20236914.4384   20236901.3244         47.0004
        43.5004
 -24253940.70748 -18149778.94147  20575843.6024   20575830.0784         48.0004
        43.0004
 -13610124.41047  -8381701.85246  21471402.8204   21471392.8134         45.5004
        36.7504
   1681554.06346    106703.03942  24898093.2894   24898079.2384         38.0004
        16.2504
 15  1  3  1 27  0.0000000  0  6G21G08G29G31G25G02
  -5655771.15246  -4058705.27344  22904294.4144   22904281.2424         38.0004
        25.0004
  -9883442.37546  -6276317.66843  24132320.7114   24132307.3054         38.5004
        21.0004
 -18845304.07048 -14491219.93447  20244259.7814   20244246.6684         48.0004
        43.5004
 -24276986.77348 -18167736.90647  20571458.3134   20571444.6724         49.0004
        42.7504
 -13555321.14847  -8338998.02046  21481831.6954   21481821.6884         45.7504
        36.0004
   1759588.33646    167508.97442  24912942.8674   24912928.7584         38.0004
        16.2504
 15  1  3  1 27 30.0000000  0  6G21G08G29G31G25G02
  -5739413.29746  -4123880.94144  22888377.6724   22888364.9694         38.0004
        24.5004
  -9990535.04346  -6359766.48443  24111941.0084   24111928.3054         38.0004
        20.7504
 -18806313.44947 -14460837.62947  20251679.1884   20251666.4264         47.5004
        43.5004
 -24299523.28148 -18185297.82447  20567170.1094   20567155.6484         48.7504
        43.0004
 -13500292.84447  -8296118.83245  21492303.4774   21492292.8244         46.0004
        35.5004
   1837909.57046    228538.52742  24927846.9614   24927833.1454         37.0004
        15.5004
 15  1  3  1 28  0.0000000  0  6G21G08G29G31G25G02
  -5822835.06246  -4188884.87943  22872504.2734   22872490.1054         38.5004
        23.5004
 -10097535.52746  -6443143.45743  24091578.7894   24091566.7894         37.0004
        20.0004
 -18766934.57448 -14430152.79347  20259173.3054   20259160.3094         48.0004
        43.2504
 -24321549.02048 -18202460.73047  20562978.3054   20562964.5474         48.2504
        43.0004
 -13445039.60547  -8253064.37945  21502817.4844   21502807.1844         45.2504
        35.0004
   1916515.70745    289790.07042  24942804.6644   24942791.4344         34.5004
        14.7504
 15  1  3  1 28 30.0000000  0  7G12G21G08G29G31G25G02
    145591.83615                  24633271.094                          31.000

  -5906034.11746  -4253715.28544  22856671.3284   22856657.6884         38.2504
        24.5004
 -10204441.01646  -6526446.39843  24071233.9614   24071223.4264         36.5004
        19.2504
 -18727168.51648 -14399166.24647  20266740.1884   20266727.3674         48.2504
        43.2504
 -24343062.47748 -18219224.45747  20558884.6414   20558870.8834         48.7504
        42.7504
 -13389561.58247  -8209834.76245  21513374.8914   21513364.1804         45.2504
        35.5004
   1995404.449 5                  24957815.555                          33.000

 15  1  3  1 29  0.0000000  0  6G21G08G29G31G25G02
  -5989008.20346  -4318370.37944  22840881.9064   22840868.1484         39.0004
        25.5004
 -10311249.28945  -6609673.59043  24050909.3914   24050897.8594         35.2504
        20.0004
 -18687017.58248 -14367879.80547  20274380.6804   20274367.5664         48.5004
        43.0004
 -24364062.50448 -18235588.11747  20554888.3914   20554874.5164         48.7504
        42.5004
 -13333858.94147  -8166430.10945  21523974.8284   21523963.8834         45.0004
        35.2504
   2074573.762 5                  24972879.414                          31.250

 15  1  3  1 29 30.0000000  0  6G21G08G29G31G25G02
  -6071754.74246  -4382848.16844  22825135.4774   22825122.3054         38.2504
        26.0004
 -10417957.67645  -6692822.98843  24030602.9694   24030592.0824         33.7504
        18.5004
 -18646483.65647 -14336294.91847  20282093.8594   20282081.0984         47.7504
        43.0004
 -24384547.87948 -18251550.75047  20550989.9924   20550976.7034         48.2504
        43.2504
 -13277931.75447  -8122850.49646  21534617.2194   21534606.8594         45.2504
        36.0004
   2154021.336 5                  24987997.273                          30.500

 15  1  3  1 30  0.0000000  0  6G21G08G29G31G25G02
  -6154271.31646  -4447146.75844  22809432.5944   22809420.3014         38.2504
        26.2504
 -10524563.72745  -6775892.55143  24010316.0394   24010305.6214         33.5004
        19.0004
 -18605568.19148 -14304412.73847  20289880.0634   20289866.6564         48.0004
        43.2504
 -24404517.25448 -18267111.30147  20547189.7344   20547176.0944         48.5004
        42.7504
 -13221780.18447  -8079096.04745  21545302.9304   21545292.1604         45.0004
        35.5004
                                  25003166.531                          27.250

 15  1  3  1 30 30.0000000  0  6G12G21G08G29G31G25
    118880.94115                  24697535.563                          32.500

  -6236556.05946  -4511264.70744  22793774.7664   22793761.7114         39.5004
        24.7504
 -10631064.78145  -6858880.37943  23990050.2734   23990039.2114         35.5004
        19.7504
 -18564273.23448 -14272234.85947  20297738.5864   20297725.1214         48.2504
        43.0004
 -24423969.81648 -18282269.14547  20543487.9224   20543474.6334         49.2504
        43.0004
 -13165404.38347  -8035166.86745  21556030.1804   21556020.2304         45.2504
        35.5004
 15  1  3  1 31  0.0000000  0  6G12G21G08G29G31G25
                                  24713632.492                          30.500

  -6318606.10946  -4575199.78944  22778161.2974   22778147.8914         39.0004
        26.2504
 -10737458.64845  -6941784.67643  23969804.4224   23969793.1844         35.0004
        20.2504
 -18522600.93048 -14239762.93047  20305668.2584   20305655.2624         48.5004
        43.0004
 -24442903.99648 -18297023.04747  20539885.1484   20539871.3914         48.7504
        42.7504
 -13108804.43447  -7991063.02045  21566800.7814   21566791.0664         44.2504
        35.2504
 15  1  3  1 31 30.0000000  0  5G21G08G29G31G25
  -6400419.48046  -4638950.43444  22762592.4924   22762579.1454         40.2504
        26.0004
 -10843742.85946  -7024603.51243  23949579.6644   23949568.0744         36.0004
        21.2504
 -18480552.81248 -14206998.16447  20313669.1024   20313656.5164         48.2504
        42.5004
 -24461318.92648 -18311372.33647  20536380.5944   20536367.7734         48.5004
        42.7504
 -13051980.50447  -7946784.64845  21577613.4534   21577604.3244         45.0004
        35.2504
 15  1  3  1 32  0.0000000  0  5G21G08G29G31G25
  -6481993.50446  -4702514.60244  22747069.3674   22747055.7274         40.7504
        25.0004
 -10949914.81646  -7107334.87543  23929375.1414   23929363.8444         36.0004
        20.7504
 -18438130.46148 -14173941.78147  20321742.0164   20321729.3134         48.0004
        42.5004
 -24479213.43048 -18325316.10547  20532975.6724   20532962.2074         48.7504
        43.2504
 -12994932.75047  -7902331.86345  21588469.4774   21588460.2304         44.7504
        35.0004
 15  1  3  1 32 30.0000000  0  5G21G08G29G31G25
  -6563325.95346  -4765890.50844  22731591.9144   22731579.1524         40.5004
        25.5004
 -11055972.27346  -7189976.99643  23909193.5004   23909182.0864         38.0004
        21.7504
 -18395336.06247 -14140595.48847  20329885.9224   20329873.1024         47.7504
        42.5004
 -24496586.25448 -18338853.37147  20529669.7034   20529656.0044         49.0004
        43.5004
 -12937661.23447  -7857704.71545  21599368.0784   21599358.3054         44.5004
        35.0004
 15  1  3  1 33  0.0000000  0  5G21G08G29G31G25
  -6644414.48846  -4829076.36344  22716161.3914   22716148.3364         41.2504
        26.0004
 -11161912.50846  -7272527.76643  23889035.2584   23889022.6134         38.5004
        22.5004
 -18352171.71548 -14106960.93447  20338099.5704   20338087.1604         48.5004
        42.2504
 -24513436.36348 -18351983.32047  20526463.8984   20526449.5554         48.7504
        43.5004
 -12880166.14147  -7812903.35545  21610309.3444   21610299.0434         45.2504
        35.5004
 15  1  3  1 33 30.0000000  0  6G21G08G29G31G23G25
  -6725257.08246  -4892070.55944  22700778.3444   22700764.4694         41.7504
        25.5004
 -11267732.92446  -7354985.23143  23868897.7814   23868885.1374         39.0004
        22.5004
 -18308638.98848 -14073039.32447  20346383.7664   20346370.7114         48.7504
        42.2504
 -24529762.55948 -18364705.03947  20523356.7034   20523343.1214         49.2504
        43.0004
    -25450.51215                  25793048.914                          33.500

 -12822447.59047  -7767927.87945  21621293.5004   21621282.4384         45.0004
        35.2504
 15  1  3  1 34  0.0000000  0  5G21G08G29G31G25
  -6805851.18446  -4954871.13344  22685441.1094   22685427.7034         40.7504
        26.0004
 -11373431.28946  -7437347.56243  23848784.7894   23848771.5004         40.0004
        22.7504
 -18264739.79748 -14038832.16447  20354737.1414   20354723.9694         48.5004
        42.0004
 -24545563.71148 -18377017.62147  20520349.5394   20520336.0164         49.2504
        43.2504
 -12764505.74647  -7722778.39845  21632319.3134   21632308.8364         45.5004
        35.5004
 15  1  3  1 34 30.0000000  0  7G21G08G29G31G05G25G02
  -6886194.12946  -5017476.00444  22670152.9224   22670138.9884         41.0004
        26.0004
 -11479004.86346  -7519612.65244  23828693.6954   23828681.3444         40.0004
        24.0004
 -18220476.43747 -14004341.23046  20363160.2814   20363147.1094         47.7504
        41.7504
 -24560838.88348 -18388920.35247  20517442.7734   20517429.1334         49.0004
        43.0004
    -60867.34014                  25648473.313                          28.250

 -12706340.69947  -7677455.00846  21643388.0704   21643377.1844         45.5004
        36.0004
    483336.27755    384996.41452  25142007.0784   25141988.7504         32.5004
        17.7504
 15  1  3  1 35  0.0000000  0  6G21G08G29G31G25G02
  -6966284.08646  -5079883.73444  22654911.5234   22654898.8794         40.7504
        28.2504
 -11584451.30546  -7601778.66843  23808628.7894   23808614.6214         39.2504
        22.7504
 -18175850.39848 -13969567.69147  20371652.3984   20371639.3444         48.0004
        42.0004
 -24575586.97748 -18400412.37147  20514636.5944   20514622.7774         48.7504
        43.0004
 -12647952.62147  -7631957.82445  21654498.4614   21654488.3954         44.7504
        35.2504
    565701.71945    449177.27042  25157679.7344   25157663.7504         33.7504
        17.7504
 15  1  3  1 35 30.0000000  0  8G21G08G29G31G23G05G25G02
  -7046118.78946  -5142092.55544  22639719.3134   22639706.5514         40.7504
        27.0004
 -11689768.01646  -7683843.61743  23788587.0554   23788574.1174         38.7504
        22.7504
 -18130863.26247 -13934512.77746  20380213.0704   20380199.7814         47.7504
        41.5004
 -24589807.20748 -18411493.06647  20511930.3834   20511916.7424         49.0004
        43.0004
                                  25750298.430                          31.000

   -156258.77715                  25630320.320                          30.750

 -12589341.67247  -7586286.96145  21665652.3054   21665641.4184         45.2504
        35.0004
    648319.11745    513554.38742  25173399.9144   25173385.5124         34.0004
        17.7504
 15  1  3  1 36  0.0000000  0  9G21G08G29G16G31G23G05G25G02
  -7125696.12147  -5204100.83244  22624576.5944   22624563.9494         42.2504
        27.7504
 -11794952.37146  -7765805.41843  23768570.8054   23768557.6334         39.0004
        22.7504
 -18085517.03547 -13899178.04746  20388842.3284   20388829.6254         47.2504
        41.7504
   -153988.23415                  24870413.180                          32.250

 -24603498.37148 -18422161.50047  20509325.4144   20509311.3054         49.0004
        43.2504
   -305174.230 5                  25739816.430                          32.500

   -203466.10914                  25621338.094                          29.750

 -12530507.94947  -7540442.51245  21676847.3914   21676836.8554         45.5004
        35.0004
    731186.58245    578126.44943  25189169.3754   25189154.7974         34.2504
        18.5004
 15  1  3  1 36 30.0000000  0  9G21G08G29G16G31G23G05G25G02
  -7205013.22746  -5265906.34844  22609483.3834   22609469.5664         41.5004
        28.2504
 -11900001.99246  -7847662.23043  23748580.7814   23748567.1414         38.5004
        22.5004
 -18039813.86747 -13863565.18447  20397539.3674   20397526.6054         47.5004
        42.0004
   -241482.395 5                  24853764.344                          33.500

 -24616659.52348 -18432416.94147  20506820.5474   20506806.9064         49.2504
        43.0004
   -359839.715 5                  25729413.711                          33.250

   -250343.00845     -1793.91453  25612417.3674   25612406.7154         32.7504
        19.5004
 -12471451.61347  -7494424.60545  21688085.2584   21688074.8404         44.7504
        34.5004
    814301.63345    642891.43443  25204984.5164   25204970.5234         33.5004
        18.2504
 15  1  3  1 37  0.0000000  0  9G21G08G29G16G31G23G05G25G02
  -7284068.44946  -5327507.78944  22594439.5944   22594425.8364         41.5004
        27.7504
 -12004914.16846  -7929411.98443  23728616.6484   23728603.4774         38.2504
        22.7504
 -17993755.46547 -13827675.51247  20406304.0234   20406291.2034         47.2504
        42.0004
   -328973.406 5                  24837115.234                          34.000

 -24629289.55148 -18442258.52347  20504416.8594   20504403.2774         48.2504
        42.7504
   -414074.250 5                  25719094.289                          34.500

                                  25603561.1564   25603549.6254         31.5004
        14.7504
 -12412172.81647  -7448233.34045  21699365.3364   21699355.3284         45.0004
        34.2504
    897662.22745    707847.72743  25220847.8594   25220833.9844         35.0004
        19.0004
 15  1  3  1 37 30.0000000  0  9G21G08G29G16G31G23G05G25G02
  -7362859.47747  -5388903.36744  22579445.9614   22579432.5554         42.0004
        28.2504
 -12109686.26246  -8011052.51643  23708679.5634   23708666.0984         38.5004
        22.7504
 -17947343.83647 -13791510.60946  20415136.0234   20415122.8524         46.7504
        41.7504
   -416461.219 5                  24820464.875                          33.750

 -24641387.42248 -18451685.43747  20502115.1644   20502101.0554         48.0004
        43.0004
   -467875.918 5                  25708855.641                          35.750

   -343095.66445    -74068.50042  25594766.0634   25594756.8754         30.5004
        15.5004
 -12352671.75047  -7401868.90645  21710688.0394   21710677.8554         44.5004
        34.2504
    981266.66445    772994.00843  25236756.2274   25236742.9384         34.7504
        18.5004
 15  1  3  1 38  0.0000000  0  9G21G08G29G16G31G23G05G25G02
  -7441383.25846  -5450090.70744  22564503.2034   22564490.0314         41.0004
        28.0004
 -12214315.82446  -8092582.03943  23688768.4774   23688755.4224         38.0004
        22.7504
 -17900580.68747 -13755071.79346  20424034.5704   20424021.2234         47.0004
        41.5004
   -503944.836 5                  24803817.781                          33.250

 -24652952.35248 -18460697.07047  20499914.0394   20499900.5744         48.5004
        43.0004
   -521243.648 5                  25698699.266                          32.750

   -388966.61745   -109812.11742  25586039.8134   25586027.3444         32.0004
        15.5004
 -12292948.47347  -7355331.30145  21722052.8674   21722043.5044         44.7504
        35.0004
   1065111.46545    838327.64843  25252712.1174   25252697.5394         35.5004
        18.5004
 15  1  3  1 38 30.0000000  0  9G21G08G29G16G31G23G05G25G02
  -7519637.90647  -5511068.32044  22549611.5704   22549598.7504         42.0004
        29.5004
 -12318800.05546  -8173998.31244  23668885.7194   23668873.1334         38.2504
        24.5004
 -17853468.32847 -13718360.85946  20432999.4144   20432986.3594         46.2504
        41.2504
   -591424.125 5                  24787171.609                          34.250

 -24663983.51648 -18469292.78147  20497815.2664   20497801.6844         48.2504
        43.2504
   -574175.887 5                  25688627.383                          32.250

   -434497.62154   -145290.74252  25577373.6254   25577364.4384         29.2504
        15.5004
 -12233003.16847  -7308620.68745  21733460.8054   21733450.5634         45.0004
        35.5004
   1149195.36745    903847.53143  25268711.8054   25268697.8134         34.5004
        18.2504
 15  1  3  1 39  0.0000000  0  9G21G08G29G16G31G23G05G25G02
  -7597621.33646  -5571834.60244  22534772.0864   22534758.9144         41.5004
        29.0004
 -12423136.48446  -8255299.36744  23649030.1174   23649018.4694         38.2504
        25.5004
 -17806008.73047 -13681379.35946  20442030.6484   20442017.3594         47.2504
        41.5004
   -678898.609 5                  24770524.414                          33.000

 -24674479.94948 -18477471.82047  20495817.6644   20495804.3164         49.0004
        43.5004
   -626671.055 5                  25678636.930                          34.750

   -479686.19154   -180502.56652  25568773.8444   25568765.5944         28.0004
        14.7504
 -12172836.02747  -7261737.22345  21744910.1254   21744900.1174         45.0004
        34.7504
   1233516.16045    969552.06343  25284758.2114   25284743.0474         35.2504
        19.2504
 15  1  3  1 39 30.0000000  0  9G21G08G29G16G31G23G05G25G02
  -7675331.83247  -5632388.20344  22519984.1564   22519971.0434         42.0004
        29.0004
 -12527322.45746  -8336483.23843  23629203.8914   23629192.9454         38.2504
        22.7504
 -17758203.43047 -13644128.47746  20451128.1094   20451114.9384         46.5004
        41.5004
   -766368.176 5                  24753879.266                          32.000

 -24684440.84448 -18485233.55947  20493922.1254   20493908.4844         48.2504
        43.0004
   -678727.422 6                  25668730.945                          36.500

   -524529.57845   -215445.38342  25560241.4304   25560231.5984         31.0004
        14.7504
 -12112447.12947  -7214680.94945  21756401.8444   21756391.0744         44.2504
        34.2504
   1318071.32045   1035439.19543  25300848.4224   25300833.6684         35.0004
        19.5004
 15  1  3  1 40  0.0000000  0  9G21G08G29G16G31G23G05G25G02
  -7752766.68047  -5692727.02744  22505249.3054   22505235.7814         42.5004
        28.5004
 -12631355.37946  -8417547.82443  23609407.5314   23609396.8204         38.2504
        22.7504
 -17710053.91047 -13606609.37146  20460290.4924   20460277.9064         47.2504
        41.7504
   -853832.055 5                  24737235.430                          32.500

 -24693865.33648 -18492577.32447  20492128.7664   20492115.1254         48.2504
        43.0004
   -730343.512 5                  25658909.844                          34.500

                                  25551773.375                          27.500

 -12051836.66447  -7167452.02745  21767935.0394   21767924.4454         45.0004
        34.0004
   1402859.06345   1101507.64843  25316982.9064   25316968.2704         34.5004
        19.2504
 15  1  3  1 40 30.0000000  0  9G21G08G29G16G31G23G05G25G02
  -7829923.75047  -5752849.40644  22490567.0704   22490553.1954         43.0004
        28.5004
 -12735232.74646  -8498491.19543  23589639.9144   23589629.4964         38.2504
        23.7504
 -17661562.50047 -13568823.86747  20469518.3834   20469505.2704         46.5004
        42.0004
   -941290.211 5                  24720592.211                          34.000

 -24702752.39547 -18499502.30147  20490437.4614   20490423.9964         47.5004
        43.0004
   -781517.949 5                  25649171.383                          34.500

   -613171.99215                  25543373.516                          30.750

 -11991004.78547  -7120050.58645  21779511.5864   21779500.8754         44.5004
        34.5004
   1487876.51645   1167754.98842  25333161.1564   25333146.6374         34.0004
        17.7504
 15  1  3  1 41  0.0000000  0  9G21G08G29G16G31G23G05G25G02
  -7906800.32847  -5812753.20344  22475937.6724   22475924.0314         42.5004
        28.2504
 -12838951.77046  -8579311.19544  23569903.6724   23569892.3754         39.0004
        24.0004
 -17612731.32447 -13530773.59846  20478810.5944   20478797.8914         47.0004
        41.5004
  -1028742.078 5                  24703952.070                          35.250

 -24711101.57048 -18506008.15647  20488848.9384   20488835.2384         48.5004
        43.0004
   -832249.13345    -45803.17252  25639515.5704   25639503.8054         33.2504
        16.2504
   -656966.31614                  25535038.820                          29.000

 -11929951.68447  -7072476.75045  21791129.5704   21791118.9184         44.7504
        34.2504
   1573121.93845   1234180.02343  25349382.8284   25349368.7774         34.7504
        19.5004
 15  1  3  1 41 30.0000000  0  9G21G08G29G16G31G23G05G25G02
  -7983394.35246  -5872436.84044  22461361.4454   22461348.4494         41.7504
        27.7504
 -12942509.85246  -8660005.77743  23550197.2894   23550185.5234         38.7504
        23.5004
 -17563561.64147 -13492459.55146  20488166.6484   20488154.2974         46.2504
        41.5004
  -1116187.14545    -38235.69952  24687312.7584   24687300.7584         35.7504
        16.2504
 -24718911.80548 -18512094.04747  20487362.7664   20487348.6564         48.7504
        43.0004
   -882535.52745    -84987.19542  25629947.8284   25629935.4184         33.5004
        14.7504
   -700405.95345   -245202.79353  25526771.7504   25526758.5784         33.2504
        19.2504
 -11868677.44547  -7024730.60945  21802789.5944   21802779.2934         44.0004
        34.5004
   1658593.07845   1300780.86742  25365647.3594   25365633.3674         33.2504
        17.7504
 15  1  3  1 42  0.0000000  0  9G21G08G29G16G31G23G05G25G02
  -8059703.91447  -5931898.81244  22446840.7974   22446826.9224         42.0004
        27.0004
 -13045904.29746  -8740572.85243  23530521.7894   23530510.2584         39.7504
        22.7504
 -17514055.87547 -13453883.62146  20497587.2504   20497574.5474         46.7504
        41.2504
  -1203624.88346   -106368.95742  24670673.0164   24670661.0164         36.5004
        17.7504
 -24726182.29348 -18517759.36347  20485979.1724   20485965.5314         48.5004
        43.0004
   -932375.63345   -123823.54342  25620463.0864   25620451.7894         35.2504
        15.5004
   -743488.81245   -278773.82042  25518574.0474   25518561.9884         32.2504
        16.2504
 -11807182.26647  -6976812.28945  21814491.1644   21814480.9804         43.7504
        34.0004
   1744287.77345   1367556.02343  25381955.1174   25381941.2424         34.2504
        19.2504
 15  1  3  1 42 30.0000000  0  9G21G08G29G16G31G23G05G25G02
  -8135726.71547  -5991137.35244  22432374.1644   22432360.0554         42.5004
        27.7504
 -13149132.39846  -8821010.30943  23510878.5864   23510866.5864         39.5004
        22.7504
 -17464216.53547 -13415047.77046  20507071.9614   20507058.4384         47.2504
        41.2504
  -1291055.18446   -174496.42242  24654036.2814   24654023.5784         37.5004
        17.2504
 -24732912.52748 -18523003.69947  20484698.7504   20484684.8754         48.7504
        43.2504
   -981767.98045   -162310.97742  25611065.3674   25611052.0784         34.7504
        14.7504
   -786212.49654   -312064.98452  25510443.4924   25510433.0164         29.2504
        14.7504
 -11745466.34047  -6928721.97345  21826235.6334   21826225.0394         43.5004
        34.5004
   1830203.43045   1434503.32442  25398304.4694   25398290.0664         34.0004
        17.7504
 15  1  3  1 43  0.0000000  0  9G21G08G29G16G31G23G05G25G02
  -8211461.10947  -6050151.15244  22417962.6884   22417948.6954         42.5004
        28.5004
 -13252191.55946  -8901316.12543  23491267.7814   23491255.0784         40.5004
        21.7504
 -17414044.11347 -13375952.37946  20516619.1884   20516605.8404         47.0004
        41.0004
  -1378477.39546   -242617.59043  24637401.2814   24637387.8164         36.5004
        18.5004
 -24739101.37148 -18527826.18447  20483520.5784   20483507.1134         48.5004
        43.0004
  -1030711.10245   -200448.30142  25601749.6094   25601737.7854         34.0004
        14.7504
   -828574.60545   -345074.35242  25502383.7194   25502371.8364         31.0004
        15.5004
 -11683529.76247  -6880459.70745  21838021.5554   21838011.3134         43.7504
        34.0004
   1916338.14545   1501621.31642  25414694.8054   25414681.3404         34.0004
        17.7504
 15  1  3  1 43 30.0000000  0  9G21G08G29G16G31G23G05G25G02
  -8286904.03147  -6108937.82844  22403606.3204   22403592.3284         42.7504
        29.7504
 -13355079.26646  -8981488.36743  23471688.5394   23471675.6024         39.5004
        23.7504
 -17363541.21947 -13336599.47346  20526230.3204   20526216.5044         47.7504
        40.7504
  -1465891.10946   -310732.08642  24620764.7894   24620753.3164         36.2504
        16.7504
 -24744748.25048 -18532226.35247  20482446.1724   20482432.5314         48.7504
        43.0004
  -1079203.80545   -238234.60942  25592522.2034   25592510.4964         33.2504
        14.7504
   -870572.86745   -377800.22742  25494391.1094   25494380.3984         31.7504
        14.7504
 -11621372.75047  -6832025.68445  21849850.6564   21849839.3594         44.0004
        34.7504
   2002689.89145   1568908.43042  25431128.1254   25431114.4844         33.5004
        16.2504
 15  1  3  1 44  0.0000000  0  9G21G08G29G16G31G23G05G25G02
  -8362053.66047  -6167495.96944  22389305.2274   22389291.8204         42.2504
        29.2504
 -13457792.71946  -9061524.77343  23452143.1334   23452129.9614         39.7504
        22.7504
 -17312709.72747 -13296990.52746  20535902.8754   20535889.1174         47.2504
        41.0004
  -1553295.91045   -378839.75442  24604131.7734   24604120.3014         35.2504
        15.5004
 -24749852.50048 -18536203.68447  20481474.6484   20481461.1254         48.7504
        42.7504
  -1127244.539 5                  25583381.180                          32.250

   -912205.21945   -410241.04742  25486468.0554   25486457.7544         30.0004
        16.2504
 -11558995.48847  -6783420.05145  21861720.4774   21861709.7074         44.5004
        34.2504
   2089256.27745   1636362.79742  25447601.0554   25447586.8284         32.7504
        17.2504
 15  1  3  1 44 30.0000000  0  9G21G08G29G16G31G23G05G25G02
  -8436908.08247  -6225824.07044  22375061.0944   22375047.8634         42.5004
        29.7504
 -13560329.19146  -9141423.31643  23432630.0314   23432617.4454         39.7504
        22.5004
 -17261551.84448 -13257127.24246  20545637.4614   20545624.3484         48.0004
        40.7504
  -1640691.238 5                  24587500.836                          34.750

 -24754413.58248 -18539757.77347  20480606.8674   20480593.0514         48.5004
        42.7504
  -1174831.695 5                  25574323.234                          34.000

   -953469.11355   -442394.71552  25478615.9924   25478605.8674         32.7504
        14.7504
 -11496398.08247  -6734642.87145  21873632.1094   21873621.8094         44.5004
        33.0004
   2176035.02045   1703982.60942  25464114.0944   25464100.6884         33.0004
        16.2504
 15  1  3  1 45  0.0000000  0  9G21G08G29G16G31G23G05G25G02
  -8511464.77046  -6283920.16044  22360873.5394   22360860.3094         41.5004
        28.5004
 -13662686.16046  -9221181.97343  23413152.9924   23413139.2344         39.5004
        23.0004
 -17210069.56647 -13217011.18446  20555434.5164   20555421.1684         47.7504
        40.5004
  -1728076.625 5                  24570871.508                          34.750

 -24758430.71948 -18542888.01247  20479842.3054   20479828.7234         48.5004
        43.0004
  -1221964.191 5                  25565355.570                          33.000

   -994362.43045   -474259.59842  25470835.2894   25470823.6414         32.0004
        16.7504
 -11433580.73847  -6685694.31645  21885586.0784   21885575.6604         44.0004
        33.0004
   2263023.82845   1771766.14542  25480666.7974   25480654.7974         32.7504
        15.5004
 15  1  3  1 45 30.0000000  0  9G21G08G29G16G31G23G05G25G02
  -8585721.91447  -6341782.84044  22346742.6254   22346729.2194         42.2504
        29.0004
 -13764860.71146  -9300798.48043  23393708.7584   23393696.2304         39.5004
        22.7504
 -17158263.93447 -13176643.16046  20565293.1884   20565279.7814         47.0004
        41.0004
  -1815451.746 5                  24554244.398                          35.500

 -24761903.28148 -18545593.90647  20479181.3674   20479168.1954         49.0004
        42.7504
  -1268640.96146   -263567.45353  25556472.4454   25556457.3404         36.0004
        18.2504
  -1034882.60945   -505833.74242  25463124.1804   25463112.7074         33.0004
        16.2504
 -11370543.61347  -6636574.50045  21897581.5554   21897571.0784         44.2504
        34.0004
   2350220.64145   1839711.75442  25497260.5084   25497248.0984         33.0004
        14.7504
 15  1  3  1 46  0.0000000  0  9G21G08G29G16G31G23G05G25G02
  -8659677.21147  -6399410.31644  22332669.2814   22332655.9924         42.0004
        29.5004
 -13866850.33246  -9380270.91443  23374300.5704   23374287.2814         39.0004
        22.5004
 -17106137.64847 -13136025.28146  20575212.1804   20575199.3594         47.7504
        41.0004
  -1902816.426 5                  24537620.609                          35.500

 -24764830.67648 -18547874.99647  20478624.3594   20478610.5434         49.2504
        43.0004
  -1314860.73845   -299582.92642  25547679.1484   25547664.5124         34.5004
        15.5004
  -1075027.82845   -537115.69142  25455484.3594   25455472.6524         33.7504
        14.7504
 -11307286.89547  -6587283.57445  21909619.2034   21909608.3164         44.0004
        34.0004
   2437623.44145   1907817.86342  25513892.4064   25513880.2304         31.7504
        14.7504
 15  1  3  1 46 30.0000000  0  9G21G08G29G16G31G23G05G25G02
  -8733328.54347  -6456800.94544  22318653.8134   22318640.4654         42.2504
        29.2504
 -13968652.29746  -9459597.10943  23354929.0474   23354916.4024         39.0004
        22.5004
 -17053692.00447 -13095158.53546  20585192.4384   20585179.4414         47.2504
        41.5004
  -1990169.66846   -456443.79352  24520998.0004   24520984.7704         36.2504
        17.7504
 -24767212.29748 -18549730.80547  20478171.5084   20478157.1054         48.2504
        43.2504
  -1360621.87545   -335240.95742  25538970.4384   25538956.4454         35.0004
        15.5004
  -1114795.59845   -568103.55142  25447915.3594   25447905.2934         32.7504
        16.7504
 -11243810.77347  -6537821.66845  21921698.0084   21921687.2384         44.2504
        33.2504
   2525229.93055   1976082.69152  25530564.2664   25530552.3244         30.5004
        15.5004
 15  1  3  1 47  0.0000000  0  9G21G08G29G16G31G23G05G25G02
  -8806673.81247  -6513953.08644  22304696.6174   22304683.3874         42.7504
        29.5004
 -14070263.73446  -9538774.85243  23335591.7504   23335580.1024         39.0004
        22.7504
 -17000929.04748 -13054044.54746  20595232.6414   20595220.1134         48.0004
        41.2504
  -2077511.14846   -524502.05543  24504379.1094   24504364.8244         36.7504
        19.0004
 -24769047.56248 -18551160.88347  20477822.4694   20477808.6524         49.0004
        43.0004
  -1405922.89845   -370540.57042  25530349.2894   25530336.4104         33.2504
        15.5004
  -1154183.68045   -598795.55942  25440419.7344   25440410.9574         31.0004
        16.7504
 -11180115.38347  -6488188.91845  21933819.0784   21933807.8404         44.0004
        32.5004
                                  25547271.945                          30.750

 15  1  3  1 47 30.0000000  0  9G21G08G29G16G31G23G05G25G02
  -8879710.71147  -6570864.94945  22290798.6094   22290784.7934         43.0004
        30.2504
 -14171681.97346  -9617802.02343  23316293.7424   23316280.9224         39.7504
        22.7504
 -16947851.08647 -13012685.09046  20605332.9454   20605320.0084         47.7504
        41.0004
  -2164840.48446   -592550.85943  24487759.0634   24487746.3014         36.5004
        18.5004
 -24770336.05548 -18552164.90647  20477576.8134   20477562.9384         49.0004
        43.0004
  -1450762.82845   -405480.87542  25521816.2504   25521803.1374         34.0004
        15.5004
  -1193189.82445   -629189.96542  25432997.7114   25432987.9384         33.0004
        16.2504
 -11116200.96947  -6438385.48445  21945981.8364   21945970.8324         44.7504
        32.7504
   2701044.48815                  25564018.969                          30.500

 15  1  3  1 48  0.0000000  0  9G21G08G29G16G31G23G05G25G02
  -8952437.24247  -6627534.93445  22276959.0394   22276945.7504         43.2504
        30.7504
 -14272904.27046  -9696676.52344  23297032.1884   23297019.2504         40.5004
        24.5004
 -16894460.07048 -12971081.69546  20615492.6644   20615479.7854         48.5004
        40.5004
  -2252157.04746   -660589.71543  24471144.1024   24471129.9344         36.5004
        19.2504
 -24771077.03548 -18552742.29347  20477436.0634   20477422.0124         49.0004
        42.7504
  -1495139.49245   -440059.89142  25513371.6724   25513358.7934         33.5004
        13.7504
  -1231812.08245   -659285.19142  25425648.4924   25425638.4844         32.5004
        16.7504
 -11052067.65247  -6388411.49245  21958184.9694   21958175.0204         43.5004
        33.5004
   2789248.88715                  25580804.063                          30.250

 15  1  3  1 48 30.0000000  0  9G21G08G29G16G31G23G05G25G02
  -9024851.65247  -6683961.72745  22263178.8284   22263165.7734         43.2504
        30.7504
 -14373927.73846  -9775396.08644  23277808.3364   23277795.1054         40.5004
        24.0004
 -16840757.57847 -12929235.60246  20625712.6334   20625699.1094         47.7504
        40.5004
  -2339460.48045   -728618.37543  24454530.5394   24454517.3674         35.2504
        19.2504
 -24771269.94948 -18552892.62147  20477398.8054   20477385.4574         48.7504
        42.5004
  -1539052.94545   -474278.18042  25505015.0784   25505002.6094         34.5004
        16.7504
  -1270047.97745   -689079.35242  25418372.2114   25418362.8484         31.5004
        17.7504
 -10987715.62147  -6338267.07445  21970430.3524   21970420.5784         43.7504
        32.2504
   2877648.438 5                  25597626.875                          31.000

 15  1  3  1 49  0.0000000  0  9G21G08G29G16G31G23G05G25G02
  -9096951.47747  -6740143.38745  22249459.1484   22249445.5084         43.0004
        30.7504
 -14474749.92646  -9853958.80544  23258622.6484   23258609.5354         41.0004
        25.0004
 -16786745.80147 -12887148.50846  20635989.9614   20635977.0234         47.5004
        40.5004
  -2426750.19545   -796636.31243  24437919.0634   24437906.4184         34.0004
        19.0004
 -24770914.24648 -18552615.44947  20477467.0634   20477453.3634         48.5004
        43.0004
  -1582501.14545   -508133.86742  25496747.5944   25496734.2464         34.5004
        16.2504
  -1307895.75445   -718571.04742  25411171.0164   25411160.0704         33.7504
        16.7504
 -10923145.14147  -6287952.43045  21982718.4144   21982707.9964         43.0004
        33.2504
                                  25614484.594                          27.250

 15  1  3  1 49 30.0000000  0  9G21G08G29G16G31G23G05G25G02
  -9168734.56247  -6796078.23845  22235799.0474   22235785.5824         44.0004
        30.5004
 -14575368.12546  -9932362.55944  23239475.5314   23239462.6524         41.2504
        26.0004
 -16732426.39847 -12844821.69946  20646326.4694   20646313.9414         47.0004
        40.2504
  -2514025.60545   -864643.10942  24421310.0234   24421299.1374         32.5004
        16.7504
 -24770009.68448 -18551910.59447  20477638.7664   20477624.9494         48.5004
        42.5004
  -1625483.29345   -541626.48442  25488567.4454   25488555.3284         35.0004
        15.5004
  -1345352.68445   -747758.21142  25404044.0554   25404032.2304         35.5004
        17.2504
 -10858356.29347  -6237467.62545  21995047.5234   21995036.7544         43.2504
        32.2504
   3055023.32814                  25631380.227                          26.750

 15  1  3  1 50  0.0000000  0  8G21G08G29G16G31G23G05G25
  -9240199.29347  -6851765.02745  22222199.8834   22222186.1254         44.5004
        30.7504
 -14675779.39546 -10010605.09844  23220367.1564   23220354.9224         41.7504
        27.0004
 -16677800.91847 -12802256.39846  20656721.6954   20656708.5234         47.7504
        40.2504
  -2601286.55555   -932638.64852  24404702.8594   24404694.2584         31.0004
        17.2504
 -24768555.71548 -18550777.63347  20477914.7734   20477901.7774         48.7504
        43.0004
  -1667997.59445   -574754.32842  25480478.4304   25480465.3164         34.5004
        16.2504
                                  25396988.9694   25396979.3134         32.0004
        16.7504
 -10793349.32047  -6186812.85245  22007417.8204   22007407.2854         43.7504
        32.0004
 15  1  3  1 50 30.0000000  0  8G21G08G29G16G31G23G05G25
  -9311343.39847  -6907201.98445  22208661.5864   22208647.3594         44.5004
        30.0004
 -14775981.02746 -10088684.25444  23201299.4384   23201286.6764         41.7504
        27.2504
 -16622871.60947 -12759454.33246  20667174.3914   20667161.3364         47.5004
        41.0004
                                  24388101.5634   24388092.0824         29.5004
        13.7504
 -24766551.90648 -18549216.23447  20478296.6884   20478283.5164         48.7504
        42.5004
  -1710043.56245   -607517.38342  25472475.8674   25472464.6884         35.5004
        15.5004
  -1419086.02345   -805212.77743  25390012.4924   25390000.6684         34.2504
        18.2504
 -10728124.43447  -6135988.27345  22019829.8594   22019819.5594         42.2504
        31.7504
 15  1  3  1 51  0.0000000  0  8G21G08G29G16G31G23G05G25
  -9382164.95347  -6962387.60245  22195184.4064   22195170.9414         43.7504
        31.0004
 -14875970.27346 -10166597.92644  23182272.0234   23182259.1454         41.5004
        27.0004
 -16567640.94147 -12716417.45346  20677684.8284   20677671.9494         47.5004
        41.0004
  -2775762.33255  -1068593.66052  24371504.5164   24371493.3954         32.7504
        14.7504
 -24763997.82048 -18547226.03947  20478782.8914   20478769.0744         48.5004
        42.5004
  -1751619.80145   -639914.39142  25464565.8984   25464553.1374         35.7504
        17.2504
  -1455358.37545   -833476.93042  25383110.5394   25383097.2504         33.7504
        16.7504
 -10662681.80547  -6084994.04345  22032283.1884   22032272.5944         42.0004
        32.0004
 15  1  3  1 51 30.0000000  0  8G21G08G29G16G31G23G05G25
  -9452661.91047  -7017320.28544  22181769.2734   22181755.8094         42.7504
        29.5004
 -14975744.32046 -10244343.89144  23163285.6954   23163273.1094         41.5004
        26.5004
 -16512109.91848 -12673146.52346  20688251.7344   20688238.8554         48.2504
        40.5004
  -2862975.85245  -1136552.17642  24354909.7194   24354895.6684         34.5004
        16.2504
 -24760893.16048 -18544806.82047  20479374.1254   20479360.1914         48.2504
        42.7504
  -1792725.39145   -671944.78542  25456742.9774   25456730.8014         34.2504
        16.2504
  -1491231.48845   -861430.04342  25376283.4774   25376270.7154         33.5004
        16.7504
 -10597021.62947  -6033830.28145  22044777.7974   22044767.4384         43.0004
        31.7504
 15  1  3  1 52  0.0000000  0  8G21G08G29G16G31G23G05G25
  -9522831.94547  -7071998.22344  22168416.3284   22168402.9804         43.0004
        29.5004
 -15075300.36346 -10321920.01644  23144340.0634   23144327.7114         41.5004
        26.0004
 -16456280.73047 -12629643.26246  20698875.8914   20698862.7194         47.7504
        40.7504
  -2950172.85245  -1204497.94142  24338316.3524   24338301.8914         35.7504
        16.7504
 -24757237.47748 -18541958.23847  20480069.8134   20480055.6454         48.2504
        42.7504
  -1833358.79345   -703607.20342  25449011.2974   25448997.8914         35.7504
        15.5004
  -1526703.45345   -889070.49242  25369533.1334   25369520.9574         33.7504
        16.7504
 -10531144.09847  -5982497.16845  22057314.4454   22057303.5594         42.5004
        32.2504
 15  1  3  1 52 30.0000000  0  8G21G08G29G16G31G23G05G25
  -9592672.53147  -7126419.42645  22155125.7734   22155112.4844         43.2504
        30.0004
 -15174635.73446 -10399324.16844  23125437.2734   23125425.3324         41.5004
        27.0004
 -16400155.30547 -12585909.16446  20709556.2664   20709542.8014         47.7504
        40.0004
  -3037352.30146  -1272429.99242  24321727.3674   24321710.9734         36.5004
        16.7504
 -24753030.47348 -18538680.05547  20480870.3984   20480856.4064         48.5004
        43.0004
  -1873519.41446   -734901.10542  25441369.8984   25441354.5004         36.5004
        15.5004
  -1561772.34045   -916396.80542  25362859.7194   25362847.5434         34.7504
        16.7504
 -10465049.50447  -5930994.90645  22069891.7664   22069881.2304         42.2504
        32.0004
 15  1  3  1 53  0.0000000  0  8G21G08G29G16G31G23G05G25
  -9662182.74647  -7180583.20345  22141898.1174   22141885.2384         42.7504
        30.2504
 -15273747.49646 -10476554.10544  23106577.6254   23106565.2154         41.5004
        28.0004
 -16343736.00447 -12541946.07446  20720292.4774   20720279.4224         47.0004
        41.0004
  -3124513.82446  -1340348.13342  24305140.4064   24305125.3014         36.7504
        17.7504
 -24748271.81248 -18534972.00847  20481775.7814   20481761.9064         48.5004
        42.7504
  -1913205.574 5                  25433816.727                          34.500

  -1596435.80945   -943407.27742  25356263.5394   25356251.9494         32.5004
        15.5004
 -10398737.94147  -5879323.57845  22082510.3054   22082499.7704         42.5004
        31.5004
 15  1  3  1 53 30.0000000  0  8G21G08G29G16G31G23G05G25
  -9731360.34047  -7234487.79345  22128734.6254   22128721.4534         42.7504
        31.2504
 -15372633.06646 -10553607.78144  23087759.9064   23087747.6724         41.7504
        27.5004
 -16287024.01248 -12497754.91046  20731084.8284   20731070.8364         48.0004
        40.2504
  -3211656.87546  -1408251.80142  24288558.1024   24288542.4694         36.7504
        17.7504
 -24742961.18048 -18530833.85547  20482786.3054   20482772.6054         48.2504
        42.7504
  -1952416.270 5                  25426353.500                          33.500

  -1630691.86745   -970100.25842  25349746.0164   25349732.6684         34.7504
        17.7504
 -10332209.61747  -5827483.35545  22095169.9774   22095159.8524         42.2504
        31.7504
 15  1  3  1 54  0.0000000  0  8G21G08G29G16G31G23G05G25
  -9800203.12147  -7288131.50445  22115634.4694   22115621.0044         44.0004
        32.2504
 -15471289.61346 -10630483.01244  23068986.0394   23068974.2734         41.0004
        28.7504
 -16230021.38347 -12453337.28546  20741931.6484   20741917.8914         47.0004
        40.2504
  -3298780.98446  -1476140.69943  24271978.5004   24271963.8054         36.0004
        18.2504
 -24737098.18048 -18526265.28547  20483902.1804   20483888.3054         48.5004
        43.2504
  -1991150.48846   -767411.46553  25418983.4144   25418967.1954         36.2504
        18.2504
  -1664538.77355   -996474.39152  25343304.0314   25343291.7974         32.5004
        15.5004
 -10265464.84447  -5775474.47345  22107871.2584   22107860.8984         42.5004
        32.0004
 15  1  3  1 54 30.0000000  0  8G21G08G29G16G31G23G05G25
  -9868709.07047  -7341512.73845  22102597.9454   22102584.7154         43.5004
        32.2504
 -15569714.24647 -10707177.53544  23050256.7424   23050244.4494         42.0004
        29.0004
 -16172730.74247 -12408695.23046  20752833.5784   20752820.4064         46.7504
        40.0004
  -3385885.61745  -1544014.42642  24255401.3054   24255389.0704         34.5004
        17.7504
 -24730682.54748 -18521266.10247  20485122.8204   20485108.8284         48.5004
        42.7504
  -2029407.62546   -797222.03542  25411703.3984   25411689.2304         36.5004
        15.5004
  -1697974.19545  -1022528.07842  25336940.0394   25336928.9774         33.0004
        16.2504
 -10198503.77047  -5723297.03545  22120613.2664   22120603.1994         43.0004
        31.7504
 15  1  3  1 55  0.0000000  0  8G21G08G29G16G31G23G05G25
  -9936876.16847  -7394629.93045  22089626.1254   22089612.6024         43.0004
        31.7504
 -15667904.13746 -10783689.12144  23031571.6174   23031559.7344         41.5004
        28.5004
 -16115152.82847 -12363829.33646  20763790.4534   20763776.9304         47.0004
        40.5004
  -3472970.09045  -1611872.37943  24238829.9064   24238817.7304         34.7504
        19.0004
 -24723714.22748 -18515836.23447  20486448.9694   20486434.9774         48.7504
        42.5004
  -2067186.23845   -826659.80542  25404515.7424   25404501.3984         35.0004
        14.7504
  -1730996.04755  -1048259.23452  25330655.8204   25330644.9344         32.0004
        16.2504
 -10131326.65247  -5670951.25045  22133396.5474   22133386.5394         42.7504
        32.0004
 15  1  3  1 55 30.0000000  0  9G12G21G08G29G16G31G23G05G25
    181622.12115                  25515884.375                          31.500

 -10004702.71547  -7447481.77745  22076719.1724   22076705.9414         43.7504
        32.2504
 -15765856.41446 -10860015.55144  23012932.0234   23012919.5554         41.5004
        28.0004
 -16057290.02347 -12318741.43446  20774800.9694   20774787.7974         47.0004
        39.7504
  -3560033.86745  -1679714.26242  24222260.7114   24222250.4694         34.7504
        17.2504
 -24716192.85248 -18509975.42647  20487880.3134   20487866.2624         49.0004
        42.5004
  -2104485.41045   -855723.80942  25397416.6024   25397403.7234         34.5004
        15.5004
  -1763602.62945  -1073666.96542  25324451.3984   25324440.2194         33.5004
        15.5004
 -10063933.65247  -5618437.23845  22146221.3204   22146211.3134         43.2504
        31.5004
 15  1  3  1 56  0.0000000  0  9G12G21G08G29G16G31G23G05G25
    269021.30115                  25532515.523                          32.250

 -10072186.59047  -7500066.58645  22063877.9694   22063864.0354         43.7504
        31.7504
 -15863568.06247 -10936154.48844  22994337.9774   22994325.7424         42.5004
        28.5004
 -15999144.86347 -12273433.51646  20785866.1334   20785852.9024         47.2504
        39.5004
  -3647076.19145  -1747539.39843  24205697.3134   24205687.1884         34.5004
        18.2504
 -24708118.33648 -18503683.60247  20489416.5704   20489402.9884         48.5004
        42.7504
  -2141304.39145   -884413.82842  25390411.0784   25390397.2034         35.7504
        16.7504
  -1795792.07445  -1098749.61742  25318326.4924   25318314.8444         34.0004
        17.2504
  -9996325.05947  -5565755.23045  22159086.5394   22159076.6484         43.2504
        31.5004
 15  1  3  1 56 30.0000000  0  9G12G21G08G29G16G31G23G05G25
    356470.97745   6089376.54752  25549157.8284   25549143.9534         32.0004
        17.2504
 -10139326.04747  -7552383.03145  22051101.8444   22051087.6764         43.7504
        31.7504
 -15961036.55946 -11012103.94544  22975790.9064   22975778.1454         41.7504
        27.0004
 -15940718.33647 -12227906.34446  20796983.7344   20796971.3244         47.0004
        39.7504
  -3734096.74645  -1815347.62543  24189137.0474   24189127.1564         34.2504
        18.5004
 -24699490.36748 -18496960.52047  20491058.6644   20491044.9064         48.5004
        42.7504
  -2177642.68445   -912729.50042  25383494.2734   25383482.3914         34.5004
        17.2504
  -1827562.27345  -1123505.62142  25312281.3594   25312269.4774         34.2504
        16.2504
  -9928501.02047  -5512905.34445  22171992.7894   22171982.8404         43.0004
        32.0004
 15  1  3  1 57  0.0000000  0  9G12G21G08G29G16G31G23G05G25
    443970.98045   6157558.41442  25565807.7584   25565796.3444         33.0004
        17.2504
 -10206119.24247  -7604429.66845  22038391.4224   22038377.2544         43.2504
        31.5004
 -16058258.99647 -11087861.67644  22957290.2194   22957277.3404         42.5004
        28.2504
 -15882012.33647 -12182161.40646  20808154.6484   20808142.3554         47.0004
        39.7504
  -3821094.85245  -1883138.28143  24172582.6174   24172571.4964         33.7504
        18.5004
 -24690308.87948 -18489806.11747  20492805.7114   20492791.9534         48.2504
        42.5004
                                  25376669.8364   25376659.7704         31.0004
        16.2504
  -1858911.02045  -1147933.18042  25306316.4224   25306303.4264         34.7504
        17.2504
  -9860461.77747  -5459887.76645  22184940.1414   22184930.3094         42.0004
        31.5004
 15  1  3  1 57 30.0000000  0  9G12G21G08G29G16G31G23G05G25
    531521.16045   6225779.32442  25582468.4384   25582456.5554         32.0004
        15.5004
 -10272563.95747  -7656204.74245  22025747.0314   22025733.4494         43.5004
        31.5004
 -16155232.66847 -11163425.54744  22938836.5944   22938823.1294         42.2504
        27.2504
 -15823029.08247 -12136200.43446  20819378.8204   20819366.4104         46.2504
        39.5004
  -3908069.80946  -1950910.97743  24156034.4694   24156020.8284         36.7504
        19.5004
 -24680573.87948 -18482220.41447  20494657.7274   20494644.4384         48.0004
        42.5004
  -2248870.95755   -968231.96152  25369938.6334   25369929.3284         32.7504
        15.5004
  -1889836.55945  -1172030.96142  25300429.1884   25300418.7704         32.7504
        17.2504
  -9792207.60947  -5406702.70345  22197929.4614   22197918.7504         42.7504
        31.7504
 15  1  3  1 58  0.0000000  0  9G12G21G08G29G16G31G23G05G25
    619120.902 5                  25599136.922                          31.000

 -10338658.39547  -7707706.88345  22013169.4844   22013155.9024         44.0004
        31.5004
 -16251954.45347 -11238793.15244  22920430.8204   22920417.7074         42.5004
        28.2504
 -15763770.52747 -12090024.94146  20830655.9144   20830643.0944         46.7504
        39.5004
  -3995021.14546  -2018665.21143  24139487.5164   24139473.8754         37.2504
        19.2504
 -24670285.09448 -18474203.18447  20496615.9064   20496602.0314         48.7504
        42.5004
  -2283759.61345   -995417.90242  25363300.9774   25363289.6214         34.0004
        15.5004
  -1920337.11745  -1195797.56642  25294626.0784   25294615.1914         33.5004
        14.7504
  -9723738.74247  -5353350.35945  22210958.3834   22210948.2584         42.7504
        31.7504
 15  1  3  1 58 30.0000000  0  9G12G21G08G29G16G31G23G05G25
    706770.379 5                  25615817.523                          30.500

 -10404400.68447  -7758934.62545  22000659.5784   22000645.7624         43.7504
        32.2504
 -16348421.66047 -11313962.39144  22902073.1414   22902061.0234         42.0004
        28.5004
 -15704238.30147 -12043636.19146  20841985.5554   20841971.7384         47.0004
        39.5004
  -4081948.23446  -2086400.62143  24122946.6884   24122931.0554         38.5004
        18.2504
 -24659442.46548 -18465754.37947  20498679.3204   20498665.3284         49.0004
        42.2504
  -2318163.28545  -1022225.94142  25356754.0944   25356742.0354         33.7504
        14.7504
  -1950410.83245  -1219231.57842  25288902.6094   25288892.4264         32.5004
        16.2504
  -9655055.36746  -5299830.87945  22224028.5784   22224017.8094         41.2504
        31.5004
 15  1  3  1 59  0.0000000  0  9G12G21G08G29G16G31G23G05G25
    794469.16015                  25632506.445                          31.000

 -10469789.02347  -7809886.56645  21988216.6254   21988202.8674         44.5004
        31.5004
 -16444631.48447 -11388931.06244  22883765.8674   22883752.8134         42.2504
        27.5004
 -15644434.39847 -11997035.75846  20853365.5474   20853351.4964         47.5004
        39.5004
  -4168850.32846  -2154116.52343  24106410.2734   24106393.8204         38.7504
        18.2504
 -24648045.67248 -18456873.77047  20500848.1024   20500834.1684         48.2504
        42.2504
  -2352081.32845  -1048655.62542  25350301.0164   25350287.3754         35.0004
        14.7504
  -1980055.71145  -1242331.42642  25283263.0394   25283251.6254         34.5004
        17.2504
  -9586157.81247  -5246144.48845  22237138.9844   22237128.9184         42.2504
        31.5004
 15  1  3  1 59 30.0000000  0  9G12G21G08G29G16G31G23G05G25
    882217.457 5                  25649203.664                          31.750

 -10534821.32847  -7860561.07445  21975841.2424   21975827.5434         44.2504
        32.5004
 -16540581.02347 -11463696.92644  22865506.6094   22865493.7894         42.0004
        26.5004
 -15584360.76247 -11950225.12546  20864796.7114   20864783.1884         47.0004
        39.7504
  -4255726.94546  -2221812.63743  24089877.9614   24089861.8014         39.0004
        19.7504
 -24636095.04348 -18447561.58647  20503122.3754   20503108.6174         48.7504
        42.5004
  -2385512.73045  -1074706.03142  25343940.1484   25343924.0474         35.5004
        14.7504
  -2009270.03145  -1265095.82842  25277703.5704   25277691.2194         33.2504
        17.7504
  -9517046.19547  -5192291.29745  22250290.7194   22250280.5354         43.0004
        31.0004
 15  1  3  2  0  0.0000000  0  9G12G21G08G29G16G31G23G05G25
    970014.574 4                  25665909.891                          28.000

 -10599495.87547  -7910956.81245  21963533.9454   21963520.0124         44.0004
        33.2504
 -16636267.51646 -11538257.80944  22847298.1954   22847285.0824         41.7504
        27.5004
 -15524019.31247 -11903205.82046  20876279.7664   20876265.6564         47.5004
        39.0004
  -4342577.38746  -2289488.28943  24073349.8524   24073334.7464         37.5004
        19.5004
 -24623590.36748 -18437817.68747  20505501.4924   20505488.3204         49.0004
        42.7504
  -2418456.81646  -1100376.61342  25337671.2894   25337654.0164         37.0004
        16.7504
  -2038051.48445  -1287522.86343  25272227.4614   25272214.4654         34.7504
        18.2504
  -9447720.84447  -5138271.56244  22263482.4694   22263472.4614         42.5004
        29.7504
 15  1  3  2  0 30.0000000  0  9G12G21G08G29G16G31G23G05G25
   1057860.59815                  25682626.375                          30.500

 -10663810.84847  -7961072.36345  21951295.6954   21951281.5864         44.5004
        31.7504
 -16731688.16047 -11612611.54744  22829140.4224   22829127.1334         42.5004
        28.0004
 -15463411.93747 -11855979.29746  20887812.5554   20887798.9144         46.5004
        40.5004
  -4429400.95746  -2357143.02343  24056828.7114   24056813.3134         37.0004
        19.2504
 -24610531.91048 -18427642.27747  20507986.6484   20507972.7734         48.7504
        42.5004
  -2450912.85946  -1125667.02742  25331494.7664   25331477.9614         36.0004
        16.7504
  -2066398.82045  -1309611.73042  25266833.2274   25266819.4694         34.5004
        16.2504
  -9378181.98847  -5084085.45745  22276715.7974   22276705.0274         42.5004
        31.0004
 15  1  3  2  1  0.0000000  0  9G12G21G08G29G16G31G23G05G25
   1145755.06315                  25699352.516                          30.500

 -10727764.48447  -8010906.36345  21939124.8054   21939111.2814         43.7504
        32.5004
 -16826840.28547 -11686756.03944  22811033.7734   22811020.3674         43.0004
        28.0004
 -15402539.75047 -11808546.43446  20899396.2424   20899382.3094         46.7504
        39.2504
  -4516197.06245  -2424776.34043  24040310.4144   24040296.7734         35.2504
        19.2504
 -24596919.19147 -18417034.96947  20510577.2584   20510563.3834         47.7504
        42.5004
  -2482880.20346  -1150576.73042  25325412.2034   25325395.0474         36.0004
        17.2504
  -2094310.24245  -1331360.81642  25261521.6644   25261508.7274         34.7504
        17.7504
  -9308429.89846  -5029733.19944  22289988.6094   22289978.4844         41.7504
        29.7504
 15  1  3  2  1 30.0000000  0  9G12G21G08G29G16G31G23G05G25
   1233697.93014                  25716087.883                          29.000

 -10791355.02047  -8060457.41045  21927023.8284   21927010.3634         43.2504
        31.7504
 -16921720.68047 -11760688.78944  22792978.7274   22792965.0274         42.5004
        28.0004
 -15341405.21947 -11760909.14146  20911029.5944   20911016.0704         46.7504
        39.5004
  -4602965.06645  -2492387.75443  24023798.1564   24023785.5124         33.5004
        19.2504
 -24582752.36348 -18405995.88747  20513273.2034   20513259.2704         48.7504
        42.0004
  -2514357.63345  -1175104.72342  25319420.0004   25319405.8324         34.5004
        16.7504
  -2121783.78545  -1352768.77042  25256292.1254   25256280.7704         33.5004
        16.2504
  -9238464.79347  -4975214.94945  22303302.3834   22303292.7274         42.5004
        31.0004
 15  1  3  2  2  0.0000000  0  8G21G08G29G16G31G23G05G25
 -10854580.28947  -8109723.83245  21914992.4384   21914979.2074         44.0004
        32.7504
 -17016326.58247 -11834407.66444  22774975.3054   22774962.1334         43.0004
        28.0004
 -15280010.32447 -11713068.96946  20922712.7974   20922699.0984         47.0004
        39.0004
  -4689704.58245  -2559976.92242  24007291.3444   24007279.5204         32.0004
        17.7504
 -24568031.68448 -18394525.22747  20516073.8834   20516060.1844         48.7504
        42.0004
  -2545344.68045  -1199250.55942  25313523.0084   25313509.5434         33.5004
        15.5004
  -2148817.55145  -1373833.95742  25251147.3444   25251135.8134         32.2504
        17.2504
  -9168286.93747  -4920530.92245  22316656.4144   22316647.0514         42.0004
        30.2504
 15  1  3  2  2 30.0000000  0  8G21G08G29G16G31G23G05G25
 -10917438.77347  -8158704.46145  21903031.3054   21903017.6644         43.0004
        32.5004
 -17110655.14547 -11907910.42244  22757025.5704   22757012.3984         42.2504
        28.0004
 -15218356.88347 -11665027.33246  20934444.8674   20934431.3444         47.2504
        39.5004
  -4776414.66045  -2627543.17242  23990789.0704   23990780.2344         30.5004
        15.5004
 -24552757.23448 -18382623.06647  20518980.8284   20518967.3054         48.5004
        43.0004
  -2575840.32045  -1223013.42242  25307717.8204   25307706.4064         31.0004
        14.7504
  -2175409.76645  -1394555.20342  25246087.0944   25246076.0314         32.5004
        16.7504
  -9097896.63747  -4865681.35245  22330052.2664   22330041.9064         42.7504
        30.0004
 15  1  3  2  3  0.0000000  0  8G21G08G29G16G31G23G05G25
 -10979928.68747  -8207397.87145  21891139.9614   21891126.1454         43.5004
        33.2504
 -17204703.43747 -11981194.80544  22739128.4064   22739115.4104         42.2504
        28.5004
 -15156446.77747 -11616785.69146  20946225.7504   20946213.1054         46.7504
        39.7504
  -4863094.25855  -2695085.64152  23974295.6564   23974285.1214         30.5004
        16.2504
 -24536928.93748 -18370289.33647  20521992.9774   20521979.2194         49.0004
        42.7504
  -2605844.11745  -1246392.96542  25302009.5704   25301997.1604         32.2504
        14.7504
  -2201558.93745  -1414931.09042  25241110.4774   25241099.1804         33.5004
        17.2504
  -9027294.10547  -4810666.40245  22343487.5784   22343476.8094         42.5004
        30.2504
 15  1  3  2  3 30.0000000  0  8G21G08G29G16G31G23G05G25
 -11042048.24247  -8255802.70345  21879319.4224   21879305.6054         44.5004
        33.7504
 -17298468.41447 -12054258.40244  22721285.4064   22721273.1134         42.0004
        29.0004
 -15094281.30947 -11568345.07046  20958055.7664   20958042.6524         47.0004
        39.2504
  -4949743.10945  -2762604.18042  23957810.0394   23957795.6374         34.5004
        17.2504
 -24520547.18048 -18357524.33247  20525110.5704   20525096.7544         49.0004
        42.5004
  -2635355.36745  -1269388.78542  25296396.3984   25296381.5274         35.0004
        15.5004
  -2227262.93045  -1434960.15643  25236220.6174   25236207.2114         35.0004
        18.2504
  -8956479.65247  -4755486.32845  22356963.2034   22356952.5514         42.5004
        30.0004
 15  1  3  2  4  0.0000000  0  8G21G08G29G16G31G23G05G25
 -11103795.61747  -8303917.53145  21867568.8594   21867555.2774         44.0004
        34.0004
 -17391947.29347 -12127099.07444  22703497.2504   22703484.1954         42.2504
        28.5004
 -15031862.65647 -11519707.16446  20969933.7584   20969920.7624         46.5004
        39.0004
  -5036360.62546  -2830098.32843  23941327.0634   23941313.2464         36.5004
        20.5004
 -24503612.05548 -18344328.13747  20528333.0474   20528319.2894         48.7504
        42.5004
  -2664373.59845  -1292000.38342  25290874.2424   25290858.4924         35.5004
        16.2504
  -2252520.56245  -1454641.40643  25231414.8984   25231401.1414         34.7504
        18.2504
  -8885453.51247  -4700141.30145  22370478.5704   22370468.3874         43.0004
        30.2504
 15  1  3  2  4 30.0000000  0  8G21G08G29G16G31G23G05G25
 -11165169.30547  -8351741.16045  21855889.9924   21855876.4694         44.2504
        34.2504
 -17485137.30947 -12199714.66044  22685763.3984   22685750.8134         42.2504
        28.0004
 -14969192.84047 -11470873.53946  20981859.1804   20981846.0664         46.2504
        39.2504
  -5122946.07046  -2897567.46543  23924851.5784   23924836.7664         38.5004
        22.0004
 -24486123.84848 -18330700.97347  20531660.7344   20531647.0354         48.7504
        42.2504
  -2692898.25446  -1314227.52742  25285446.4384   25285430.4534         36.0004
        15.5004
  -2277329.80945  -1473973.21542  25226693.8594   25226680.6884         34.2504
        17.2504
  -8814215.96147  -4644631.53545  22384035.4694   22384024.5824         43.7504
        30.0004
 15  1  3  2  5  0.0000000  0  8G21G08G29G16G31G23G05G25
 -11226167.04347  -8399271.84845  21844282.5084   21844268.5164         44.0004
        34.5004
 -17578035.67246 -12272102.98444  22668085.4844   22668072.6054         41.2504
        28.2504
 -14906273.31247 -11421845.34446  20993832.5164   20993819.2854         46.2504
        39.0004
  -5209498.54746  -2965010.94943  23908381.0634   23908366.5434         39.5004
        22.0004
 -24468082.50048 -18316642.78147  20535093.9844   20535080.4614         48.5004
        42.0004
  -2720927.90645  -1336068.70742  25280111.8834   25280097.3634         34.2504
        16.7504
  -2301689.06245  -1492954.44543  25222056.7584   25222045.9304         32.5004
        18.2504
  -8742767.29747  -4588957.25445  22397631.5084   22397620.1524         44.0004
        30.5004
 15  1  3  2  5 30.0000000  0  9G21G08G29G16G31G23G05G25G27
 -11286787.95347  -8446508.90245  21832746.3914   21832732.5744         44.0004
        34.0004
 -17670639.36346 -12344261.69944  22650463.0944   22650450.9184         41.5004
        28.0004
 -14843106.21547 -11372624.22746  21005852.6644   21005839.4344         46.2504
        38.5004
  -5296017.37946  -3032428.22343  23891917.5634   23891901.9884         40.0004
        22.5004
 -24449488.10548 -18302153.65246  20538632.2194   20538618.4614         48.7504
        41.7504
  -2748462.61345  -1357524.17642  25274872.3674   25274858.3754         34.7504
        17.7504
  -2325597.07045  -1511583.96942  25217505.1414   25217496.0124         32.2504
        16.2504
  -8671107.78947  -4533118.69945  22411267.7584   22411256.6954         43.0004
        30.0004
   -480694.73815                  25296379.195                          32.750

 15  1  3  2  6  0.0000000  0  9G21G08G29G16G31G23G05G25G27
 -11347029.78947  -8493450.57845  21821282.5784   21821269.2894         43.2504
        34.0004
 -17762945.62947 -12416188.62944  22632898.2344   22632885.4144         42.2504
        28.0004
 -14779692.99247 -11323211.33646  21017919.5004   21017906.7384         45.7504
        38.5004
  -5382501.91046  -3099818.75443  23875459.3834   23875445.0394         39.2504
        22.0004
 -24430341.03948 -18287233.85547  20542275.7194   20542262.1374         48.0004
        42.2504
  -2775501.80146  -1378593.59842  25269727.7814   25269713.6724         36.0004
        17.2504
  -2349052.09445  -1529860.64842  25213043.7504   25213032.5124         32.0004
        16.7504
  -8599237.78147  -4477116.11345  22424944.4614   22424933.5744         43.7504
        30.7504
   -576157.102 5                  25278213.953                          33.500

 15  1  3  2  6 30.0000000  0  9G21G08G29G16G31G23G05G25G27
 -11406890.73847  -8540095.46145  21809891.8204   21809878.0044         44.5004
        34.0004
 -17854951.46947 -12487881.48444  22615390.5944   22615377.0124         42.0004
        29.5004
 -14716035.78547 -11273608.32046  21030032.6644   21030020.3134         45.7504
        38.0004
  -5468951.72746  -3167182.21943  23859009.3754   23858993.6254         39.7504
        21.5004
 -24410641.66848 -18271883.69947  20546024.6024   20546010.9024         48.0004
        42.5004
  -2802044.99645  -1399276.59042  25264675.5554   25264661.7384         34.2504
        16.2504
  -2372052.31645  -1547782.86742  25208667.2504   25208655.2504         35.0004
        16.2504
  -8527157.44947  -4420949.63345  22438660.6254   22438649.3284         43.2504
        30.2504
   -671522.07045    -67303.09852  25260066.7344   25260055.9654         33.5004
        16.7504
 15  1  3  2  7  0.0000000  0  9G21G08G29G16G31G23G05G25G27
 -11466369.03547  -8586442.18045  21798573.4614   21798559.3524         43.7504
        33.5004
 -17946654.05147 -12559338.02345  22597940.1804   22597926.3054         42.2504
        30.0004
 -14652136.92247 -11223817.00046  21042192.1564   21042179.9224         45.7504
        38.5004
  -5555365.98446  -3234517.98843  23842563.0084   23842549.8954         38.7504
        21.0004
 -24390389.94547 -18256103.14847  20549878.5084   20549865.1024         47.7504
        42.2504
  -2828091.60245  -1419572.61342  25259717.8754   25259706.0514         34.2504
        16.7504
  -2394595.93445  -1565349.27342  25204377.6254   25204365.3914         35.2504
        17.7504
  -8454867.20347  -4364619.60244  22452416.7034   22452406.2274         43.0004
        29.5004
   -766788.97745   -141536.92642  25241937.2734   25241928.3204         33.5004
        15.5004
 15  1  3  2  7 30.0000000  0  9G21G08G29G16G31G23G05G25G27
 -11525463.10947  -8632489.49245  21787327.6804   21787313.9804         43.7504
        33.2504
 -18038050.44147 -12630555.96944  22580547.9844   22580534.8714         42.5004
        29.2504
 -14587997.49247 -11173838.22346  21054397.7194   21054384.8404         46.2504
        38.2504
  -5641743.71546  -3301825.27743  23826125.7894   23826112.6764         37.7504
        21.0004
 -24369586.75048 -18239892.87547  20553837.3284   20553823.3954         48.5004
        42.0004
  -2853640.98845  -1439481.20742  25254855.0314   25254844.0274         33.5004
        16.2504
  -2416681.75845  -1582558.96943  25200174.5314   25200161.4184         35.5004
        19.5004
  -8382367.25847  -4308126.12544  22466213.6414   22466202.6374         42.5004
        29.7504
   -861957.05545   -215693.80142  25223827.9534   25223818.8244         33.5004
        16.7504
 15  1  3  2  8  0.0000000  0  9G21G08G29G16G31G23G05G25G27
 -11584171.84847  -8678236.54745  21776155.7974   21776142.5084         43.7504
        34.2504
 -18129137.49647 -12701532.88745  22563214.4924   22563202.0234         42.5004
        30.0004
 -14523619.06247 -11123673.21946  21066649.2584   21066636.2034         46.0004
        38.0004
  -5728084.19946  -3369103.54343  23809695.7894   23809682.7934         36.5004
        20.0004
 -24348232.24648 -18223253.01247  20557901.0864   20557886.9184         48.5004
        42.2504
  -2878692.60945  -1459001.89542  25250088.8364   25250075.7234         34.7504
        15.5004
  -2438308.00845  -1599410.53143  25196058.6484   25196046.8834         34.5004
        18.5004
  -8309657.91847  -4251469.52344  22480049.3364   22480039.1524         42.2504
        29.7504
   -957025.55945   -289773.09842  25205736.4534   25205726.8554         33.5004
        17.7504
 15  1  3  2  8 30.0000000  0  9G21G08G29G16G31G23G05G25G27
 -11642493.00047  -8723681.59045  21765057.5394   21765044.0164         43.5004
        33.5004
 -18219912.62547 -12772266.73445  22545940.8914   22545928.2464         42.2504
        30.2504
 -14459004.17647 -11073323.96146  21078944.0864   21078932.0864         46.0004
        38.5004
  -5814386.83645  -3436352.30142  23793270.7034   23793260.5784         34.5004
        17.7504
 -24326326.60948 -18206183.68747  20562069.1094   20562055.6454         48.2504
        42.0004
  -2903246.22345  -1478134.54342  25245415.7424   25245403.3914         32.7504
        14.7504
  -2459473.05145  -1615902.74642  25192032.4454   25192019.3914         35.5004
        17.7504
  -8236739.47347  -4194649.96944  22493925.1564   22493915.0314         42.2504
        29.7504
  -1051993.65245   -363774.10542  25187664.3524   25187655.0474         33.0004
        17.7504
 15  1  3  2  9  0.0000000  0  9G21G08G29G16G31G23G05G25G27
 -11700425.24647  -8768823.58245  21754033.6174   21754019.9774         43.5004
        34.5004
 -18310372.85247 -12842755.21545  22528726.5704   22528714.1604         42.5004
        30.0004
 -14394154.23447 -11022791.54346  21091285.6954   21091272.5824         45.7504
        38.5004
  -5900650.93445  -3503571.02043  23776855.1254   23776845.0594         34.5004
        18.2504
 -24303870.12148 -18188685.12147  20566342.5314   20566328.6564         48.2504
        42.0004
  -2927301.18745  -1496878.68042  25240840.1334   25240825.5554         35.5004
        16.2504
  -2480175.83245  -1632034.76243  25188091.8754   25188079.6994         35.2504
        18.2504
  -8163612.27547  -4137667.75844  22507840.9144   22507829.9694         42.0004
        29.5004
  -1146860.69145   -437696.35542  25169611.9454   25169602.7584         33.0004
        16.7504
 15  1  3  2  9 30.0000000  0  9G21G08G29G16G31G23G05G25G27
 -11757967.03547  -8813661.32045  21743083.7894   21743070.5004         43.2504
        34.5004
 -18400515.19547 -12912995.98445  22511573.3284   22511560.3914         43.0004
        30.5004
 -14329070.73847 -10972077.12946  21103670.3984   21103657.8714         45.7504
        38.7504
  -5986875.44945  -3570758.93042  23760447.0634   23760436.7034         34.0004
        17.7504
 -24280863.21548 -18170757.67247  20570720.7504   20570707.0514         48.7504
        42.0004
  -2950857.38345  -1515234.18042  25236356.8984   25236342.7894         35.2504
        17.2504
  -2500414.60545  -1647805.14543  25184241.0784   25184228.3754         35.0004
        18.5004
  -8090276.61347  -4080523.09844  22521795.7894   22521785.4884         42.0004
        28.7504
  -1241625.82445   -511539.23042  25151578.6024   25151569.7664         32.0004
        16.7504
 15  1  3  2 10  0.0000000  0  9G21G08G29G16G31G23G05G25G27
 -11815116.62147  -8858193.45745  21732208.4774   21732194.8954         44.0004
        35.2504
 -18490336.85247 -12982986.87545  22494480.7114   22494468.5354         42.5004
        30.0004
 -14263755.80147 -10921182.37546  21116099.6094   21116086.4964         46.7504
        38.5004
  -6073059.87545  -3637915.58643  23744047.6804   23744035.8554         35.5004
        19.0004
 -24257306.43748 -18152401.74647  20575203.3984   20575189.4654         48.5004
        42.2504
  -2973914.12946  -1533200.41842  25231969.7504   25231955.0554         36.0004
        16.7504
  -2520187.79746  -1663212.80543  25180478.8914   25180465.5434         36.5004
        18.2504
  -8016732.79347  -4023216.24644  22535790.3524   22535780.8714         42.0004
        29.0004
  -1336288.24645   -585302.03142  25133564.7974   25133556.4884         31.5004
        16.2504
 15  1  3  2 10 30.0000000  0  9G21G08G29G16G31G23G05G25G27
 -11871872.12147  -8902418.49245  21721408.5394   21721394.8404         44.5004
        34.0004
 -18579834.80947 -13052725.53545  22477449.5944   22477437.0084         42.5004
        30.2504
 -14198211.51247 -10870108.91046  21128572.2814   21128558.9924         46.5004
        39.0004
  -6159203.45746  -3705040.41843  23727655.8914   23727642.4264         36.0004
        18.5004
 -24233200.34848 -18133617.78547  20579790.7114   20579777.1884         48.0004
        42.7504
  -2996471.29345  -1550777.43442  25227676.3364   25227662.6954         35.7504
        16.2504
  -2539494.27046  -1678256.73443  25176805.0004   25176791.4774         36.7504
        18.2504
  -7942981.15247  -3965747.46145  22549825.7584   22549815.9264         42.5004
        30.5004
  -1430847.31645   -658984.32442  25115570.4384   25115562.5394         31.0004
        16.2504
 15  1  3  2 11  0.0000000  0  9G21G08G29G16G31G23G05G25G27
 -11928232.16047  -8946335.39545  21710683.4224   21710669.8984         44.0004
        34.5004
 -18669006.30547 -13122209.81245  22460480.7894   22460467.8524         42.7504
        30.2504
 -14132438.96947 -10818857.58246  21141088.3134   21141075.5514         46.5004
        38.7504
  -6245305.13346  -3772132.60943  23711271.7504   23711256.7624         37.2504
        19.2504
 -24208545.19548 -18114405.98846  20584482.3054   20584468.9574         48.2504
        41.5004
  -3018528.28545  -1567964.66842  25223478.9304   25223465.8754         35.7504
        17.7504
  -2558332.07045  -1692935.45742  25173218.9774   25173207.2704         35.5004
        16.7504
  -7869021.99247  -3908116.96945  22563899.4774   22563889.9384         42.0004
        31.0004
                                  25097595.3204   25097589.0044         32.0004
        16.2504
 15  1  3  2 11 30.0000000  0  9G21G08G29G16G31G23G05G25G27
 -11984195.27047  -8989943.00045  21700034.1334   21700020.3754         44.5004
        35.0004
 -18757848.49647 -13191437.47745  22443575.0084   22443561.7194         43.2504
        30.7504
 -14066440.38347 -10767430.10546  21153647.8594   21153634.6884         46.7504
        38.0004
  -6331364.38346  -3839191.80143  23694895.6804   23694880.1644         38.2504
        18.2504
 -24183341.36748 -18094766.64846  20589278.3984   20589264.6994         48.7504
        41.5004
  -3040084.69945  -1584761.84842  25219376.8134   25219363.5234         34.7504
        15.5004
  -2576699.76645  -1707247.95343  25169724.0784   25169711.4344         35.7504
        18.5004
  -7794855.63747  -3850325.02744  22578013.3444   22578002.9844         42.2504
        29.5004
  -1619652.04345   -806104.74642  25079642.1414   25079634.0084         33.0004
        16.2504
 15  1  3  2 12  0.0000000  0  9G21G08G29G16G31G23G05G25G27
 -12039759.71947  -9033239.96145  21689460.3754   21689446.7344         44.5004
        35.2504
 -18846358.55547 -13260406.34445  22426731.9844   22426718.4024         43.7504
        30.0004
 -14000217.86347 -10715828.14546  21166249.0164   21166236.1954         46.7504
        38.5004
  -6417380.34446  -3906217.23843  23678527.2894   23678511.4804         37.5004
        19.5004
 -24157589.57848 -18074700.32046  20594178.7814   20594164.9654         48.0004
        41.2504
  -3061140.56645  -1601168.98042  25215371.0474   25215357.3484         35.0004
        17.2504
  -2594596.47346  -1721193.39543  25166318.7194   25166306.1914         36.5004
        18.2504
  -7720482.41447  -3792371.89144  22592165.6804   22592155.3204         42.2504
        29.2504
  -1713896.32445   -879541.82042  25061707.6484   25061699.2234         33.5004
        17.2504
 15  1  3  2 12 30.0000000  0  9G21G08G29G16G31G23G05G25G27
 -12094924.38347  -9076225.40245  21678963.3834   21678948.9224         44.7504
        34.5004
 -18934533.35547 -13329113.96545  22409952.9304   22409939.0554         43.7504
        30.5004
 -13933772.83247 -10664052.79746  21178893.1484   21178880.0354         46.0004
        38.2504
  -6503351.96546  -3973208.07443  23662167.7274   23662153.1484         37.7504
        21.5004
 -24131290.43448 -18054207.48046  20599183.5394   20599169.8404         48.0004
        41.5004
  -3081695.25845  -1617185.62943  25211459.3204   25211446.0314         35.5004
        18.2504
  -2612021.04345  -1734770.91043  25163003.0704   25162990.0164         35.7504
        18.2504
  -7645902.69547  -3734257.84044  22606357.6804   22606347.2034         42.0004
        29.0004
  -1808034.19145   -952895.85542  25043795.4694   25043785.0514         33.5004
        16.7504
 15  1  3  2 13  0.0000000  0  9G21G08G29G16G31G23G05G25G27
 -12149687.56647  -9118898.00445  21668541.7734   21668528.0164         43.5004
        34.0004
 -19022370.20747 -13397558.25445  22393237.9384   22393225.0004         43.5004
        31.0004
 -13867106.51247 -10612105.02746  21191579.1644   21191566.4024         45.7504
        37.7504
  -6589278.76246  -4040163.99243  23645815.4774   23645802.4224         38.2504
        22.7504
 -24104444.09447 -18033288.26646  20604292.1884   20604278.8984         47.7504
        41.7504
  -3101748.44145  -1632811.49642  25207643.3364   25207630.0474         34.7504
        15.5004
  -2628971.39545  -1747978.95743  25159777.3754   25159764.6724         35.2504
        18.2504
  -7571116.75847  -3675983.09444  22620589.3984   22620578.8054         42.0004
        29.5004
  -1902064.82045  -1026166.40242  25025900.7664   25025892.0474         31.7504
        15.5004
 15  1  3  2 13 30.0000000  0  9G21G08G29G16G31G23G05G25G27
 -12204047.57847  -9161256.43745  21658197.6414   21658183.4734         44.0004
        34.5004
 -19109865.81247 -13465736.63745  22376587.8524   22376575.6174         44.0004
        30.5004
 -13800221.32847 -10559986.71146  21204307.0704   21204293.8404         46.2504
        37.7504
  -6675160.04746  -4107084.44943  23629473.4844   23629460.0784         37.0004
        22.5004
 -24077051.22748 -18011943.18446  20609505.1174   20609491.4774         48.2504
        41.7504
  -3121300.13345  -1648046.60242  25203922.6174   25203909.7384         35.2504
        17.7504
  -2645446.53545  -1760816.66443  25156641.3984   25156629.8674         34.2504
        18.2504
  -7496124.98047  -3617547.96144  22634859.6724   22634849.3134         42.0004
        28.7504
  -1995987.70745  -1099352.96942  25008028.1174   25008018.5784         32.0004
        17.7504
 15  1  3  2 14  0.0000000  0  9G21G08G29G16G31G23G05G25G27
 -12258002.89547  -9203299.52345  21647929.8284   21647916.7734         44.5004
        35.0004
 -19197017.40247 -13533646.96945  22360003.9694   22359990.6214         43.0004
        31.0004
 -13733118.68747 -10507698.93746  21217076.4384   21217062.7384         46.5004
        38.0004
  -6760994.70346  -4173968.55943  23613138.4774   23613126.8284         36.5004
        22.0004
 -24049112.59048 -17990172.82047  20614821.3444   20614807.9384         48.0004
        42.5004
  -3140350.14846  -1662890.80542  25200298.0944   25200284.2774         36.0004
        16.2504
  -2661445.07445  -1773282.99643  25153596.6724   25153585.5514         35.0004
        19.5004
  -7420927.70347  -3558952.69544  22649169.3984   22649159.0984         42.0004
        29.2504
  -2089802.00055  -1172454.89552  24990175.6644   24990166.7114         30.7504
        16.2504
 15  1  3  2 14 30.0000000  0  9G21G08G29G16G31G23G05G25G27
 -12311552.07447  -9245026.14845  21637740.2034   21637726.3284         45.0004
        34.7504
 -19283822.26647 -13601287.10945  22343485.6954   22343472.6414         44.0004
        31.0004
 -13665800.46547 -10455243.17646  21229886.5864   21229873.2974         46.7504
        37.5004
  -6846781.94145  -4240815.71543  23596814.4304   23596801.9024         35.5004
        21.5004
 -24020628.80147 -17967977.66447  20620241.6024   20620228.0784         47.5004
        42.0004
  -3158897.92645  -1677343.56642  25196767.7194   25196754.9574         35.7504
        17.7504
  -2676965.60245  -1785376.88342  25150643.3984   25150632.0434         33.5004
        17.7504
  -7345525.26646  -3500197.57844  22663517.6484   22663507.8164         41.5004
        29.0004
                                  24972344.9224   24972335.0904         30.5004
        16.2504
 15  1  3  2 15  0.0000000  0  9G21G08G29G16G31G23G05G25G27
 -12364693.85247  -9286435.31645  21627627.3364   21627613.6374         44.5004
        35.5004
 -19370277.52347 -13668654.84845  22327033.5314   22327020.5354         43.5004
        31.7504
 -13598268.52747 -10402620.89846  21242737.5784   21242724.4064         46.0004
        37.5004
  -6932521.11345  -4307625.42643  23580498.7504   23580485.5204         35.5004
        21.5004
 -23991600.67647 -17945358.35547  20625765.5234   20625751.8834         47.5004
        42.0004
  -3176943.53945  -1691405.05942  25193333.0474   25193319.2894         35.5004
        16.7504
  -2692006.93445  -1797097.36343  25147781.0234   25147769.1414         34.7504
        18.5004
  -7269918.03146  -3441282.85944  22677904.6644   22677895.3014         41.0004
        28.7504
  -2277101.74255  -1318402.64552  24954533.5864   24954524.7504         31.2504
        16.7504
 15  1  3  2 15 30.0000000  0  9G21G08G29G16G31G23G05G25G27
 -12417426.94547  -9327526.02345  21617592.6564   21617579.0744         45.5004
        35.0004
 -19456380.23447 -13735747.85245  22310648.8834   22310635.9454         43.7504
        31.7504
 -13530524.53547 -10349833.38346  21255629.0004   21255615.5944         47.0004
        38.0004
  -7018211.16446  -4374396.87143  23564192.3674   23564179.6644         36.7504
        21.5004
 -23962028.50848 -17922315.11346  20631393.0084   20631379.5434         48.2504
        41.7504
  -3194486.82846  -1705075.14542  25189995.6414   25189981.2384         36.0004
        17.7504
  -2706567.89145  -1808443.47742  25145009.3754   25144998.1374         34.7504
        16.2504
  -7194106.34446  -3382208.83244  22692331.8984   22692321.3634         41.2504
        27.5004
  -2370585.78145  -1391247.28942  24936744.2034   24936735.8954         31.5004
        15.5004
 15  1  3  2 16  0.0000000  0  9G21G08G29G16G31G23G05G25G27
 -12469749.60247  -9368296.92245  21607636.4844   21607622.2584         45.0004
        35.0004
 -19542127.46147 -13802563.86745  22294331.0394   22294318.4534         43.7504
        30.7504
 -13462570.02347 -10296881.81646  21268560.4454   21268547.4494         46.2504
        38.0004
  -7103851.52346  -4441129.60243  23547896.6024   23547882.2584         36.7504
        21.7504
 -23931913.09448 -17898848.57046  20637123.8984   20637110.6684         48.0004
        41.5004
  -3211527.66446  -1718353.75042  25186751.6884   25186737.9884         36.5004
        17.2504
  -2720647.05546  -1819414.25843  25142331.2504   25142318.7234         36.0004
        19.0004
  -7118090.56246  -3322975.77744  22706796.9614   22706787.1884         40.7504
        28.2504
  -2463958.40244  -1464005.14542  24918976.3204   24918967.7194         29.0004
        14.7504
 15  1  3  2 16 30.0000000  0  9G21G08G29G16G31G23G05G25G27
 -12521660.13347  -9408746.67245  21597757.5164   21597744.4614         45.0004
        35.0004
 -19627516.44547 -13869100.73845  22278081.8284   22278069.0664         42.7504
        31.7504
 -13394406.96147 -10243767.75046  21281531.2274   21281518.2894         46.5004
        38.0004
  -7189441.09045  -4507822.73443  23531606.5944   23531595.2384         35.7504
        21.5004
 -23901254.98848 -17874959.14546  20642957.8984   20642944.0824         48.0004
        41.7504
  -3228065.68045  -1731240.56642  25183606.1094   25183590.6524         35.5004
        16.2504
  -2734243.48846  -1830008.84843  25139744.3444   25139731.2894         37.0004
        19.2504
  -7041871.08246  -3263583.97344  22721300.5704   22721290.9734         41.0004
        28.0004
  -2557218.82045  -1536675.51242  24901229.1254   24901220.8164         30.0004
        15.5004
 15  1  3  2 17  0.0000000  0  9G21G08G29G16G31G23G05G25G27
 -12573157.61747  -9448874.56245  21587958.0004   21587944.1844         44.7504
        34.7504
 -19712544.19147 -13935356.11745  22261901.7584   22261889.4654         42.5004
        31.7504
 -13326037.29347 -10190492.67646  21294541.1334   21294528.1954         45.7504
        38.0004
  -7274979.01645  -4574475.59843  23515330.8524   23515317.0944         35.2504
        19.7504
 -23870055.12948 -17850647.57847  20648894.9924   20648881.2344         48.0004
        42.0004
  -3244101.03945  -1743735.59842  25180554.4774   25180539.3714         35.5004
        16.7504
  -2747355.76245  -1840226.19943  25137248.6564   25137236.7154         35.2504
        19.2504
  -6965448.18746  -3204033.68044  22735843.6724   22735834.2504         41.0004
        27.7504
  -2650366.34055  -1609257.94552  24883503.6094   24883495.2424         30.5004
        13.7504
 15  1  3  2 17 30.0000000  0  9G21G08G29G16G31G23G05G25G27
 -12624240.85947  -9488679.68045  21578237.4144   21578223.6564         44.5004
        35.5004
 -19797207.65647 -14001327.64145  22245791.2194   22245778.3984         43.0004
        31.7504
 -13257462.02347 -10137057.40646  21307591.5944   21307578.2464         46.7504
        38.0004
  -7360464.63745  -4641087.78543  23499062.2974   23499049.4774         34.2504
        19.5004
 -23838314.18747 -17825914.38346  20654935.1884   20654921.3134         47.7504
        41.5004
  -3259633.69146  -1755838.92642  25177599.6644   25177583.7974         36.2504
        16.7504
  -2759982.90645  -1850065.49642  25134845.4224   25134833.3054         35.5004
        17.7504
  -6888822.34046  -3144325.25044  22750424.9774   22750414.8524         39.7504
        27.0004
  -2743400.27355  -1681751.81652  24865799.3364   24865791.9064         31.2504
        15.5004
 15  1  3  2 18  0.0000000  0  9G21G08G29G16G31G23G05G25G27
 -12674907.71547  -9528160.33645  21568596.1414   21568582.2074         45.0004
        35.5004
 -19881503.97747 -14067013.07445  22229749.8914   22229737.3054         42.7504
        32.5004
 -13188682.99247 -10083463.36746  21320679.7894   21320666.0904         46.0004
        38.0004
  -7445896.82446  -4707658.28943  23482805.7974   23482792.0984         36.0004
        21.5004
 -23806032.94548 -17800760.17246  20661078.4064   20661064.4734         48.2504
        41.7504
  -3274663.52046  -1767550.45742  25174739.7664   25174723.1954         36.5004
        16.7504
  -2772123.65646  -1859525.82043  25132537.0234   25132522.5044         36.5004
        18.5004
  -6811993.90246  -3084458.94944  22765044.8524   22765034.3754         40.7504
        27.5004
  -2836319.87545  -1754156.68442  24848118.2424   24848109.9344         32.2504
        13.7504
 15  1  3  2 18 30.0000000  0  9G21G08G29G16G31G23G05G25G27
 -12725157.24647  -9567315.79345  21559033.1094   21559019.5864         45.5004
        35.5004
 -19965430.63747 -14132410.45745  22213779.0944   22213766.7424         42.2504
        32.5004
 -13119702.09447 -10029712.01646  21333805.8284   21333792.3634         46.0004
        37.5004
  -7531274.73846  -4774186.51243  23466558.6564   23466545.4264         38.2504
        21.2504
 -23773211.82848 -17775185.28547  20667323.3834   20667310.0354         48.0004
        42.0004
  -3289190.48046  -1778870.16842  25171975.3284   25171958.1134         37.2504
        16.2504
  -2783777.00046  -1868606.30142  25130318.8204   25130304.6524         36.5004
        17.2504
  -6734963.17646  -3024435.00844  22779703.4454   22779693.7304         40.0004
        27.0004
  -2929124.44145  -1826471.90242  24830457.9064   24830448.6604         32.5004
        15.5004
 15  1  3  2 19  0.0000000  0  9G21G08G29G16G31G23G05G25G27
 -12774988.16447  -9606145.07045  21549550.9384   21549537.1214         45.2504
        35.2504
 -20048984.67247 -14197517.49645  22197879.3754   22197866.9654         43.0004
        32.2504
 -13050521.18747  -9975804.82846  21346971.2114   21346957.1604         46.0004
        37.2504
  -7616597.57846  -4840671.80143  23450322.1254   23450309.4224         38.0004
        22.2504
 -23739852.08647 -17749190.68746  20673671.8524   20673658.1524         47.5004
        41.5004
  -3303214.75446  -1789798.15242  25169305.8754   25169290.3014         36.2504
        17.2504
  -2794941.51646  -1877305.91043  25128194.3674   25128180.7274         36.0004
        19.2504
  -6657730.66446  -2964253.86344  22794400.6884   22794390.0944         40.5004
        26.5004
  -3021813.37945  -1898696.93442  24812819.3054   24812811.2894         31.7504
        16.2504
 15  1  3  2 19 30.0000000  0  9G21G08G29G16G31G23G05G25G27
 -12824399.05547  -9644647.05146  21540148.2814   21540134.7584         45.7504
        36.5004
 -20132163.15647 -14262331.87945  22182050.9844   22182038.6334         42.5004
        32.7504
 -12981141.79347  -9921742.96546  21360173.1414   21360159.5004         46.0004
        37.2504
  -7701864.39146  -4907113.44143  23434098.0784   23434083.2074         39.5004
        22.7504
 -23705954.65647 -17722777.10946  20680121.8754   20680108.6454         47.7504
        41.2504
  -3316735.94946  -1800334.17243  25166733.1644   25166718.0004         37.5004
        19.0004
  -2805616.23446  -1885623.85543  25126163.5944   25126150.7154         37.5004
        20.5004
  -6580296.66446  -2903915.69144  22809136.3204   22809125.2584         40.2504
        25.7504
  -3114385.926 5                  24795202.953                          31.500

 15  1  3  2 20  0.0000000  0  9G21G08G29G16G31G23G05G25G27
 -12873388.41047  -9682820.56246  21530826.6954   21530812.4104         46.0004
        36.2504
 -20214963.04747 -14326851.27045  22166294.9774   22166282.3324         42.5004
        32.2504
 -12911565.76247  -9867527.87146  21373413.2664   21373399.8014         45.7504
        37.5004
  -7787074.23846  -4973510.70743  23417882.6024   23417868.6684         40.0004
        22.5004
 -23671520.17647 -17695945.05946  20686674.7114   20686661.0124         47.7504
        41.5004
  -3329754.15246  -1810478.18442  25164255.1414   25164241.3834         36.5004
        16.7504
  -2815800.43446  -1893559.51643  25124225.1804   25124212.1254         37.0004
        19.0004
  -6502661.63746  -2843420.87144  22823909.4144   22823898.9384         40.7504
        25.5004
  -3206841.363 5                  24777609.477                          32.000

 15  1  3  2 20 30.0000000  0  9G21G08G29G16G31G23G05G25G27
 -12921955.37147  -9720664.93046  21521583.9454   21521570.6564         45.2504
        36.2504
 -20297381.54347 -14391073.46145  22150611.6484   22150599.0634         42.7504
        32.5004
 -12841794.49647  -9813160.66846  21386689.8204   21386676.0634         44.7504
        37.0004
  -7872226.19946  -5039862.88343  23401679.1484   23401664.2774         39.5004
        22.5004
 -23636549.50448 -17668695.18746  20693329.7194   20693316.1374         48.0004
        41.5004
  -3342269.58246  -1820230.50042  25161872.8834   25161859.5354         36.5004
        16.7504
  -2825492.67646  -1901111.90243  25122380.1024   25122366.6374         36.5004
        18.2504
  -6424825.91846  -2782769.68044  22838721.1414   22838710.6644         40.2504
        28.0004
  -3299179.113 5                  24760038.438                          33.000

 15  1  3  2 21  0.0000000  0  9G21G08G29G16G31G23G05G25G27
 -12970098.34447  -9758178.92645  21512422.7664   21512408.8324         44.7504
        35.7504
 -20379415.70347 -14454996.17645  22135000.5004   22134988.1484         42.5004
        32.7504
 -12771829.63347  -9758642.59446  21400004.0474   21399990.2894         45.0004
        36.7504
  -7957319.68046  -5106169.48844  23385486.6254   23385471.4024         40.2504
        24.5004
 -23601043.33248 -17641028.05146  20700086.2734   20700072.5164         48.0004
        41.5004
  -3354282.24645  -1829591.03543  25159586.9694   25159574.3244         35.0004
        18.2504
  -2834692.33646  -1908280.46143  25120629.6564   25120616.1914         36.2504
        18.2504
  -6346789.92646  -2721962.44544  22853571.1094   22853560.8094         40.2504
        27.7504
  -3391398.52745  -1908797.13353  24742490.0474   24742476.2304         33.5004
        18.2504
 15  1  3  2 21 30.0000000  0  9G21G08G29G16G31G23G05G25G27
 -13017815.85247  -9795361.38346  21503342.7344   21503328.6844         45.2504
        36.0004
 -20461062.69547 -14518617.19545  22119463.6174   22119451.3834         43.2504
        33.2504
 -12701672.97347  -9703975.07046  21413354.0554   21413340.2974         45.2504
        36.5004
  -8042353.36746  -5172429.47343  23369304.5474   23369290.5554         40.0004
        23.0004
 -23565003.01647 -17612944.69946  20706944.3914   20706930.9264         47.0004
        41.0004
  -3365792.28545  -1838559.94942  25157396.5314   25157383.8874         35.7504
        17.2504
  -2843397.76246  -1915063.93743  25118974.2114   25118959.1054         36.2504
        19.0004
  -6268554.14846  -2660999.52044  22868458.1724   22868448.8094         40.5004
        27.5004
  -3483498.74245  -1980563.48042  24724962.2424   24724951.6484         33.7504
        16.7504
 15  1  3  2 22  0.0000000  0  9G21G08G29G16G31G23G05G25G27
 -13065107.11747  -9832211.71546  21494343.2664   21494329.1564         44.7504
        36.0004
 -20542319.63347 -14581934.28945  22104001.0784   22103988.6094         43.0004
        33.5004
 -12631326.30547  -9649159.49646  21426740.5784   21426727.3484         44.0004
        36.5004
  -8127326.30146  -5238642.12943  23353134.8444   23353120.1484         40.0004
        22.7504
 -23528429.05147 -17584445.51646  20713904.1174   20713890.5944         47.5004
        41.5004
  -3376799.95746  -1847137.35542  25155303.0554   25155289.3554         37.2504
        17.7504
  -2851608.18745  -1921461.66043  25117410.5084   25117397.6884         35.2504
        19.2504
  -6190118.92246  -2599881.18444  22883384.7274   22883374.6024         40.7504
        27.7504
  -3575479.27345  -2052236.51642  24707459.9844   24707449.8594         34.2504
        17.2504
 15  1  3  2 22 30.0000000  0  9G21G08G29G16G31G23G05G25G27
 -13111971.00447  -9868729.01646  21485425.0554   21485411.0634         45.2504
        36.5004
 -20623183.89147 -14644945.39145  22088612.6644   22088600.4884         42.7504
        33.0004
 -12560791.36347  -9594197.21946  21440163.4384   21440149.8554         44.0004
        36.2504
  -8212237.75446  -5304806.88744  23336977.4384   23336962.2734         40.5004
        24.5004
 -23491322.65247 -17555531.44546  20720965.4144   20720951.7734         47.5004
        41.5004
  -3387305.55546  -1855323.53942  25153303.3364   25153289.1684         36.5004
        17.2504
  -2859322.80546  -1927472.99243  25115942.1564   25115929.7464         36.0004
        18.5004
  -6111484.61346  -2538607.69944  22898347.9844   22898337.3914         40.2504
        25.5004
  -3667339.45745  -2123815.84842  24689978.6954   24689970.1524         34.5004
        16.2504
 15  1  3  2 23  0.0000000  0  9G21G08G29G16G31G23G05G25G27
 -13158405.59047  -9904911.80946  21476589.3594   21476575.2504         45.0004
        36.5004
 -20703652.44147 -14707648.16445  22073300.5394   22073287.6604         43.5004
        33.0004
 -12490069.26647  -9539089.09846  21453621.0004   21453607.8874         44.5004
        36.7504
  -8297086.78546  -5370923.01244  23320831.1954   23320816.6174         40.7504
        24.0004
 -23453684.39547 -17526202.94146  20728127.6414   20728114.1174         47.5004
        41.2504
  -3397308.92646  -1863118.33642  25151400.9614   25151384.8014         37.2504
        17.2504
  -2866540.67645  -1933097.27343  25114569.2974   25114556.8874         34.7504
        19.0004
  -6032651.73046  -2477179.49644  22913348.6804   22913339.3164         40.2504
        26.2504
  -3759078.60945  -2195300.82442  24672523.0004   24672512.2894         35.5004
        16.7504
 15  1  3  2 23 30.0000000  0  9G21G08G29G16G31G23G05G25G27
 -13204410.58647  -9940759.83646  21467834.5084   21467820.9844         45.2504
        36.7504
 -20783722.55947 -14770040.45345  22058063.4304   22058050.9024         43.2504
        32.7504
 -12419162.03947  -9483836.72346  21467113.9384   21467100.7074         44.5004
        36.7504
  -8381872.26646  -5436989.59044  23304696.9614   23304682.6174         41.5004
        26.7504
 -23415515.88347 -17496461.25446  20735391.0314   20735377.4494         47.0004
        41.2504
  -3406809.93446  -1870521.74242  25149593.8284   25149577.3164         38.0004
        17.2504
  -2873260.96945  -1938333.84042  25113290.7114   25113276.9534         35.7504
        17.2504
  -5953620.63346  -2415596.81644  22928388.4694   22928378.3444         40.0004
        26.5004
  -3850696.03145  -2266690.98042  24655088.2814   24655078.0984         35.5004
        17.2504
 15  1  3  2 24  0.0000000  0  9G21G08G29G16G31G23G05G25G27
 -13249983.75847  -9976271.39146  21459162.2114   21459148.3364         45.0004
        36.0004
 -20863391.17647 -14832119.88345  22042903.3754   22042890.1454         43.5004
        33.5004
 -12348071.40247  -9428441.43046  21480641.6024   21480629.4264         44.0004
        36.2504
  -8466593.25046  -5503005.94144  23288575.0944   23288560.8094         41.5004
        25.2504
 -23376817.78147 -17466306.89546  20742755.3674   20742741.5514         47.5004
        41.7504
  -3415808.98846  -1877533.96142  25147880.8364   25147865.0274         38.0004
        17.7504
  -2879482.58645  -1943181.80143  25112105.4534   25112093.6294         34.7504
        18.5004
  -5874391.77346  -2353860.06244  22943465.7344   22943455.3754         41.0004
        27.5004
  -3942191.14846  -2337985.81643  24637677.2194   24637666.6254         36.5004
        19.0004
 15  1  3  2 24 30.0000000  0  9G21G08G29G16G31G23G05G25G27
 -13295124.38347 -10011445.89146  21450572.4924   21450558.8524         45.2504
        36.0004
 -20942655.37547 -14893884.18445  22027819.6024   22027806.6054         44.0004
        33.0004
 -12276798.70347  -9372904.27746  21494204.8134   21494192.1684         44.5004
        36.0004
  -8551248.71546  -5568971.22344  23272465.5554   23272451.3284         41.5004
        26.2504
 -23337591.17247 -17435740.71146  20750219.8134   20750205.9384         47.5004
        41.0004
  -3424306.67646  -1884155.48843  25146263.9454   25146248.0784         37.2504
        19.0004
  -2885204.83645  -1947640.70343  25111016.1804   25111004.1804         34.5004
        18.2504
  -5794965.62146  -2291969.55544  22958579.6804   22958569.2624         40.0004
        27.0004
  -4033563.33246  -2409184.87943  24620288.7034   24620279.3984         36.7504
        18.5004
 15  1  3  2 25  0.0000000  0  9G21G08G29G16G31G23G05G25G27
 -13339832.01647 -10046283.00046  21442064.6254   21442050.9264         45.0004
        36.0004
 -21021512.54347 -14955331.31645  22012813.3834   22012800.4454         44.0004
        33.0004
 -12205345.64147  -9317226.57046  21507802.0394   21507789.0434         44.5004
        37.0004
  -8635837.94146  -5634884.87944  23256367.8674   23256355.3404         41.2504
        24.0004
 -23297837.01248 -17404763.44546  20757784.5784   20757771.2304         48.0004
        41.0004
  -3432303.10245  -1890386.43742  25144738.7114   25144726.5354         34.7504
        16.7504
  -2890426.80545  -1951709.73442  25110021.5704   25110010.9774         34.5004
        17.7504
  -5715342.55146  -2229925.61344  22973730.7344   22973720.9614         39.5004
        25.7504
  -4124811.86346  -2480287.57442  24602925.1024   24602915.3874         36.0004
        16.7504
 15  1  3  2 25 30.0000000  0  9G21G08G29G16G31G23G05G25G27
 -13384104.52047 -10080781.04346  21433639.9454   21433626.0704         45.5004
        36.0004
 -21099959.79747 -15016459.03945  21997884.9224   21997872.3954         43.7504
        33.0004
 -12133714.06247  -9261409.76245  21521433.4064   21521420.4694         44.2504
        35.5004
  -8720359.83647  -5700746.07844  23240284.8834   23240271.1254         42.0004
        25.2504
 -23257556.60247 -17373376.12546  20765449.7894   20765436.5004         47.2504
        41.5004
  -3439798.26245  -1896226.87142  25143313.8444   25143300.6134         34.0004
        16.2504
  -2895147.45745  -1955388.12142  25109123.7814   25109112.4264         33.5004
        17.2504
  -5635523.05146  -2167728.61744  22988919.3914   22988909.9694         39.2504
        25.5004
  -4215936.15246  -2551293.48843  24585584.9384   24585574.6954         36.7504
        18.2504
 15  1  3  2 26  0.0000000  0  9G21G08G29G16G31G23G05G25G27
 -13427941.10247 -10114939.41446  21425298.0394   21425284.3984         45.2504
        36.5004
 -21177994.35547 -15077265.18045  21983035.6724   21983022.9104         43.5004
        31.5004
 -12061905.06647  -9205454.71546  21535097.8204   21535085.4104         45.5004
        36.2504
  -8804813.52746  -5766554.14144  23224212.5474   23224199.3754         41.2504
        24.5004
 -23216751.00047 -17341579.55546  20773214.5944   20773201.1294         47.7504
        41.2504
  -3446792.89845  -1901677.23042  25141982.5784   25141969.6994         34.7504
        17.2504
  -2899366.10945  -1958675.36342  25108320.0704   25108310.1804         33.0004
        16.7504
  -5555507.52746  -2105378.87544  23004146.0164   23004136.9454         39.7504
        25.2504
  -4306935.61346  -2622202.08643  24568267.5864   24568257.9884         36.0004
        19.0004
 15  1  3  2 26 30.0000000  0  9G21G08G29G16G31G23G05G25G27
 -13471340.36747 -10148757.00846  21417039.4924   21417025.3834         45.0004
        36.5004
 -21255613.29347 -15137747.46545  21968265.8524   21968252.8554         44.0004
        32.5004
 -11989920.66047  -9149362.97746  21548796.0554   21548783.4694         45.2504
        36.5004
  -8889197.73046  -5832308.05144  23208155.4924   23208141.3834         40.7504
        24.2504
 -23175421.15248 -17309374.49246  20781079.5704   20781066.1054         48.0004
        41.2504
  -3453286.95345  -1906737.55542  25140748.0634   25140734.0124         35.0004
        15.5004
  -2903082.12145  -1961570.91842  25107613.7114   25107602.6484         33.5004
        17.7504
  -5475296.46946  -2042876.76644  23019410.9064   23019400.9574         39.5004
        27.0004
  -4397809.59046  -2693012.94543  24550975.5784   24550964.7504         36.5004
        18.5004
 15  1  3  2 27  0.0000000  0  9G21G08G29G16G31G23G05G25G27
 -13514301.39847 -10182233.12946  21408864.2504   21408850.5514         45.5004
        36.5004
 -21332813.76247 -15197903.66845  21953575.0704   21953562.3094         44.2504
        33.0004
 -11917762.35547  -9093135.73446  21562527.3284   21562514.5664         45.5004
        36.2504
  -8973511.98846  -5898007.44543  23192110.7194   23192097.6054         39.7504
        23.5004
 -23133568.38747 -17276761.95746  20789043.8984   20789030.0234         47.0004
        40.7504
  -3459281.04746  -1911408.23842  25139607.8054   25139593.0514         36.0004
        16.2504
  -2906294.43045  -1964073.99643  25107004.1644   25106991.5204         34.5004
        19.0004
  -5394890.31646  -1980222.64544  23034711.4774   23034701.8794         39.7504
        25.5004
  -4488557.46146  -2763725.52743  24533707.2194   24533696.3914         37.0004
        20.0004
 15  1  3  2 27 30.0000000  0  9G21G08G29G16G31G23G05G25G27
 -13556823.39547 -10215367.13346  21400772.6564   21400758.5474         46.0004
        36.2504
 -21409593.03947 -15257731.67645  21938964.4534   21938951.2814         44.2504
        33.5004
 -11845431.41447  -9036773.97746  21576291.7664   21576278.6524         45.5004
        36.5004
  -9057754.43746  -5963650.90644  23176080.1884   23176066.3134         40.5004
        24.2504
 -23091193.74648 -17243742.76246  20797107.8054   20797093.6374         48.2504
        41.0004
  -3464775.42646  -1915689.59042  25138562.4064   25138547.7114         36.0004
        14.7504
  -2909002.61345  -1966184.27742  25106487.3364   25106476.2734         33.2504
        17.7504
  -5314289.52046  -1917416.84444  23050049.7194   23050039.2424         39.5004
        26.5004
  -4579178.62546  -2834339.35543  24516461.3444   24516451.8054         37.5004
        21.0004
 15  1  3  2 28  0.0000000  0  9G21G08G29G16G31G23G05G25G27
 -13598905.30947 -10248158.23046  21392764.6254   21392750.8674         45.5004
        36.7504
 -21485948.27347 -15317229.25045  21924434.3674   21924421.4304         44.5004
        34.0004
 -11772929.78947  -8980279.21546  21590087.7194   21590074.8404         45.0004
        36.2504
  -9141924.34046  -6029237.84043  23160062.7584   23160049.7624         40.7504
        23.5004
 -23048298.53548 -17210317.93446  20805270.0084   20805256.7774         48.2504
        40.7504
  -3469770.21945  -1919581.61742  25137610.9384   25137597.3554         35.0004
        16.2504
  -2911206.06645  -1967901.18742  25106067.1414   25106057.3094         32.2504
        17.2504
  -5233494.55946  -1854459.76244  23065423.9844   23065413.7424         39.5004
        26.0004
  -4669672.43446  -2904853.96943  24499240.3594   24499231.5234         37.0004
        21.7504
 15  1  3  2 28 30.0000000  0  9G21G08G29G16G31G23G05G25G27
 -13640545.87547 -10280605.41046  21384840.6254   21384827.3954         45.5004
        36.5004
 -21561876.74647 -15376394.28945  21909985.4614   21909973.1094         44.2504
        33.5004
 -11700259.05547  -8923652.67646  21603917.1884   21603904.1334         44.5004
        36.0004
  -9226020.87146  -6094767.57043  23144059.8364   23144046.9574         39.7504
        23.5004
 -23004883.74247 -17176488.23046  20813531.7664   20813518.1254         47.0004
        41.5004
  -3474266.18045  -1923084.93042  25136755.2504   25136741.7854         34.5004
        14.7504
  -2912903.32445  -1969223.69542  25105744.3594   25105734.3524         32.7504
        17.7504
  -5152505.86746  -1791351.68044  23080836.3524   23080825.6994         40.5004
        25.2504
  -4760038.32046  -2975268.87543  24482045.8134   24482034.3404         38.2504
        21.5004
 15  1  3  2 29  0.0000000  0  9G21G08G29G16G31G23G05G25G27
 -13681744.17647 -10312707.97746  21377000.9694   21376987.2114         45.0004
        36.7504
 -21637375.51247 -15435224.50045  21895618.5784   21895605.8164         44.5004
        33.5004
 -11627420.80547  -8866895.60246  21617777.7344   21617764.6214         44.5004
        36.7504
  -9310042.97746  -6160239.33643  23128069.9384   23128057.1764         39.2504
        22.5004
 -22960950.87547 -17142254.82846  20821891.6804   20821878.2734         47.5004
        41.0004
  -3478263.85245  -1926200.07042  25135992.9614   25135981.0784         31.2504
        13.7504
  -2914094.40245  -1970151.81243  25105517.9774   25105506.8554         33.2504
        18.2504
  -5071323.96546  -1728093.06244  23096283.6094   23096274.5984         39.2504
        26.0004
  -4850275.68746  -3045583.69143  24464874.0634   24464862.5314         37.5004
        22.0004
 15  1  3  2 29 30.0000000  0  9G21G08G29G16G31G23G05G25G27
 -13722499.02347 -10344464.98446  21369245.4694   21369231.7114         45.5004
        36.0004
 -21712441.96947 -15493717.84845  21881334.2664   21881321.0944         43.5004
        33.7504
 -11554416.62147  -8810009.23445  21631669.6644   21631656.4924         45.0004
        35.5004
  -9393989.73846  -6225652.37143  23112096.0784   23112082.7304         39.5004
        22.7504
 -22916500.94947 -17107618.53146  20830350.2504   20830337.0784         47.5004
        40.7504
  -3481763.137 5                  25135326.414                          32.250

  -2914778.46545  -1970684.78542  25105388.7584   25105376.2304         34.2504
        17.7504
  -4989949.35246  -1664684.28544  23111768.8984   23111759.2424         39.2504
        25.7504
  -4940383.96946  -3115797.85243  24447727.3284   24447715.9734         37.7504
        21.2504
 15  1  3  2 30  0.0000000  0  9G21G08G29G16G31G23G05G25G27
 -13762809.39547 -10375875.65246  21361574.6174   21361560.9774         45.0004
        36.7504
 -21787073.11347 -15551871.98045  21867132.4384   21867119.3244         44.7504
        33.5004
 -11481247.57447  -8752994.39845  21645593.0864   21645580.5004         43.5004
        35.5004
  -9477859.66446  -6291005.55543  23096135.4384   23096122.2664         39.5004
        22.5004
 -22871535.10547 -17072580.22346  20838906.9144   20838893.7424         47.0004
        41.0004
  -3484765.207 5                  25134756.141                          34.250

  -2914954.78945  -1970822.21542  25105356.3284   25105343.0984         35.0004
        17.7504
  -4908382.40646  -1601125.67644  23127290.5784   23127281.4494         38.7504
        24.7504
  -5030362.54346  -3185910.98843  24430603.5634   24430593.6724         37.0004
        22.0004
 15  1  3  2 30 30.0000000  0  9G21G08G29G16G31G23G05G25G27
 -13802674.77047 -10406939.57046  21353988.4534   21353974.8714         45.5004
        36.7504
 -21861266.30147 -15609684.85245  21853014.0864   21853000.4454         44.2504
        33.5004
 -11407915.44147  -8695852.47346  21659547.7814   21659534.7854         44.5004
        36.0004
  -9561651.79746  -6356298.11744  23080190.3984   23080177.2854         39.5004
        24.5004
 -22826054.61747 -17037140.89546  20847561.4454   20847548.3324         47.5004
        40.5004
  -3487270.16046  -1926804.79353  25134279.5704   25134263.4104         36.7504
        19.5004
  -2914622.68045  -1970563.37942  25105419.6024   25105405.9024         35.0004
        16.2504
  -4826623.71946  -1537417.61744  23142849.4774   23142838.8244         39.2504
        25.7504
  -5120210.71946  -3255922.50843  24413505.2664   24413495.7854         37.0004
        21.2504
 15  1  3  2 31  0.0000000  0  9G21G08G29G16G31G23G05G25G27
 -13842093.44947 -10437655.41846  21346487.5704   21346473.9304         45.5004
        36.7504
 -21935018.77747 -15667154.30545  21838979.1724   21838965.7664         44.0004
        33.5004
 -11334421.97347  -8638584.84845  21673533.4614   21673520.4654         44.5004
        35.2504
  -9645365.54346  -6421529.58644  23064260.6174   23064247.4454         40.2504
        24.0004
 -22780061.25847 -17001301.91846  20856313.6804   20856300.5084         47.0004
        40.0004
  -3489278.39846  -1928369.67242  25133899.2034   25133883.1604         37.5004
        17.2504
  -2913781.91046  -1969908.19143  25105581.2814   25105566.1764         36.5004
        19.2504
  -4744673.76246  -1473560.47744  23158443.9224   23158432.9774         40.2504
        24.5004
  -5209928.11346  -3325832.13743  24396433.3914   24396423.0314         36.5004
        22.0004
 15  1  3  2 31 30.0000000  0  9G21G08G29G16G31G23G05G25G27
 -13881064.82447 -10468022.71546  21339071.4384   21339057.4454         45.0004
        36.7504
 -22008327.94947 -15724278.32445  21825028.7814   21825015.1994         45.0004
        34.5004
 -11260768.73047  -8581192.72345  21687549.0634   21687536.2424         45.0004
        35.5004
  -9728999.41846  -6486698.80143  23048345.2194   23048332.3984         40.0004
        22.7504
 -22733555.98047 -16965064.05546  20865163.5474   20865149.9654         47.5004
        41.0004
  -3490790.44546  -1929547.82842  25133611.4064   25133596.1254         37.7504
        17.7504
  -2912431.64545  -1968856.02743  25105835.6954   25105822.5824         34.5004
        19.2504
  -4662533.02046  -1409554.71944  23174074.6174   23174064.1414         39.5004
        24.5004
  -5299513.99646  -3395639.26243  24379387.2274   24379375.8714         36.0004
        21.2504
 15  1  3  2 32  0.0000000  0  9G21G08G29G16G31G23G05G25G27
 -13919588.34447 -10498041.03146  21331741.1174   21331726.8324         46.0004
        36.5004
 -22081190.96947 -15781054.69945  21811163.2504   21811150.3134         44.7504
        33.7504
 -11186957.10247  -8523677.17245  21701594.7974   21701582.0944         43.7504
        35.7504
  -9812552.31646  -6551804.95743  23032446.1334   23032432.3164         40.2504
        22.5004
 -22686540.10947 -16928428.31246  20874110.6094   20874097.3794         47.5004
        40.5004
  -3491807.22746  -1930340.12942  25133417.2814   25133403.2304         36.5004
        17.7504
  -2910571.38345  -1967406.46142  25106190.7504   25106176.6994         34.5004
        17.7504
  -4580201.98846  -1345400.68044  23189741.3284   23189731.9064         39.0004
        25.5004
  -5388967.88346  -3465343.52043  24362365.5164   24362353.2234         36.2504
        21.5004
 15  1  3  2 32 30.0000000  0  9G21G08G29G16G31G23G05G25G27
 -13957662.50047 -10527709.18746  21324495.5634   21324481.5124         45.5004
        36.7504
 -22153605.19947 -15837481.36345  21797383.8364   21797370.4304         45.0004
        34.2504
 -11112988.52347  -8466039.31646  21715670.7734   21715657.8364         45.0004
        36.0004
  -9896023.26246  -6616847.24244  23016563.2114   23016548.2234         40.7504
        24.0004
 -22639015.31247 -16891396.01646  20883154.3284   20883140.6884         47.0004
        40.5004
  -3492329.24645  -1930746.88742  25133317.5704   25133303.9304         34.2504
        17.2504
  -2908200.55145  -1965559.03142  25106641.0234   25106627.4414         34.5004
        17.7504
  -4497681.14846  -1281098.75044  23205444.8754   23205435.1024         39.7504
        24.7504
  -5478289.10245  -3534944.43743  24345367.7344   24345355.6174         34.5004
        20.2504
 15  1  3  2 33  0.0000000  0  9G21G08G29G16G31G23G05G25G27
 -13995286.65247 -10557026.69546  21317335.5634   21317322.3324         45.2504
        36.7504
 -22225567.71947 -15893556.04745  21783689.3524   21783676.1804         44.7504
        34.7504
 -11038864.26647  -8408280.16445  21729776.6254   21729763.9224         45.7504
        35.5004
  -9979411.13746  -6681824.79744  23000695.0474   23000679.4734         41.2504
        26.0004
 -22590982.80547 -16853968.09046  20892294.8284   20892280.7774         47.5004
        40.2504
  -3492357.04345  -1930768.53942  25133313.5634   25133299.2194         35.0004
        16.7504
  -2905318.63345  -1963313.35542  25107188.6094   25107176.3164         33.5004
        17.2504
  -4414971.06246  -1216649.34044  23221183.7424   23221174.0274         40.2504
        26.0004
  -5567477.23845  -3604441.64143  24328394.5004   24328383.9064         33.7504
        20.7504
 15  1  3  2 33 30.0000000  0  9G21G08G29G16G31G23G05G25G27
 -14032460.02047 -10585992.93746  21310261.9384   21310247.8874         45.2504
        37.5004
 -22297075.83247 -15949276.65245  21770082.1644   21770069.4024         45.0004
        34.7504
 -10964586.52747  -8350401.42245  21743910.9144   21743898.2704         45.2504
        35.7504
 -10062714.71547  -6746736.67243  22984842.7034   22984828.4184         42.0004
        23.7504
 -22542443.82047 -16816145.51246  20901531.0164   20901517.9024         47.2504
        40.5004
  -3491890.81245  -1930405.32842  25133399.8364   25133387.4264         33.5004
        15.5004
  -2901925.08245  -1960668.99242  25107833.9224   25107821.5124         33.7504
        16.2504
  -4332072.22746  -1152052.85244  23236959.4534   23236949.0944         39.7504
        25.0004
  -5656531.59045  -3673834.57043  24311446.2034   24311437.1334         33.0004
        19.7504
 15  1  3  2 34  0.0000000  0  9G21G08G29G16G31G23G05G25G27
 -14069181.70747 -10614607.23046  21303273.6954   21303259.8794         45.5004
        36.7504
 -22368126.59847 -16004640.88745  21756561.0864   21756548.9694         45.0004
        34.2504
 -10890156.10947  -8292403.71145  21758075.0554   21758061.8244         46.0004
        35.7504
 -10145933.22747  -6811582.23844  22969006.5004   22968991.9804         42.5004
        24.7504
 -22493399.84447 -16777929.44546  20910864.1484   20910850.3324         47.2504
        40.2504
  -3490931.71145  -1929657.94942  25133583.0004   25133570.6484         34.2504
        15.5004
  -2898019.80945  -1957625.88342  25108578.2664   25108563.9804         34.0004
        16.2504
  -4248985.19146  -1087309.69943  23252770.0084   23252759.7664         39.0004
        23.5004
  -5745451.73045  -3743122.94543  24294528.2664   24294516.1484         33.5004
        19.0004
 15  1  3  2 34 30.0000000  0  9G21G08G29G16G31G23G05G25G27
 -14105450.35947 -10642868.50446  21296372.0004   21296358.0084         44.7504
        36.5004
 -22438717.72747 -16059646.96545  21743128.0234   21743115.6134         45.5004
        34.5004
 -10815574.73447  -8234288.35945  21772267.3444   21772253.5864         45.2504
        35.5004
 -10229065.36747  -6876360.52344  22953187.2974   22953172.7194         42.2504
        25.7504
 -22443852.42248 -16739321.07446  20920292.2194   20920278.8134         48.0004
        40.0004
  -3489479.97745  -1928526.73842  25133858.8914   25133846.7734         34.2504
        16.2504
  -2893602.05545  -1954183.50842  25109418.6644   25109405.0234         34.2504
        15.5004
  -4165710.41446  -1022420.28143  23268616.4454   23268606.3794         39.0004
        22.5004
  -5834236.99245  -3812306.19143  24277631.3674   24277621.3014         31.7504
        18.2504
 15  1  3  2 35  0.0000000  0  9G21G08G29G16G31G23G05G25G27
 -14141265.57047 -10670776.46146  21289556.9614   21289543.1454         45.5004
        37.2504
 -22508846.09047 -16114292.43745  21729783.1644   21729770.7544         45.5004
        34.5004
 -10740844.25047  -8176056.81645  21786488.1884   21786474.6644         46.0004
        34.7504
 -10312110.00847  -6941070.61344  22937384.3284   22937369.9264         42.5004
        26.2504
 -22393802.68447 -16700321.28146  20929816.7274   20929803.2624         47.5004
        40.2504
  -3487536.77045  -1927012.56242  25134230.1644   25134216.9924         35.0004
        17.7504
  -2888671.29745  -1950341.30542  25110356.1094   25110343.6994         33.0004
        16.2504
  -4082248.44946   -957384.98443  23284498.8834   23284488.4064         38.7504
        22.7504
  -5922886.90645  -3881383.99643  24260761.4534   24260751.9144         31.7504
        18.2504
 15  1  3  2 35 30.0000000  0 10G18G21G08G29G16G31G23G05G25G27
    -75083.75415                  25266479.211                          32.250

 -14176626.47747 -10698330.40646  21282828.1334   21282813.9654         45.5004
        37.0004
 -22578509.13747 -16168575.34045  21716526.6024   21716513.9574         45.5004
        35.0004
 -10665965.65247  -8117709.87145  21800736.8054   21800723.6334         45.2504
        34.0004
 -10395065.75847  -7005711.44144  22921598.1484   22921584.0394         42.5004
        27.0004
 -22343252.23047 -16660931.33246  20939436.1884   20939422.4304         47.5004
        40.0004
  -3485102.65245  -1925115.87142  25134693.6414   25134679.4734         35.7504
        17.7504
  -2883227.58245  -1946099.44142  25111392.5554   25111379.0314         34.5004
        17.7504
  -3998599.87546   -892204.28544  23300416.4694   23300406.8714         38.0004
        25.2504
  -6011400.86745  -3950355.81243  24243918.3674   24243908.0084         31.5004
        18.5004
 15  1  3  2 36  0.0000000  0 10G18G21G08G29G16G31G23G05G25G27
   -147903.684 5                  25252622.523                          32.500

 -14211532.59047 -10725529.96546  21276185.2194   21276171.5204         45.5004
        37.2504
 -22647704.35947 -16222493.67645  21703359.0704   21703346.4264         46.0004
        34.0004
 -10590940.59447  -8059248.80145  21815013.4144   21815000.3594         45.2504
        35.2504
 -10477931.87547  -7070282.44544  22905829.7274   22905815.1484         42.0004
        27.7504
 -22292202.83647 -16621152.59046  20949150.5314   20949136.9494         47.7504
        39.5004
  -3482178.55945  -1922837.37942  25135250.3754   25135235.3284         35.7504
        17.7504
  -2877270.32045  -1941457.38343  25112525.6724   25112513.3794         33.5004
        18.2504
  -3914765.22746   -826878.59843  23316369.7894   23316360.1914         37.5004
        22.7504
  -6099778.35945  -4019221.36343  24227100.4454   24227090.4384         33.5004
        19.0004
 15  1  3  2 36 30.0000000  0 10G18G21G08G29G16G31G23G05G25G27
   -220853.621 5                  25238739.898                          32.500

 -14245983.12947 -10752374.52746  21269629.4224   21269615.9574         45.0004
        37.2504
 -22716428.68447 -16276045.09845  21690282.2114   21690268.5704         45.5004
        34.5004
 -10515770.41847  -8000674.65245  21829317.6484   21829304.8284         45.0004
        34.5004
 -10560706.85946  -7134782.41044  22890077.2424   22890063.2504         41.2504
        27.0004
 -22240655.75048 -16580986.04346  20958959.4304   20958945.9064         48.0004
        39.7504
  -3478764.83645  -1920177.35542  25135899.2424   25135884.7234         35.0004
        17.2504
  -2870799.07045  -1936414.82042  25113757.9614   25113744.7304         34.2504
        17.7504
  -3830744.93446   -761408.23443  23332358.0944   23332347.5594         38.0004
        22.2504
  -6188018.81245  -4087980.12943  24210308.9454   24210298.4104         33.2504
        19.7504
 15  1  3  2 37  0.0000000  0 10G18G21G08G29G16G31G23G05G25G27
   -293930.723 5                  25224833.906                          33.000

 -14279976.67247 -10778862.98846  21263161.1644   21263147.1134         44.5004
        37.0004
 -22784679.85947 -16329227.82045  21677294.2344   21677280.7114         45.0004
        34.2504
 -10440456.95347  -7941988.84445  21843649.5634   21843636.6844         45.0004
        35.0004
 -10643389.69147  -7199210.57044  22874343.1484   22874329.3914         42.0004
        26.7504
 -22188612.63747 -16540432.96946  20968863.0864   20968849.6214         47.5004
        40.7504
  -3474862.41845  -1917136.42642  25136641.3984   25136626.5864         35.0004
        17.2504
  -2863813.59845  -1930971.56643  25115087.7664   25115074.1254         34.7504
        18.5004
  -3746539.68046   -695793.74643  23348382.0234   23348371.4884         37.0004
        22.7504
  -6276121.80145  -4156631.73843  24193542.5554   24193533.4264         33.2504
        20.5004
 15  1  3  2 37 30.0000000  0 10G18G21G08G29G16G31G23G05G25G27
   -367132.492 5                  25210903.547                          33.500

 -14313513.33247 -10804995.44946  21256779.2664   21256764.9804         45.5004
        37.7504
 -22852455.16447 -16382039.74245  21664396.9384   21664383.5904         45.2504
        34.5004
 -10365001.27047  -7883192.22345  21858007.9774   21857994.8634         44.5004
        34.5004
 -10725979.25446  -7263566.05544  22858627.0634   22858613.4224         41.7504
        27.5004
 -22136075.18047 -16499494.71146  20978860.5164   20978846.8164         47.2504
        40.2504
  -3470472.04745  -1913715.34042  25137478.1644   25137461.7114         35.0004
        17.2504
  -2856313.41445  -1925127.24642  25116514.6334   25116501.7544         34.5004
        17.7504
  -3662150.03146   -630035.59043  23364440.8134   23364429.9844         38.0004
        22.5004
  -6364086.67245  -4225175.73843  24176804.9454   24176794.1764         35.0004
        21.2504
 15  1  3  2 38  0.0000000  0 10G18G21G08G29G16G31G23G05G25G27
   -440457.016 5                  25196950.086                          33.750

 -14346591.54747 -10830770.67246  21250484.3594   21250470.6604         44.5004
        37.5004
 -22919751.76247 -16434478.64545  21651590.1804   21651577.6524         45.2504
        34.7504
 -10289404.69547  -7824285.80145  21872393.6094   21872380.6134         44.5004
        35.2504
 -10808474.51647  -7327848.05544  22842927.7504   22842914.7544         42.0004
        27.5004
 -22083044.86347 -16458172.39546  20988951.2894   20988938.2344         47.5004
        40.0004
  -3465594.68045  -1909914.81642  25138404.9064   25138390.0944         34.7504
        14.7504
  -2848298.62545  -1918881.91843  25118039.6644   25118026.1414         35.0004
        18.2504
  -3577576.50046   -564134.13344  23380535.3444   23380523.7544         39.2504
        25.2504
  -6451912.93445  -4293611.71943  24160090.7584   24160081.2774         35.2504
        21.7504
 15  1  3  2 38 30.0000000  0 10G18G21G08G29G16G31G23G05G25G27
   -513902.06645    -52578.64552  25182974.8364   25182961.8404         34.7504
        15.5004
 -14379210.71947 -10856188.19546  21244277.3134   21244263.3794         46.0004
        37.5004
 -22986567.10247 -16486542.53945  21638876.1414   21638863.2034         45.0004
        35.2504
 -10213668.82447  -7765270.83645  21886806.1254   21886793.1884         44.5004
        34.5004
 -10890873.91446  -7392055.34844  22827247.9614   22827235.1414         41.7504
        28.0004
 -22029522.73447 -16416466.85246  20999137.0004   20999123.3014         47.5004
        39.5004
  -3460231.01246  -1905735.26642  25139426.1334   25139411.0274         36.0004
        15.5004
  -2839768.64545  -1912235.16442  25119664.1094   25119649.8834         35.0004
        17.7504
  -3492819.60546   -498089.82043  23396663.8444   23396652.4884         38.0004
        22.0004
  -6539600.12945  -4361939.38743  24143405.2814   24143395.0984         35.2504
        21.7504
 15  1  3  2 39  0.0000000  0 10G18G21G08G29G16G31G23G05G25G27
   -587465.29345   -109900.65242  25168976.6024   25168963.6644         35.0004
        14.7504
 -14411370.58247 -10881247.82446  21238157.2734   21238143.3404         44.5004
        38.2504
 -23052898.75447 -16538229.54345  21626253.5554   21626240.5004         45.5004
        34.5004
 -10137795.14847  -7706148.51245  21901244.2034   21901231.0904         44.2504
        34.5004
 -10973176.41847  -7456187.15244  22811586.6724   22811573.2074         42.2504
        28.2504
 -21975510.91047 -16374379.71946  21009414.6884   21009401.3984         46.7504
        40.0004
  -3454381.75445  -1901177.41442  25140539.5634   25140525.1604         35.5004
        16.7504
  -2830723.28145  -1905186.77742  25121384.4694   25121370.9454         34.0004
        17.7504
  -3407880.00046   -431903.12143  23412826.5864   23412815.8164         37.5004
        22.0004
  -6627147.69146  -4430158.21543  24126745.8134   24126735.1024         36.7504
        22.2504
 15  1  3  2 39 30.0000000  0 10G18G21G08G29G16G31G23G05G25G27
   -661144.64545   -167313.11342  25154956.7974   25154942.9804         34.5004
        14.7504
 -14443070.32847 -10905948.91446  21232125.3204   21232111.0354         45.5004
        37.5004
 -23118743.91847 -16589537.45745  21613723.2734   21613710.5124         45.0004
        34.7504
 -10061784.97347  -7646919.81645  21915708.2424   21915695.5394         44.5004
        33.7504
 -11055380.91047  -7520242.57444  22795943.8134   22795930.1134         42.0004
        28.5004
 -21921010.87147 -16331912.16846  21019786.2814   21019772.2894         47.5004
        40.0004
  -3448048.04746  -1896242.05142  25141744.5704   25141731.3404         36.7504
        16.2504
  -2821162.47745  -1897736.76243  25123203.4534   25123191.1024         33.0004
        18.5004
  -3322758.21546   -365574.45343  23429025.4384   23429014.2584         37.7504
        22.0004
  -6714555.16446  -4498267.90243  24110113.1564   24110102.2114         37.0004
        21.7504
 15  1  3  2 40  0.0000000  0 10G18G21G08G29G16G31G23G05G25G27
   -734937.43445   -224814.04342  25140912.8754   25140900.4064         34.5004
        17.2504
 -14474309.47347 -10930291.09846  21226180.8754   21226166.4734         45.7504
        38.2504
 -23184099.73047 -16640464.05545  21601286.6884   21601273.6334         45.0004
        35.0004
  -9985639.96147  -7587586.05145  21930198.5084   21930185.4534         44.2504
        34.7504
 -11137486.02747  -7584220.57444  22780319.2344   22780306.0634         42.5004
        28.0004
 -21866024.49647 -16289065.64546  21030249.7504   21030236.1684         47.5004
        39.7504
  -3441230.66846  -1890929.81243  25143042.7504   25143028.1134         38.7504
        18.2504
  -2811086.27045  -1889885.10542  25125119.4694   25125108.6994         33.0004
        17.2504
  -3237454.84846   -299104.32243  23445257.9304   23445247.9224         38.5004
        23.0004
  -6801821.95746  -4566267.94943  24093506.0004   24093495.5824         36.7504
        22.5004
 15  1  3  2 40 30.0000000  0 10G18G21G08G29G16G31G23G05G25G27
   -808841.48445   -282401.59442  25126850.5784   25126837.4064         33.2504
        15.5004
 -14505087.08247 -10954273.63746  21220323.9454   21220309.8364         45.0004
        37.7504
 -23248964.03947 -16691007.65245  21588943.1024   21588930.6334         45.2504
        35.2504
  -9909361.20747  -7528148.05945  21944713.6564   21944700.3094         44.0004
        34.5004
 -11219490.64147  -7648120.24644  22764713.9774   22764701.6844         42.2504
        28.0004
 -21810553.05947 -16245841.15246  21040805.3204   21040791.5634         47.0004
        40.0004
  -3433930.86746  -1885241.63343  25144432.2584   25144417.1524         38.5004
        18.5004
  -2800494.06645  -1881631.41442  25127135.7114   25127124.7074         33.0004
        17.2504
  -3151970.49646   -232493.16043  23461525.2504   23461514.5984         39.0004
        22.5004
  -6888947.65246  -4634158.03143  24076926.3444   24076916.6294         37.5004
        21.5004
 15  1  3  2 41  0.0000000  0 10G18G21G08G29G16G31G23G05G25G27
   -882854.44145   -340074.00442  25112765.3284   25112752.6844         33.2504
        15.5004
 -14535402.17647 -10977895.77746  21214554.9454   21214541.3634         44.7504
        37.7504
 -23313334.16447 -16741166.19545  21576694.1484   21576681.8554         44.2504
        35.2504
  -9832950.38347  -7468607.16845  21959254.2344   21959241.5314         44.2504
        33.7504
 -11301393.65247  -7711940.76244  22749129.1884   22749115.6054         42.5004
        28.5004
 -21754598.49647 -16202240.21546  21051453.0554   21051439.6484         46.5004
        40.0004
  -3426149.40646  -1879178.09842  25145912.7194   25145897.8484         37.7504
        17.2504
  -2789386.00445  -1872975.71543  25129250.2664   25129238.7934         34.2504
        18.2504
  -3066305.73846   -165741.37543  23477826.4614   23477816.4534         38.0004
        22.2504
  -6975931.71946  -4701937.80143  24060373.8204   24060363.2854         37.5004
        22.0004
 15  1  3  2 41 30.0000000  0 10G18G21G08G29G16G31G23G05G25G27
   -956973.96145   -397829.54342  25098661.6564   25098648.9534         34.0004
        15.5004
 -14565255.14847 -11001157.82446  21208874.2814   21208860.2304         45.0004
        37.5004
 -23377207.50447 -16790937.62945  21564538.8984   21564526.4884         44.5004
        35.0004
  -9756408.71147  -7408964.32445  21973819.2344   21973806.5314         44.0004
        34.0004
 -11383193.81247  -7775681.14144  22733562.7894   22733549.3834         42.5004
        28.5004
 -21698162.35247 -16158264.00446  21062192.7274   21062179.3204         47.2504
        39.2504
  -3417886.94946  -1872739.82842  25147484.5704   25147470.3444         36.2504
        16.7504
  -2777761.60545  -1863917.72342  25131461.6334   25131450.3364         33.0004
        16.2504
  -2980461.10246    -98849.49643  23494161.8984   23494152.8874         36.7504
        22.7504
  -7062773.71546  -4769606.84843  24043848.5554   24043837.3754         36.7504
        22.0004
 15  1  3  2 42  0.0000000  0 10G18G21G08G29G16G31G23G05G25G27
  -1031197.44145   -455666.02742  25084536.6334   25084524.6334         34.0004
        15.5004
 -14594644.97347 -11024058.97746  21203281.6334   21203267.4064         45.2504
        38.0004
 -23440581.61347 -16840320.05545  21552479.8754   21552466.5864         45.0004
        34.7504
  -9679737.30147  -7349220.36745  21988409.2034   21988396.7344         43.7504
        33.5004
 -11464889.84847  -7839340.37944  22718016.2814   22718002.8164         42.0004
        28.5004
 -21641246.53947 -16113914.03146  21073023.4144   21073009.8324         47.5004
        39.2504
  -3409144.60545  -1865927.55942  25149146.3204   25149133.5004         34.2504
        15.5004
  -2765620.81245  -1854457.31643  25133772.4384   25133760.4384         32.7504
        18.5004
  -2894437.33246    -31817.99643  23510531.8834   23510522.5204         38.5004
        22.5004
  -7149473.04746  -4837164.75043  24027350.9144   24027339.0904         37.7504
        21.0004
 15  1  3  2 42 30.0000000  0 10G18G21G08G29G16G31G23G05G25G27
  -1105523.03545   -513582.07042  25070393.8834   25070381.4144         33.2504
        16.2504
 -14623570.43747 -11046598.30146  21197777.0634   21197763.0704         45.5004
        37.5004
 -23503453.89847 -16889311.43745  21540515.8914   21540503.0704         45.0004
        35.2504
  -9602937.73447  -7289376.55945  22003024.2664   22003011.1524         44.2504
        33.2504
 -11546480.37147  -7902917.37144  22702490.6174   22702477.3284         42.5004
        28.5004
 -21583852.68447 -16069191.55546  21083945.0554   21083931.8244         46.7504
        39.7504
  -3399923.48445  -1858742.29342  25150900.3834   25150888.5594         33.5004
        16.2504
  -2752963.97745  -1844594.75443  25136180.4144   25136169.1764         33.7504
        18.5004
  -2808234.90246     35352.72343  23526935.7114   23526926.5234         37.7504
        22.5004
  -7236029.28546  -4904611.12943  24010879.2734   24010868.1524         38.0004
        21.5004
 15  1  3  2 43  0.0000000  0 10G18G21G08G29G16G31G23G05G25G27
  -1179948.42645   -571575.87142  25056230.4694   25056218.8204         33.2504
        14.7504
 -14652031.30947 -11068775.59446  21192361.4144   21192347.3054         45.0004
        37.5004
 -23565821.77747 -16937909.77345  21528647.6024   21528634.8404         46.0004
        35.5004
  -9526011.66047  -7229434.16445  22017662.2894   22017649.1764         44.0004
        33.0004
 -11627964.39847  -7966411.39144  22686984.1414   22686970.5004         42.5004
        27.5004
 -21525982.42247 -16024097.85546  21094957.4144   21094943.8324         46.7504
        39.5004
  -3390224.738 5                  25152746.398                          34.250

  -2739790.71145  -1834329.88342  25138687.8524   25138675.3244         33.5004
        17.2504
  -2721854.42246    102662.16443  23543372.5864   23543363.7504         36.2504
        23.0004
  -7322441.96546  -4971945.66843  23994434.7974   23994424.2624         38.5004
        22.0004
 15  1  3  2 43 30.0000000  0 10G18G21G08G29G16G31G23G05G25G27
  -1254470.66815                  25042050.469                          33.250

 -14680027.66847 -11090590.93046  21187033.8984   21187019.7304         45.5004
        38.0004
 -23627682.60247 -16986113.00845  21516875.2894   21516863.0554         45.0004
        35.7504
  -9448960.09847  -7169394.01245  22032325.0004   22032312.2384         43.7504
        33.7504
 -11709340.47746  -8029821.30544  22671498.9774   22671485.5704         41.7504
        27.7504
 -21467637.40247 -15978634.21546  21106060.3364   21106046.2854         47.0004
        39.7504
  -3380049.22745  -1854950.85952  25154684.2734   25154667.9384         35.7504
        16.2504
  -2726101.09445  -1823662.59442  25141291.2734   25141279.8014         31.7504
        17.2504
  -2635296.63346    170109.79344  23559844.6024   23559835.4734         36.7504
        25.0004
  -7408710.63346  -5039167.94543  23978018.8834   23978007.7034         39.0004
        20.7504
 15  1  3  2 44  0.0000000  0 10G18G21G08G29G16G31G23G05G25G27
  -1329087.570 5                  25027850.227                          33.000

 -14707558.11347 -11112043.21946  21181794.8284   21181780.8954         45.0004
        37.7504
 -23689034.07447 -17033919.34845  21505200.9924   21505188.4654         44.5004
        35.7504
  -9371784.30147  -7109257.03945  22047010.8204   22046998.2934         43.7504
        33.5004
 -11790607.30147  -8093146.09444  22656033.6954   22656020.6994         42.5004
        27.0004
 -21408819.62547 -15932802.18746  21117252.9454   21117239.3634         47.2504
        40.2504
  -3369398.23846  -1846651.33242  25156712.2344   25156695.3714         37.0004
        16.2504
  -2711895.28945  -1812593.09443  25143993.9454   25143982.6484         32.0004
        19.0004
  -2548562.03146    237695.18044  23576349.4614   23576340.5664         36.7504
        24.0004
  -7494834.73846  -5106277.61343  23961629.8444   23961618.6644         38.5004
        21.5004
 15  1  3  2 44 30.0000000  0 10G18G21G08G29G16G31G23G05G25G27
  -1403796.770 5                  25013633.914                          32.750

 -14734622.64147 -11133132.44146  21176644.4064   21176630.7074         45.0004
        37.5004
 -23749873.77047 -17081326.89846  21493623.4144   21493610.5354         45.5004
        36.0004
  -9294486.03547  -7049024.62945  22061719.7274   22061707.8444         43.7504
        33.5004
 -11871763.45746  -8156384.64144  22640590.7734   22640577.1914         41.7504
        26.5004
 -21349530.91447 -15886603.19546  21128534.9144   21128521.6254         47.0004
        40.5004
  -3358273.08646  -1837982.32842  25158828.7974   25158813.0474         37.0004
        17.2504
  -2697172.98445  -1801121.16843  25146798.2114   25146784.3364         33.5004
        19.5004
  -2461651.31646    305417.79344  23592888.6414   23592879.2194         38.5004
        25.5004
  -7580813.87546  -5173274.32043  23945267.7584   23945257.6914         38.7504
        21.5004
 15  1  3  2 45  0.0000000  0 10G18G21G08G29G16G31G23G05G25G27
  -1478595.945 5                  24999399.180                          34.250

 -14761220.88347 -11153858.33646  21171583.3134   21171569.3794         45.2504
        38.2504
 -23810199.07447 -17128333.62945  21482143.9144   21482131.0354         45.5004
        35.5004
  -9217066.28947  -6988697.55945  22076453.2274   22076439.9384         44.5004
        34.0004
 -11952808.04347  -8219536.24244  22625168.5234   22625154.8834         42.0004
        27.5004
 -21289772.87147 -15840038.49646  21139906.7194   21139893.1374         47.2504
        39.5004
  -3346674.02346  -1828944.13743  25161036.1484   25161021.2774         36.7504
        18.5004
  -2681934.33245  -1789246.83243  25149696.5164   25149684.7504         33.2504
        19.0004
  -2374565.07846    373277.21943  23609460.2424   23609450.7624         37.2504
        22.5004
  -7666647.51646  -5240157.66443  23928934.9924   23928923.4024         39.0004
        20.0004
 15  1  3  2 45 30.0000000  0 10G18G21G08G29G16G31G23G05G25G27
  -1553482.879 5                  24985149.672                          33.500

 -14787352.55547 -11174220.66846  21166610.4924   21166596.6174         45.2504
        38.2504
 -23870007.71947 -17174937.76245  21470762.7274   21470749.8484         45.7504
        35.5004
  -9139526.55147  -6928276.98845  22091208.0704   22091195.4264         44.0004
        33.7504
 -12033739.55946  -8282599.75844  22609768.1644   22609754.4064         41.7504
        27.0004
 -21229547.58247 -15793109.71146  21151366.6484   21151353.4774         46.7504
        39.2504
  -3334602.66445  -1819537.85243  25163332.5554   25163318.1524         35.2504
        18.2504
  -2666179.54745  -1776970.36342  25152694.5084   25152681.9224         33.5004
        16.7504
  -2287303.98846    441272.85943  23626065.6484   23626056.4024         37.0004
        22.7504
  -7752335.25846  -5306927.31643  23912628.9064   23912617.4924         39.0004
        22.0004
 15  1  3  2 46  0.0000000  0 10G18G21G08G29G16G31G23G05G25G27
  -1628455.082 5                  24970882.961                          33.500

 -14813016.45747 -11194218.50046  21161727.2274   21161713.2344         46.2504
        38.5004
 -23929297.08647 -17221137.26245  21459480.4614   21459467.2894         45.5004
        35.5004
  -9061867.83247  -6867763.71545  22105986.0084   22105973.0704         43.7504
        32.2504
 -12114556.60547  -8345574.05144  22594388.9064   22594375.4414         42.0004
        27.2504
 -21168856.58647 -15745818.02746  21162916.1564   21162902.7504         47.5004
        40.2504
  -3322060.32045  -1809764.60542  25165718.1254   25165704.7194         34.5004
        17.7504
  -2649908.60945  -1764291.64842  25155791.1484   25155778.5044         33.0004
        16.7504
  -2199868.67246    509404.26243  23642702.9304   23642694.2114         36.7504
        22.7504
  -7837876.65246  -5373582.93043  23896351.3204   23896339.6724         39.0004
        20.7504
 15  1  3  2 46 30.0000000  0 10G18G21G08G29G16G31G23G05G25G27
  -1703509.957 5                  24956599.547                          32.500

 -14838212.37147 -11213851.68046  21156932.1024   21156918.2274         45.2504
        37.7504
 -23988064.61747 -17266930.13745  21448296.7584   21448283.8204         44.5004
        35.2504
  -8984092.07047  -6807159.23045  22120785.9304   22120773.5204         43.5004
        33.0004
 -12195258.19547  -8408458.40644  22579031.6724   22579018.2074         42.0004
        27.5004
 -21107702.01647 -15698165.12546  21174553.5704   21174540.1054         47.0004
        39.2504
  -3309048.02745  -1799625.15242  25168194.1484   25168181.1524         34.5004
        17.7504
  -2633121.59445  -1751210.81242  25158984.8134   25158972.9884         33.2504
        17.7504
  -2112259.73845    577670.93843  23659374.5554   23659365.1334         35.2504
        21.5004
  -7923271.25446  -5440124.15643  23880100.8444   23880089.6054         38.2504
        22.0004
 15  1  3  2 47  0.0000000  0 10G18G21G08G29G16G31G23G05G25G27
  -1778645.348 5                  24942301.539                          32.750

 -14862940.03947 -11233119.97746  21152226.7894   21152212.9734         45.2504
        38.0004
 -24046307.83247 -17312314.45746  21437213.8284   21437201.3014         45.0004
        36.0004
  -8906199.73447  -6746463.91845  22135608.2274   22135595.9344         43.5004
        33.0004
 -12275842.81647  -8471251.59844  22563697.2424   22563683.0744         42.0004
        27.7504
 -21046085.52047 -15650152.27746  21186278.8674   21186265.4614         46.5004
        39.5004
  -3295566.79745  -1789120.32042  25170759.0704   25170746.4844         35.0004
        16.7504
  -2615818.65245  -1737727.94142  25162278.2734   25162265.6884         34.0004
        17.7504
  -2024477.87946    646072.39843  23676080.1254   23676070.0004         37.0004
        22.5004
  -8008518.51246  -5506550.56243  23863878.2664   23863867.5554         37.7504
        22.0004
 15  1  3  2 47 30.0000000  0 10G18G21G08G29G16G31G23G05G25G27
  -1853858.81215                  24927989.828                          32.750

 -14887199.00047 -11252023.05946  21147610.5394   21147596.2544         45.2504
        38.0004
 -24104024.48447 -17357288.46946  21426230.9534   21426218.3674         45.5004
        36.5004
  -8828192.57447  -6685679.12945  22150452.7974   22150440.6804         43.5004
        33.2504
 -12356309.21946  -8533952.68744  22548384.9144   22548371.6254         41.5004
        27.2504
 -20984009.14847 -15601781.09446  21198091.6564   21198077.8984         46.5004
        38.7504
  -3281617.92646  -1778251.07842  25173414.7114   25173400.4264         36.5004
        17.2504
  -2597999.98845  -1723843.24242  25165667.7344   25165656.4384         33.5004
        16.7504
  -1936523.74246    714608.07043  23692817.0394   23692806.6804         37.7504
        22.5004
  -8093618.09446  -5572861.91843  23847685.2034   23847673.2624         37.2504
        20.5004
 15  1  3  2 48  0.0000000  0 10G18G21G08G29G16G31G23G05G25G27
  -1929147.863 5                  24913662.391                          32.250

 -14910989.05947 -11270560.75846  21143082.7194   21143069.2544         45.0004
        37.2504
 -24161212.33247 -17401850.41046  21415348.7194   21415335.6644         45.5004
        36.5004
  -8750071.83247  -6624805.82045  22165318.9224   22165305.7504         43.5004
        32.0004
 -12436655.98847  -8596560.53144  22533095.4844   22533082.1374         42.0004
        28.0004
 -20921474.63747 -15553052.90646  21209992.0084   21209978.1914         47.0004
        39.5004
  -3267202.73845  -1767018.41442  25176157.5784   25176143.4104         35.5004
        17.2504
  -2579665.68445  -1709556.75042  25169157.4144   25169144.5944         34.5004
        17.7504
  -1848398.03546    783277.44143  23709586.5944   23709576.9964         36.5004
        21.2504
  -8178569.48446  -5639057.77743  23831518.1254   23831508.2344         37.7504
        21.7504
 15  1  3  2 48 30.0000000  0 10G18G21G08G29G16G31G23G05G25G27
  -2004509.852 5                  24899321.922                          32.000

 -14934310.18747 -11288733.05546  21138645.2034   21138631.2114         44.5004
        38.2504
 -24217869.03547 -17445998.48846  21404567.1804   21404554.4184         46.0004
        36.5004
  -8671839.03147  -6563845.20345  22180205.6564   22180193.0124         43.5004
        32.5004
 -12516881.78946  -8659074.11744  22517828.8674   22517815.1684         41.7504
        28.2504
 -20858484.23047 -15503969.48046  21221978.4454   21221964.3364         47.2504
        38.7504
  -3252322.51246  -1755423.48842  25178990.0474   25178974.4734         36.0004
        16.7504
  -2560816.12145  -1694868.75442  25172745.4924   25172731.3834         34.2504
        16.7504
  -1760101.32046    852080.07443  23726388.7584   23726378.9264         37.0004
        19.7504
  -8263372.36346  -5705137.90243  23815380.7584   23815371.0434         36.0004
        22.5004
 15  1  3  2 49  0.0000000  0 10G18G21G08G29G16G31G23G05G25G27
  -2079942.730 5                  24884966.789                          31.250

 -14957161.33247 -11306539.12546  21134297.0314   21134283.0984         46.0004
        38.0004
 -24273992.11347 -17489730.75446  21393886.6094   21393874.1994         46.0004
        36.7504
  -8593494.89147  -6502797.82045  22195114.8834   22195101.9454         44.0004
        33.5004
 -12596985.36347  -8721492.48444  22502586.4304   22502571.9104         43.0004
        29.2504
 -20795039.57047 -15454532.09046  21234051.2504   21234037.6094         46.7504
        38.7504
  -3236978.35246  -1743466.96142  25181910.0004   25181894.5434         36.2504
        16.2504
  -2541451.47345  -1679779.40642  25176428.1334   25176416.0164         33.0004
        16.7504
  -1671634.29346    921015.43843  23743223.6414   23743212.8134         37.5004
        20.5004
  -8348026.20345  -5771101.89543  23799272.2974   23799261.8794         35.5004
        22.7504
 15  1  3  2 49 30.0000000  0 10G18G21G08G29G16G31G23G05G25G27
  -2155444.14815                  24870598.914                          31.750

 -14979542.14847 -11323978.71946  21130038.0634   21130024.1884         45.0004
        37.7504
 -24329579.13747 -17533045.31646  21383309.2274   21383296.5824         45.5004
        36.2504
  -8515040.99247  -6441664.91845  22210044.3134   22210031.1414         43.7504
        32.5004
 -12676965.28547  -8783814.49644  22487366.7894   22487352.6214         43.0004
        29.7504
 -20731142.53947 -15404742.19946  21246210.5864   21246197.0044         46.7504
        39.0004
  -3221171.59445  -1731149.98042  25184917.0234   25184902.3284         34.2504
        16.2504
  -2521571.67245  -1664288.62942  25180211.7894   25180198.8524         33.0004
        16.7504
  -1582997.73846    990082.89543  23760090.7344   23760079.7894         36.7504
        20.5004
  -8432530.50045  -5836949.37143  23783191.5394   23783180.9454         35.5004
        22.2504
 15  1  3  2 50  0.0000000  0 10G18G21G08G29G16G31G23G05G25G27
  -2231011.000 5                  24856220.375                          32.000

 -15001452.80947 -11341051.94946  21125868.6564   21125854.7234         44.7504
        38.2504
 -24384627.62947 -17575940.25046  21372834.3754   21372820.8524         45.2504
        36.5004
  -8436478.82447  -6380447.65245  22224994.1954   22224980.9064         43.5004
        32.2504
 -12756820.21147  -8846039.09044  22472170.5944   22472156.6604         42.2504
        29.5004
 -20666795.37147 -15354601.55946  21258455.5784   21258441.9964         46.7504
        39.0004
  -3204903.51645  -1718473.52342  25188012.0004   25187999.0634         33.7504
        17.2504
  -2501177.22745  -1648396.81242  25184091.8594   25184080.2704         32.5004
        16.2504
  -1494192.26646   1059281.96943  23776989.8594   23776978.9144         38.0004
        20.7504
  -8516884.95746  -5902680.08243  23767139.6644   23767129.0124         36.2504
        23.0004
 15  1  3  2 50 30.0000000  0 10G18G21G08G29G16G31G23G05G25G27
  -2306641.113 5                  24841827.891                          32.500

 -15022892.67647 -11357758.32846  21121788.5084   21121774.5164         45.0004
        38.0004
 -24439135.68047 -17618414.05545  21362461.2974   21362448.3014         45.7504
        35.7504
  -8357809.41847  -6319146.82445  22239964.1644   22239951.0514         44.0004
        32.2504
 -12836548.90647  -8908165.32845  22456998.2814   22456984.7584         42.5004
        30.0004
 -20601999.95747 -15304111.63346  21270785.7504   21270772.1094         46.5004
        39.0004
  -3188175.60945  -1705438.81243  25191196.2974   25191182.1294         35.2504
        18.2504
  -2480268.41845  -1632104.21543  25188070.5784   25188059.1054         32.5004
        18.2504
  -1405218.57445   1128612.09443  23793920.0084   23793909.4144         35.5004
        19.5004
  -8601089.16846  -5968293.71143  23751116.3284   23751105.7934         36.2504
        22.5004
 15  1  3  2 51  0.0000000  0 10G18G21G08G29G16G31G23G05G25G27
  -2382332.207 5                  24827424.711                          33.000

 -15043861.57847 -11374097.72346  21117798.5164   21117784.2894         45.2504
        38.2504
 -24493100.91047 -17660464.87946  21352191.7194   21352179.0744         45.5004
        36.2504
  -8279033.77747  -6257763.21145  22254954.9844   22254941.8134         44.0004
        32.0004
 -12916149.77747  -8970191.96144  22441850.9064   22441836.6214         42.5004
        29.0004
 -20536758.17647 -15253273.88746  21283200.2664   21283186.9774         46.7504
        38.5004
  -3170989.22746  -1692046.84443  25194466.4774   25194452.6604         36.0004
        18.2504
  -2458845.75845  -1615411.16842  25192148.0944   25192136.0944         33.2504
        17.7504
  -1316077.24646   1198072.85543  23810883.4924   23810873.0744         36.2504
        20.0004
  -8685142.62545  -6033789.85543  23735121.3674   23735110.8914         35.2504
        22.5004
 15  1  3  2 51 30.0000000  0 10G18G21G08G29G16G31G23G05G25G27
  -2458081.660 5                  24813010.547                          34.250

 -15064359.25847 -11390069.93046  21113897.9304   21113883.7624         45.5004
        38.0004
 -24546520.80147 -17702090.77346  21342027.0634   21342013.5394         45.7504
        36.7504
  -8200153.48847  -6196298.06645  22269965.2274   22269952.0554         43.5004
        31.7504
 -12995621.55547  -9032118.01244  22426727.6024   22426714.1374         42.5004
        29.2504
 -20471072.19547 -15202090.01646  21295700.1254   21295687.1294         46.5004
        39.0004
  -3153345.76646  -1678298.69943  25197824.4454   25197809.9844         37.0004
        18.2504
  -2436909.24645  -1598317.74243  25196322.7114   25196310.7704         33.5004
        19.2504
  -1226769.12546   1267663.56343  23827878.9614   23827867.8404         37.5004
        19.2504
  -8769044.91045  -6099168.22743  23719154.3834   23719144.4924         35.5004
        22.5004
 15  1  3  2 52  0.0000000  0 10G18G21G08G29G16G31G23G05G25G27
  -2533887.016 5                  24798585.813                          34.500

 -15084385.41047 -11405674.71146  21110086.9614   21110072.9104         44.5004
        38.0004
 -24599393.24647 -17743290.06246  21331965.4924   21331952.4384         45.0004
        36.7504
  -8121169.24247  -6134751.89845  22284995.5704   22284982.7504         43.2504
        31.5004
 -13074963.00447  -9093942.50445  22411629.7504   22411615.8754         43.5004
        30.0004
 -20404943.96947 -15150561.53146  21308283.9454   21308270.8914         46.5004
        38.5004
  -3135246.41446  -1664195.27342  25201269.1884   25201253.7304         37.0004
        16.7504
  -2414459.28145  -1580824.26643  25200596.9144   25200583.5084         33.5004
        19.0004
  -1137294.88746   1337383.81643  23844906.2814   23844894.3984         37.0004
        19.7504
  -8852795.65646  -6164428.51243  23703217.2814   23703207.4494         37.5004
        23.5004
 15  1  3  2 52 30.0000000  0 10G18G21G08G29G16G31G23G05G25G27
  -2609745.590 5                  24784148.930                          32.250

 -15103939.92247 -11420911.99246  21106365.7424   21106351.6334         45.2504
        37.5004
 -24651715.84447 -17784060.91846  21322008.6254   21321996.4494         45.5004
        36.7504
  -8042082.77047  -6073126.08645  22300045.1804   22300032.0664         43.5004
        31.5004
 -13154172.86347  -9155664.45744  22396557.3204   22396542.9184         43.2504
        29.7504
 -20338375.73447 -15098690.19146  21320951.2894   21320937.6484         46.7504
        38.7504
  -3116692.64146  -1649737.79342  25204800.3134   25204783.5084         38.5004
        17.2504
  -2391496.22345  -1562930.94143  25204965.3674   25204952.7814         34.5004
        18.2504
  -1047655.25846   1407232.85943  23861962.8054   23861952.7384         36.5004
        21.0004
  -8936394.48845  -6229570.41843  23687309.6254   23687298.9144         35.5004
        22.7504
 15  1  3  2 53  0.0000000  0 10G18G21G08G29G16G31G23G05G25G27
  -2685655.547 5                  24769703.313                          33.500

 -15123022.89547 -11435781.82846  21102734.2504   21102720.2584         44.5004
        37.5004
 -24703486.78547 -17824401.90646  21312156.7274   21312144.2584         45.0004
        36.7504
  -7962895.33647  -6011421.59845  22315114.1564   22315101.2774         42.7504
        32.2504
 -13233249.09047  -9217282.28544  22381509.4924   22381495.0904         43.0004
        29.7504
 -20271369.16047 -15046477.27346  21333702.0864   21333688.8554         46.2504
        38.2504
  -3097685.81646  -1634927.25842  25208416.8284   25208400.1414         36.7504
        16.2504
  -2368020.53545  -1544638.20343  25209432.0394   25209419.6884         35.0004
        20.2504
   -957850.86745   1477210.28943  23879051.7814   23879042.4184         35.2504
        20.5004
  -9019840.89546  -6294593.54344  23671429.8134   23671419.8054         36.2504
        24.0004
 15  1  3  2 53 30.0000000  0 10G18G21G08G29G16G31G23G05G25G27
  -2761613.969 5                  24755250.453                          34.500

 -15141633.60247 -11450283.66846  21099192.9224   21099178.9884         44.7504
        37.5004
 -24754703.47747 -17864311.01646  21302411.0004   21302398.2974         46.0004
        37.2504
  -7883608.21147  -5949639.42645  22330201.7664   22330188.8284         43.0004
        30.7504
 -13312190.38747  -9278794.97345  22366486.4774   22366473.3054         42.5004
        30.0004
 -20203926.37147 -14993924.46546  21346536.4614   21346522.9964         46.0004
        38.5004
  -3078227.64546  -1619764.99642  25212119.0784   25212103.6214         36.0004
        17.7504
  -2344032.76245  -1525946.41443  25213997.0004   25213983.8874         33.5004
        19.0004
   -867882.54745   1547315.44143  23896172.5944   23896162.9964         35.7504
        19.5004
  -9103134.59846  -6359497.69943  23655580.3524   23655569.1724         37.0004
        22.5004
 15  1  3  2 54  0.0000000  0 10G18G21G08G29G16G31G23G05G25G27
  -2837618.35945   -588608.02753  24740787.8914   24740771.6724         35.5004
        19.7504
 -15159771.78947 -11464417.31246  21095741.2584   21095727.2664         45.0004
        37.7504
 -24805363.66047 -17903786.48046  21292770.5474   21292757.8444         46.2504
        37.2504
  -7804221.86347  -5887779.93445  22345308.5164   22345295.5204         43.0004
        31.5004
 -13390995.72347  -9340201.71544  22351490.9384   22351477.0634         42.5004
        29.5004
 -20136049.76247 -14941033.60946  21359452.7114   21359439.7154         46.2504
        38.5004
  -3058319.40245  -1604252.09042  25215907.0474   25215892.7034         35.0004
        17.2504
  -2319533.30545  -1506855.86343  25218656.8834   25218645.8794         33.5004
        18.5004
   -777750.86346   1617547.89843  23913325.0784   23913314.9534         37.5004
        22.5004
  -9186275.10245  -6424282.48043  23639758.3524   23639748.0514         35.7504
        22.0004
 15  1  3  2 54 30.0000000  0 10G18G21G08G29G16G31G23G05G25G27
  -2913666.39545   -647866.30142  24726315.3674   24726302.3134         34.2504
        16.7504
 -15177437.52347 -11478182.81246  21092379.9384   21092365.4184         45.7504
        38.0004
 -24855465.27047 -17942826.69546  21283236.4064   21283223.4694         46.0004
        37.2504
  -7724737.91447  -5825844.39145  22360433.5784   22360420.7584         43.0004
        31.2504
 -13469663.77347  -9401501.48045  22336520.4454   22336506.7464         43.0004
        30.0004
 -20067741.17647 -14887806.14146  21372451.3524   21372437.9454         46.0004
        37.7504
  -3037962.59445  -1588389.64542  25219779.8914   25219766.7774         35.5004
        17.7504
  -2294522.55545  -1487366.95743  25223417.9844   25223405.1054         33.7504
        18.5004
   -687456.70746   1687906.99643  23930507.1414   23930496.0784         37.0004
        21.2504
  -9269262.07846  -6488947.62944  23623967.0554   23623956.2854         36.0004
        24.5004
 15  1  3  2 55  0.0000000  0 10G18G21G08G29G16G31G23G05G25G27
  -2989755.50845   -707156.53942  24711835.2194   24711823.5124         32.5004
        16.2504
 -15194630.94147 -11491580.27746  21089107.6804   21089093.5704         45.0004
        38.5004
 -24905006.17247 -17981430.00046  21273809.1954   21273796.5514         45.5004
        36.7504
  -7645157.79747  -5763833.91845  22375576.9774   22375564.3914         42.5004
        31.0004
 -13548192.72747  -9462692.85544  22321577.4064   22321563.4734         43.2504
        29.5004
 -19999002.91847 -14834243.87146  21385532.0634   21385518.5394         45.5004
        38.0004
  -3017158.45746  -1572178.61742  25223740.0004   25223725.9494         36.0004
        15.5004
  -2269000.81645  -1467479.90243  25228274.1334   25228261.0204         34.0004
        19.0004
   -597000.73846   1758392.19943  23947720.7194   23947709.0124         36.0004
        20.0004
  -9352095.11346  -6553492.82443  23608203.9694   23608193.4344         37.2504
        22.7504
 15  1  3  2 55 30.0000000  0 10G18G21G08G29G16G31G23G05G25G27
  -3065883.07845   -766476.70342  24697348.6174   24697337.5554         31.7504
        15.5004
 -15211351.89147 -11504609.57846  21085925.8054   21085911.9304         45.5004
        38.5004
 -24953984.35947 -18019594.81646  21264489.2734   21264475.8674         46.2504
        37.0004
  -7565482.30947  -5701749.13745  22390739.4064   22390726.2934         43.0004
        31.2504
 -13626581.15647  -9523774.74645  22306660.0634   22306646.1294         43.0004
        30.0004
 -19929837.16447 -14780348.48046  21398693.5634   21398680.3914         46.0004
        38.2504
  -2995908.76645  -1555620.45342  25227782.7974   25227769.9774         35.7504
        16.7504
  -2242969.08245  -1447195.42643  25233229.3134   25233215.3204         35.5004
        20.7504
   -506383.65245   1829002.87943  23964963.8674   23964953.8014         35.0004
        20.2504
  -9434773.85946  -6617917.80144  23592471.3524   23592460.1134         36.2504
        24.0004
 15  1  3  2 56  0.0000000  0 10G18G21G08G29G16G31G23G05G25G27
  -3142046.56245   -825824.86342  24682856.8444   24682843.8484         31.7504
        14.7504
 -15227599.79747 -11517270.27746  21082833.5164   21082819.9344         44.0004
        38.0004
 -25002397.59847 -18057319.41846  21255276.2974   21255262.8324         45.7504
        37.2504
  -7485712.76247  -5639591.04745  22405919.0314   22405906.3284         43.2504
        31.5004
 -13704827.76247  -9584746.11344  22291770.8134   22291756.2344         43.5004
        29.2504
 -19860245.82047 -14726121.46946  21411936.8674   21411923.3444         45.0004
        37.7504
  -2974214.96145  -1538716.16442  25231912.1724   25231898.0044         35.0004
        16.2504
  -2216427.73046  -1426513.84843  25238279.4694   25238265.5944         36.5004
        19.7504
   -415606.30546   1899738.46143  23982237.8444   23982228.3634         36.5004
        20.5004
  -9517297.84446  -6682222.19144  23576767.7034   23576756.2304         37.2504
        24.0004
 15  1  3  2 56 30.0000000  0 10G18G21G08G29G16G31G23G05G25G27
  -3218243.48045   -885199.02742  24668354.9384   24668344.4024         32.5004
        15.5004
 -15243375.02347 -11529562.64846  21079831.9614   21079818.4964         44.7504
        37.7504
 -25050243.64847 -18094602.05146  21246171.4304   21246158.1994         46.2504
        37.0004
  -7405850.62147  -5577360.81645  22421115.4774   22421103.2424         42.5004
        30.2504
 -13782931.43747  -9645606.11345  22276907.6254   22276893.5744         43.0004
        30.7504
 -19790231.13747 -14671564.58246  21425259.8834   21425246.7114         45.2504
        38.0004
  -2952078.57445  -1521467.02742  25236123.3834   25236110.2114         35.5004
        14.7504
  -2189376.85246  -1405435.23043  25243427.5234   25243413.2974         36.5004
        19.7504
   -324669.37946   1970598.39143  23999543.2894   23999533.5744         37.0004
        22.2504
  -9599666.83246  -6746405.78144  23561092.7734   23561081.6524         36.5004
        24.0004
 15  1  3  2 57  0.0000000  0 10G18G21G08G29G16G31G23G05G25G27
  -3294471.28145   -944597.39542  24653850.8364   24653838.8954         34.5004
        15.5004
 -15258677.53147 -11541486.66846  21076919.9144   21076905.8054         44.5004
        38.0004
 -25097520.46947 -18131441.12946  21237174.8834   21237161.5354         45.2504
        36.5004
  -7325896.12147  -5515058.62145  22436330.3054   22436318.0704         42.5004
        31.0004
 -13860890.25047  -9706353.22345  22262072.1414   22262058.7344         43.2504
        30.2504
 -19719795.22347 -14616679.46146  21438663.8594   21438650.3364         45.5004
        38.0004
  -2929501.57446  -1503874.59042  25240420.8364   25240406.3164         36.2504
        15.5004
  -2161817.21146  -1383960.16043  25248671.5554   25248657.7974         36.0004
        20.0004
   -233573.61346   2041582.09043  24016878.0554   24016868.5164         37.5004
        21.7504
  -9681880.28146  -6810468.16444  23545447.9924   23545437.5164         37.0004
        25.5004
 15  1  3  2 57 30.0000000  0 10G18G21G08G29G16G31G23G05G25G27
  -3370727.59845  -1004017.89542  24639339.5474   24639327.5474         33.7504
        14.7504
 -15273507.01247 -11553042.09846  21074098.0314   21074084.0394         45.0004
        37.5004
 -25144226.00447 -18167835.04346  21228287.3834   21228273.8594         46.0004
        36.5004
  -7245851.08247  -5452685.87145  22451563.4924   22451549.9694         43.0004
        30.2504
 -13938702.89147  -9766986.43045  22247265.6334   22247251.5824         43.2504
        30.7504
 -19648940.49247 -14561468.00446  21452146.8984   21452133.4924         46.0004
        38.5004
  -2906485.28545  -1485939.64842  25244801.2114   25244786.5744         35.0004
        14.7504
  -2133749.77745  -1362089.43443  25254012.1024   25253999.5164         35.5004
        19.7504
   -142319.82445   2112688.91443  24034242.3204   24034232.1374         34.7504
        18.2504
  -9763937.92646  -6874409.16444  23529833.2504   23529822.5984         37.2504
        25.5004
 15  1  3  2 58  0.0000000  0 10G18G21G08G29G16G31G23G05G25G27
  -3447010.02045  -1063458.79342  24624824.3364   24624812.3364         32.5004
        14.7504
 -15287863.91447 -11564229.27746  21071366.2814   21071351.7624         45.5004
        37.5004
 -25190358.48847 -18203782.43046  21219508.7344   21219495.6804         46.0004
        37.5004
  -7165717.01247  -5390243.74245  22466812.3914   22466798.6914         42.5004
        30.2504
 -14016367.75047  -9827504.50045  22232486.2894   22232472.7074         43.0004
        31.7504
 -19577668.95347 -14505931.73846  21465709.0314   21465695.7424         45.7504
        38.5004
  -2883031.172 5                  25249263.734                          32.500

  -2105174.83646  -1339823.26243  25259449.5634   25259436.8594         36.5004
        21.2504
    -50908.69545   2183918.36342  24051636.3444   24051627.6844         34.2504
        17.7504
  -9845839.38346  -6938228.44944  23514247.4064   23514236.9304         37.5004
        24.2504
